’PMÁŠb¢iiS!TSK00±É‚b4Sð$PGACK,33,0*6E,751

$GPGGA,104140.807,,,,,0,0,,,M,,M,,*47,751

$GPRMC,104140.807,V,,,,,0.00,0.00,171115,,,N*40,751

$GPGGA,104141.807,,,,,0,0,,,M,,M,,*46,1257

$GPRMC,104141.807,V,,,,,0.00,0.00,171115,,,N*41,1257

$GPGGA,104142.807,,,,,0,0,,,M,,M,,*45,999

$GPRMC,104142.807,V,,,,,0.00,0.00,171115,,,N*42,999

$GPGGA,104143.807,,,,,0,0,,,M,,M,,*44,1004

$GPRMC,104143.807,V,,,,,0.00,0.00,171115,,,N*43,1004

$GPGGA,104144.807,,,,,0,0,,,M,,M,,*43,1000

$GPRMC,104144.807,V,,,,,0.00,0.00,171115,,,N*44,1000

$GPGGA,104145.807,,,,,0,0,,,M,,M,,*42,1000

$GPRMC,104145.807,V,,,,,0.00,0.00,171115,,,N*45,1000

$GPGGA,104146.807,,,,,0,0,,,M,,M,,*41,1001

$GPRMC,104146.807,V,,,,,0.00,0.00,171115,,,N*46,1001

$GPGGA,104147.593,,,,,0,0,,,M,,M,,*40,785

$GPRMC,104147.593,V,,,,,0.00,0.00,171115,,,N*47,785

$GPGGA,104148.593,,,,,0,0,,,M,,M,,*4F,950

$GPRMC,104148.593,V,,,,,0.00,0.00,171115,,,N*48,950

$GPGGA,104151.073,,,,,0,3,,,M,,M,,*4F,1055

$GPRMC,104151.073,V,,,,,0.00,0.00,171115,,,N*4B,1055

$GPGGA,104152.084,,,,,0,3,,,M,,M,,*44,1023

$GPRMC,104152.084,V,,,,,0.00,0.00,171115,,,N*40,1023

$GPGGA,104153.084,,,,,0,3,,,M,,M,,*45,1001

$GPRMC,104153.084,V,,,,,43.17,243.66,171115,,,N*75,1001

$GPGGA,104154.084,,,,,0,3,,,M,,M,,*42,996

$GPRMC,104154.084,V,,,,,43.19,243.64,171115,,,N*7E,996

$GPGGA,104155.084,,,,,0,3,,,M,,M,,*43,1004

$GPRMC,104155.084,V,,,,,43.21,243.60,171115,,,N*70,1004

$GPGGA,104156.084,,,,,0,0,,,M,,M,,*43,981

$GPRMC,104156.084,V,,,,,42.50,243.60,171115,,,N*74,981

$GPGGA,104157.084,,,,,0,0,,,M,,M,,*42,996

$GPRMC,104157.084,V,,,,,40.17,243.60,171115,,,N*74,996

$GPGGA,104158.084,,,,,0,0,,,M,,M,,*4D,998

$GPRMC,104158.084,V,,,,,36.01,243.60,171115,,,N*7D,998

$GPGGA,104159.084,,,,,0,0,,,M,,M,,*4C,1001

$GPRMC,104159.084,V,,,,,30.37,243.60,171115,,,N*7F,1001

$GPGGA,104200.084,,,,,0,0,,,M,,M,,*43,996

$GPRMC,104200.084,V,,,,,24.00,243.60,171115,,,N*71,996

$GPGGA,104201.083,,,,,0,3,,,M,,M,,*46,1162

$GPRMC,104201.083,V,,,,,17.47,251.71,171115,,,N*77,1162

$GPGGA,104202.083,,,,,0,3,,,M,,M,,*45,944

$GPRMC,104202.083,V,,,,,17.48,251.73,171115,,,N*79,944

$GPGGA,104204.000,,,,,0,3,,,M,,M,,*48,1897

$GPRMC,104204.000,V,,,,,15.77,241.84,171115,,,N*73,1897

$GPGGA,104205.000,,,,,0,3,,,M,,M,,*49,999

$GPRMC,104205.000,V,,,,,15.03,236.85,171115,,,N*70,999

$GPGGA,104206.000,,,,,0,3,,,M,,M,,*4A,1010

$GPRMC,104206.000,V,,,,,14.54,234.41,171115,,,N*7A,1010

$GPGGA,104207.000,,,,,0,3,,,M,,M,,*4B,1017

$GPRMC,104207.000,V,,,,,13.96,232.90,171115,,,N*78
                            ,1017

$GPGGA,104,,,,,13.66,232.14,171115,,,N*7F,1017
$GPGGA,104209.000,,,,,0,3,,,M,,M,,*45,1986

$GPRMC,104209.000,V,,,,,13.22,230.91,171115,,,N*7A,1986

$GPGGA,104210.000,,,,,0,3,,,M,,M,,*4D,1002

$GPRMC,104210.000,V,,,,,12.79,229.82,171115,,,N*77,1002

$GPGGA,104211.000,,,,,0,3,,,M,,M,,*4C,1010

$GPRMC,104211.000,V,,,,,12.55,229.15,171115,,,N*76,1010

$GPGGA,104212.000,,,,,0,3,,,M,,M,,*4F,982

$GPRMC,104212.000,V,,,,,12.20,229.03,171115,,,N*70,982

$GPGGA,104213.000,,,,,0,3,,,M,,M,,*4E,1023

$GPGGA,104,N*7E,1023

$GPRMC,104213.000,V,,,,,11.80,228.60,171115,,,N*7C
                                                                                                            ,1023
$GPGGA,104215.000,,,,,0,3,,,M,,M,,*48,1987

$GPRMC,104215.000,V,,,,,11.29,227.72,171115,,,N*75,1987

$GPGGA,104216.000,,,,,0,3,,,M,,M,,*4B,992

$GPRMC,104216.000,V,,,,,10.99,226.58,171115,,,N*75,992

$GPGGA,104217.000,,,,,0,3,,,M,,M,,*4A,1009

$GPRMC,104217.000,V,,,,,10.63,226.40,171115,,,N*78,1009

$GPGGA,104218.000,,,,,0,3,,,M,,M,,*45,1004

$GPRMC,104218.000,V,,,,,10.35,225.68,171115,,,N*7D,1004

$GPGGA,104219.000,,,,,0,3,,,M,,M,,*44,1013

$GPRMC,104219.000,V,,,,,10.07,225.52,171115,,,N*74
                            ,1013

$GPGGA,104V,,,,,9.90,225.57,171115,,,N*47,1013
$GPGGA,104221.000,,,,,0,3,,,M,,M,,*4F,1979

$GPRMC,104221.000,V,,,,,9.42,225.08,171115,,,N*49,1979

$GPGGA,104222.000,,,,,0,3,,,M,,M,,*4C,1045

$GPRMC,104222.000,V,,,,,8.98,224.83,171115,,,N*4E,1045

$GPGGA,104223.000,,,,,0,3,,,M,,M,,*4D,993

$GPRMC,104223.000,V,,,,,8.66,224.32,171115,,,N*44,993

$GPGGA,104224.000,,,,,0,3,,,M,,M,,*4A,1001

$GPRMC,104224.000,V,,,,,8.19,226.50,171115,,,N*4D,1001

$GPGGA,104225.000,,,,,0,3,,,M,,M,,*4B,968

$GPGGA,1042,,,7.66,225.50,171115,,,N*4E,968

$GPRMC,104225.000,V,,,,,7.90,225.78,171115,,,N*4B
                                                                                                             ,968
$GPGGA,104227.000,,,,,0,2,,,M,,M,,*48,1987

$GPRMC,104227.000,V,,,,,7.28,224.42,171115,,,N*42,1987

$GPGGA,104228.000,,,,,0,2,,,M,,M,,*47,1001

$GPRMC,104228.000,V,,,,,6.93,223.28,171115,,,N*47,1001

$GPGGA,104229.000,,,,,0,2,,,M,,M,,*46,1018

$GPRMC,104229.000,V,,,,,6.67,222.38,171115,,,N*4D,1018

$GPGGA,104230.000,,,,,0,2,,,M,,M,,*4E,1002

$GPRMC,104230.000,V,,,,,6.46,221.57,171115,,,N*4C,1002

$GPGGA,104231.000,,,,,0,2,,,M,,M,,*4F,984

$GPRMC,104231.000,V,,,,,6.25,220.47,171115,,,N*48
                             ,984

$GPGGA,10422.85,171115,,,N*4A,984
$GPGGA,104233.000,,,,,0,4,,,M,,M,,*4B,1802

$GPRMC,104233.000,V,,,,,5.25,230.61,171115,,,N*4C,1802

$GPGGA,104234.000,,,,,0,4,,,M,,M,,*4C,1017

$GPRMC,104234.000,V,,,,,4.75,232.49,171115,,,N*47,1017

$GPGGA,104235.000,,,,,0,4,,,M,,M,,*4D,991

$GPRMC,104235.000,V,,,,,4.34,232.01,171115,,,N*4F,991

$GPGGA,104236.000,,,,,0,4,,,M,,M,,*4E,1003

$GPRMC,104236.000,V,,,,,3.81,232.33,171115,,,N*44,1003

$GPGGA,104237.000,,,,,0,4,,,M,,M,,*4F,991

$GPRMC,104237.000,V,,,,,3.54,230.87,171115,,,N*40,991

$GPGGA,104238.000,,,,,0,4,,,M,,M,,*40,1020

$GPRMC,104238.000,V,,,,,3.35,232.75,171115,,,N*47,1020

$GPGGA,104239.000,,,,,0,4,,,M,,M,,*41,982

$GPRMC,104239.000,V,,,,,3.03,234.29,171115,,,N*4C,982

$GPGGA,104240.000,,,,,0,4,,,M,,M,,*4F,1000

$GPRMC,104240.000,V,,,,,2.79,234.12,171115,,,N*46,1000

$GPGGA,104241.000,,,,,0,4,,,M,,M,,*4E,1002

$GPRMC,104241.000,V,,,,,2.72,234.59,171115,,,N*43,1002

$GPGGA,104242.000,,,,,0,4,,,M,,M,,*4D,1018

$GPRMC,104242.000,V,,,,,2.32,235.11,171115,,,N*49,1018

$GPGGA,104243.000,,,,,0,4,,,M,,M,,*4C,991

$GPRMC,104243.000,V,,,,,2.26,235.09,171115,,,N*44,991

$GPGGA,104244.000,,,,,0,4,,,M,,M,,*4B,1007

$GPRMC,104244.000,V,,,,,2.06,235.07,171115,,,N*4F,1007

$GPGGA,104245.000,,,,,0,4,,,M,,M,,*4A,1011

$GPRMC,104245.000,V,,,,,1.98,235.23,171115,,,N*4C,1011

$GPGGA,104246.000,,,,,0,4,,,M,,M,,*49,993

$GPRMC,104246.000,V,,,,,1.92,235.37,171115,,,N*40,993

$GPGGA,104247.000,,,,,0,4,,,M,,M,,*48,984

$GPRMC,104247.000,V,,,,,1.85,235.38,171115,,,N*48,984

$GPGGA,104248.000,,,,,0,4,,,M,,M,,*47,1006

$GPRMC,104248.000,V,,,,,1.33,235.38,171115,,,N*4A,1006

$GPGGA,104249.000,,,,,0,4,,,M,,M,,*46,994

$GPRMC,104249.000,V,,,,,1.16,235.38,171115,,,N*4C,994

$GPGGA,104250.000,,,,,0,4,,,M,,M,,*4E,1019

$GPRMC,104250.000,V,,,,,1.12,235.38,171115,,,N*40,1019

$GPGGA,104251.000,,,,,0,4,,,M,,M,,*4F,981

$GPRMC,104251.000,V,,,,,1.07,235.38,171115,,,N*45,981

$GPGGA,104252.000,,,,,0,4,,,M,,M,,*4C,1028

$GPRMC,104252.000,V,,,,,1.01,235.38,171115,,,N*40,1028

$GPGGA,104253.000,,,,,0,4,,,M,,M,,*4D,976

$GPRMC,104253.000,V,,,,,0.99,235.38,171115,,,N*41,976

$GPGGA,104254.000,,,,,0,4,,,M,,M,,*4A,1016

$GPRMC,104254.000,V,,,,,0.99,235.38,171115,,,N*46,1016

$GPGGA,104255.000,,,,,0,4,,,M,,M,,*4B,1001

$GPRMC,104255.000,V,,,,,0.94,235.38,171115,,,N*4A,1001

$GPGGA,104256.000,,,,,0,4,,,M,,M,,*48,992

$GPRMC,104256.000,V,,,,,0.92,235.38,171115,,,N*4F,992

$GPGGA,104257.000,,,,,0,4,,,M,,M,,*49,992

$GPRMC,104257.000,V,,,,,0.88,235.38,171115,,,N*45,992

$GPGGA,104258.000,,,,,0,4,,,M,,M,,*46,1018

$GPRMC,104258.000,V,,,,,0.69,235.38,171115,,,N*45,1018

$GPGGA,104259.000,,,,,0,4,,,M,,M,,*47,1000

$GPRMC,104259.000,V,,,,,0.44,235.38,171115,,,N*4B,1000

$GPGGA,104300.000,,,,,0,4,,,M,,M,,*4A,1001

$GPRMC,104300.000,V,,,,,0.39,235.38,171115,,,N*4C,1001

$GPGGA,104301.000,,,,,0,4,,,M,,M,,*4B,991

$GPRMC,104301.000,V,,,,,0.34,235.38,171115,,,N*40,991

$GPGGA,104302.000,,,,,0,4,,,M,,M,,*48,1002

$GPRMC,104302.000,V,,,,,0.27,235.38,171115,,,N*41,1002

$GPGGA,104303.000,,,,,0,4,,,M,,M,,*49,1008

$GPRMC,104303.000,V,,,,,0.03,235.38,171115,,,N*46,1008

$GPGGA,104304.000,,,,,0,4,,,M,,M,,*4E,990

$GPRMC,104304.000,V,,,,,0.05,235.38,171115,,,N*47,990

$GPGGA,104305.000,,,,,0,4,,,M,,M,,*4F,1019

$GPRMC,104305.000,V,,,,,0.11,235.38,171115,,,N*43,1019

$GPGGA,104306.000,,,,,0,4,,,M,,M,,*4C,1001

$GPRMC,104306.000,V,,,,,0.08,235.38,171115,,,N*48,1001

$GPGGA,104307.000,,,,,0,4,,,M,,M,,*4D,993

$GPRMC,104307.000,V,,,,,0.06,235.38,171115,,,N*47,993

$GPGGA,104308.000,,,,,0,4,,,M,,M,,*42,987

$GPRMC,104308.000,V,,,,,0.09,235.38,171115,,,N*47,987

$GPGGA,104309.000,,,,,0,4,,,M,,M,,*43,1016

$GPRMC,104309.000,V,,,,,0.11,235.38,171115,,,N*4F,1016

$GPGGA,104310.000,,,,,0,4,,,M,,M,,*4B,998

$GPRMC,104310.000,V,,,,,0.12,235.38,171115,,,N*44,998

$GPGGA,104311.000,,,,,0,4,,,M,,M,,*4A,982

$GPRMC,104311.000,V,,,,,0.13,235.38,171115,,,N*44,982

$GPGGA,104312.000,,,,,0,4,,,M,,M,,*49,1011

$GPRMC,104312.000,V,,,,,0.33,235.38,171115,,,N*45,1011

$GPGGA,104313.000,,,,,0,4,,,M,,M,,*48,999

$GPRMC,104313.000,V,,,,,0.38,235.38,171115,,,N*4F,999

$GPGGA,104314.000,,,,,0,4,,,M,,M,,*4F,1011

$GPRMC,104314.000,V,,,,,0.54,235.38,171115,,,N*42,1011

$GPGGA,104315.000,,,,,0,4,,,M,,M,,*4E,1001

$GPRMC,104315.000,V,,,,,0.58,235.38,171115,,,N*4F,1001

$GPGGA,104316.000,,,,,0,4,,,M,,M,,*4D,983

$GPRMC,104316.000,V,,,,,0.59,235.38,171115,,,N*4D,983

$GPGGA,104317.000,,,,,0,4,,,M,,M,,*4C,999

$GPRMC,104317.000,V,,,,,0.58,235.38,171115,,,N*4D,999

$GPGGA,104318.000,,,,,0,4,,,M,,M,,*43,1003

$GPRMC,104318.000,V,,,,,0.59,235.38,171115,,,N*43,1003

$GPGGA,104319.000,,,,,0,4,,,M,,M,,*42,1016

$GPRMC,104319.000,V,,,,,0.63,235.38,171115,,,N*4B,1016

$GPGGA,104320.000,,,,,0,4,,,M,,M,,*48,990

$GPRMC,104320.000,V,,,,,0.64,235.38,171115,,,N*46,990

$GPGGA,104321.000,,,,,0,4,,,M,,M,,*49,995

$GPRMC,104321.000,V,,,,,0.64,235.38,171115,,,N*47,995

$GPGGA,104322.000,,,,,0,4,,,M,,M,,*4A,1017

$GPRMC,104322.000,V,,,,,0.60,235.38,171115,,,N*40,1017

$GPGGA,104323.000,,,,,0,4,,,M,,M,,*4B,1000

$GPRMC,104323.000,V,,,,,0.57,235.38,171115,,,N*45,1000

$GPGGA,104324.000,,,,,0,4,,,M,,M,,*4C,985

$GPRMC,104324.000,V,,,,,0.51,235.38,171115,,,N*44,985

$GPGGA,104325.000,,,,,0,4,,,M,,M,,*4D,1024

$GPRMC,104325.000,V,,,,,0.46,235.38,171115,,,N*43,1024

$GPGGA,104326.000,,,,,0,4,,,M,,M,,*4E,992

$GPRMC,104326.000,V,,,,,0.45,235.38,171115,,,N*43,992

$GPGGA,104327.000,,,,,0,4,,,M,,M,,*4F,986

$GPRMC,104327.000,V,,,,,0.43,235.38,171115,,,N*44,986

$GPGGA,104328.000,,,,,0,4,,,M,,M,,*40,1024

$GPRMC,104328.000,V,,,,,0.41,235.38,171115,,,N*49,1024

$GPGGA,104329.000,,,,,0,4,,,M,,M,,*41,992

$GPRMC,104329.000,V,,,,,0.38,235.38,171115,,,N*46,992

$GPGGA,104330.000,,,,,0,4,,,M,,M,,*49,992

$GPRMC,104330.000,V,,,,,0.36,235.38,171115,,,N*40,992

$GPGGA,104331.000,,,,,0,4,,,M,,M,,*48,999

$GPRMC,104331.000,V,,,,,0.34,235.38,171115,,,N*43,999

$GPGGA,104332.000,,,,,0,4,,,M,,M,,*4B,1268

$GPRMC,104332.000,V,,,,,0.34,235.38,171115,,,N*40,1268

$GPGGA,104333.000,,,,,0,4,,,M,,M,,*4A,1003

$GPRMC,104333.000,V,,,,,0.35,235.38,171115,,,N*40,1003

$GPGGA,104334.000,,,,,0,4,,,M,,M,,*4D,1023

$GPRMC,104334.000,V,,,,,0.19,235.38,171115,,,N*49,1023

$GPGGA,104335.000,,,,,0,4,,,M,,M,,*4C,953

$GPRMC,104335.000,V,,,,,0.19,235.38,171115,,,N*48,953

$GPGGA,104336.000,,,,,0,4,,,M,,M,,*4F,1026

$GPRMC,104336.000,V,,,,,0.14,235.38,171115,,,N*46,1026

$GPGGA,104337.000,,,,,0,3,,,M,,M,,*49,939

$GPRMC,104337.000,V,,,,,0.51,235.38,171115,,,N*46,939

$GPGGA,104338.000,,,,,0,4,,,M,,M,,*41,1058

$GPRMC,104338.000,V,,,,,1.20,235.38,171115,,,N*4E,1058

$GPGGA,104339.000,,,,,0,4,,,M,,M,,*40,985

$GPRMC,104339.000,V,,,,,2.19,235.38,171115,,,N*46,985

$GPGGA,104340.000,,,,,0,4,,,M,,M,,*4E,991

$GPRMC,104340.000,V,,,,,3.04,238.02,171115,,,N*41,991

$GPGGA,104341.000,,,,,0,4,,,M,,M,,*4F,1023

$GPRMC,104341.000,V,,,,,3.78,240.96,171115,,,N*49,1023

$GPGGA,104342.000,,,,,0,4,,,M,,M,,*4C,1008

$GPRMC,104342.000,V,,,,,3.82,244.23,171115,,,N*45,1008

$GPGGA,104343.000,,,,,0,4,,,M,,M,,*4D,984

$GPRMC,104343.000,V,,,,,3.49,247.51,171115,,,N*45,984

$GPGGA,104344.000,,,,,0,4,,,M,,M,,*4A,1012

$GPRMC,104344.000,V,,,,,3.22,250.39,171115,,,N*47,1012

$GPGGA,104345.000,,,,,0,4,,,M,,M,,*4B,984

$GPRMC,104345.000,V,,,,,3.20,252.38,171115,,,N*47,984

$GPGGA,104346.000,,,,,0,4,,,M,,M,,*48,1044

$GPRMC,104346.000,V,,,,,3.22,254.51,171115,,,N*4F,1044

$GPGGA,104347.000,,,,,0,4,,,M,,M,,*49,1001

$GPRMC,104347.000,V,,,,,3.23,256.38,171115,,,N*42,1001

$GPGGA,104348.000,,,,,0,4,,,M,,M,,*46,958

$GPRMC,104348.000,V,,,,,3.39,257.97,171115,,,N*42,958

$GPGGA,104349.000,,,,,0,4,,,M,,M,,*47,1043

$GPRMC,104349.000,V,,,,,2.91,257.97,171115,,,N*40,1043

$GPGGA,104350.000,5056.0311,N,00123.9924,W,1,5,3.29,95.7,M,47.6,M,,*7D,1019

$GPRMC,104350.000,A,5056.0311,N,00123.9924,W,2.27,257.97,17111$GPGGA,104351.000,5056.0279,N,00123.9964,W,1,5,3.29,95.3,M,47.6,M,,*73,955

$GPRMC,104351.000,A,5056.0279,N,00123.9964,W,1.96,257.97,17111$GPGGA,104352.000,5056.0227,N,00124.0034,W,1,5,3.29,94.8,M,47.6,M,,*73,991

$GPRMC,104352.000,A,5056.0227,N,00124.0034,W,2.41,257.97,17111$GPGGA,104353.000,5056.0180,N,00124.0095,W,1,5,3.29,94.3,M,47.6,M,,*7C,1011

$GPRMC,104353.000,A,5056.0180,N,00124.0095,W,2.77,257.97,17111$GPGGA,104354.000,5056.0147,N,00124.0139,W,1,5,3.29,93.9,M,47.6,M,,*7A,998

$GPRMC,104354.000,A,5056.0147,N,00124.0139,W,3.12,251.51,17111$GPGGA,104355.000,5056.0147,N,00124.0141,W,1,5,3.29,93.8,M,47.6,M,,*75,1044

$GPRMC,104355.000,A,5056.0147,N,00124.0141,W,3.55,253.60,17111$GPGGA,104356.000,5056.0147,N,00124.0149,W,1,5,3.29,93.7,M,47.6,M,,*71,953

$GPRMC,104356.000,A,5056.0147,N,00124.0149,W,3.57,254.14,17111$GPGGA,104357.000,5056.0147,N,00124.0150,W,1,5,3.28,93.7,M,47.6,M,,*79,1023

$GPRMC,104357.000,A,5056.0147,N,00124.0150,W,3.50,254.80,17111$GPGGA,104358.000,5056.0144,N,00124.0153,W,1,5,3.28,93.7,M,47.6,M,,*76,976

$GPRMC,104358.000,A,5056.0144,N,00124.0153,W,3.16,246.76,17111$GPGGA,104359.000,5056.0142,N,00124.0150,W,1,5,3.28,93.7,M,47.6,M,,*72,1010

$GPRMC,104359.000,A,5056.0142,N,00124.0150,W,2.55,246.76,17111$GPGGA,104400.000,5056.0143,N,00124.0146,W,1,5,3.28,93.7,M,47.6,M,,*7F,1018

$GPRMC,104400.000,A,5056.0143,N,00124.0146,W,1.48,246.76,17111$GPGGA,104401.000,5056.0145,N,00124.0136,W,1,5,3.28,93.7,M,47.6,M,,*7F,974

$GPRMC,104401.000,A,5056.0145,N,00124.0136,W,1.21,246.76,17111$GPGGA,104402.000,5056.0145,N,00124.0136,W,1,5,3.28,93.8,M,47.6,M,,*73,1009

$GPRMC,104402.000,A,5056.0145,N,00124.0136,W,2.06,246.76,17111$GPGGA,104403.000,5056.0145,N,00124.0138,W,1,5,3.28,93.8,M,47.6,M,,*7C,1018

$GPRMC,104403.000,A,5056.0145,N,00124.0138,W,3.54,248.40,17111$GPGGA,104404.000,5056.0146,N,00124.0137,W,1,5,3.28,94.0,M,47.6,M,,*78,986

$GPRMC,104404.000,A,5056.0146,N,00124.0137,W,2.84,248.25,17111$GPGGA,104405.000,5056.0126,N,00124.0162,W,1,5,3.27,93.9,M,47.6,M,,*7E,1008

$GPRMC,104405.000,A,5056.0126,N,00124.0162,W,2.00,248.55,17111$GPGGA,104406.000,5056.0126,N,00124.0160,W,1,5,3.27,94.0,M,47.6,M,,*71,1001

$GPRMC,104406.000,A,5056.0126,N,00124.0160,W,1.73,248.81,17111$GPGGA,104407.000,5056.0125,N,00124.0155,W,1,5,3.27,94.1,M,47.6,M,,*74,1042

$GPRMC,104407.000,A,5056.0125,N,00124.0155,W,1.40,248.95,17111$GPGGA,104408.000,5056.0126,N,00124.0150,W,1,5,3.27,94.2,M,47.6,M,,*7E,1011

$GPRMC,104408.000,A,5056.0126,N,00124.0150,W,1.33,248.95,17111$GPGGA,104409.000,5056.0127,N,00124.0143,W,1,5,3.27,94.4,M,47.6,M,,*7A,954

$GPRMC,104409.000,A,5056.0127,N,00124.0143,W,2.14,248.95,17111$GPGGA,104410.000,5056.0127,N,00124.0144,W,1,5,3.27,94.6,M,47.6,M,,*77,1047

$GPRMC,104410.000,A,5056.0127,N,00124.0144,W,2.21,248.95,17111$GPGGA,104411.000,5056.0124,N,00124.0149,W,1,5,3.27,94.9,M,47.6,M,,*77,983

$GPRMC,104411.000,A,5056.0124,N,00124.0149,W,2.86,248.95,17111$GPGGA,104412.000,5056.0121,N,00124.0154,W,1,5,3.27,95.1,M,47.6,M,,*74,964

$GPRMC,104412.000,A,5056.0121,N,00124.0154,W,3.47,249.59,17111$GPGGA,104413.000,5056.0117,N,00124.0160,W,1,5,3.26,95.4,M,47.6,M,,*73,984

$GPRMC,104413.000,A,5056.0117,N,00124.0160,W,2.95,247.95,17111$GPGGA,104414.000,5056.0092,N,00124.0195,W,1,5,3.26,95.4,M,47.6,M,,*72,1033

$GPRMC,104414.000,A,5056.0092,N,00124.0195,W,3.01,246.90,17111$GPGGA,104415.000,5056.0079,N,00124.0213,W,1,5,3.26,95.5,M,47.6,M,,*7A,986

$GPRMC,104415.000,A,5056.0079,N,00124.0213,W,1.94,246.37,17111$GPGGA,104416.000,5056.0074,N,00124.0216,W,1,5,3.26,95.6,M,47.6,M,,*72,1030

$GPRMC,104416.000,A,5056.0074,N,00124.0216,W,0.09,245.86,17111$GPGGA,104417.000,5056.0069,N,00124.0220,W,1,5,3.26,95.7,M,47.6,M,,*7B,972

$GPRMC,104417.000,A,5056.0069,N,00124.0220,W,0.16,245.46,17111$GPGGA,104418.000,5056.0074,N,00124.0216,W,1,5,3.26,95.8,M,47.6,M,,*72,980

$GPRMC,104418.000,A,5056.0074,N,00124.0216,W,0.18,245.46,17111$GPGGA,104419.000,5056.0075,N,00124.0212,W,1,5,3.26,95.9,M,47.6,M,,*77,1012

$GPRMC,104419.000,A,5056.0075,N,00124.0212,W,0.16,245.46,17111$GPGGA,104420.000,5056.0075,N,00124.0208,W,1,5,3.26,96.1,M,47.6,M,,*7D,1009

$GPRMC,104420.000,A,5056.0075,N,00124.0208,W,0.21,245.46,17111$GPGGA,104421.000,5056.0072,N,00124.0210,W,1,5,3.26,96.3,M,47.6,M,,*70,978

$GPRMC,104421.000,A,5056.0072,N,00124.0210,W,0.31,245.46,17111$GPGGA,104422.000,5056.0070,N,00124.0217,W,1,5,3.26,96.6,M,47.6,M,,*73,1008

$GPRMC,104422.000,A,5056.0070,N,00124.0217,W,0.28,245.46,17111$GPGGA,104423.000,5056.0069,N,00124.0221,W,1,5,3.26,96.9,M,47.6,M,,*70,1003

$GPRMC,104423.000,A,5056.0069,N,00124.0221,W,0.17,245.46,17111$GPGGA,104424.000,5056.0067,N,00124.0227,W,1,5,3.26,97.2,M,47.6,M,,*75,1013

$GPRMC,104424.000,A,5056.0067,N,00124.0227,W,0.04,245.46,17111$GPGGA,104425.000,5056.0064,N,00124.0231,W,1,5,3.26,97.0,M,47.6,M,,*72,987

$GPRMC,104425.000,A,5056.0064,N,00124.0231,W,0.08,245.46,17111$GPGGA,104426.000,5056.0056,N,00124.0241,W,1,5,3.25,97.0,M,47.6,M,,*74,1022

$GPRMC,104426.000,A,5056.0056,N,00124.0241,W,0.05,245.46,17111$GPGGA,104427.000,5056.0052,N,00124.0246,W,1,5,3.25,96.8,M,47.6,M,,*7F,975

$GPRMC,104427.000,A,5056.0052,N,00124.0246,W,0.15,245.46,17111$GPGGA,104428.000,5056.0051,N,00124.0249,W,1,5,3.25,96.7,M,47.6,M,,*73,1067

$GPRMC,104428.000,A,5056.0051,N,00124.0249,W,0.33,245.46,17111$GPGGA,104429.000,5056.0051,N,00124.0250,W,1,5,3.25,96.7,M,47.6,M,,*7A,938

$GPRMC,104429.000,A,5056.0051,N,00124.0250,W,4.23,246.68,17111$GPGGA,104430.000,5056.0051,N,00124.0254,W,1,5,9.65,96.8,M,47.6,M,,*77,1061

$GPRMC,104430.000,A,5056.0051,N,00124.0254,W,3.37,248.08,17111$GPGGA,104431.000,5056.0049,N,00124.0258,W,1,5,3.25,97.0,M,47.6,M,,*74,1004

$GPRMC,104431.000,A,5056.0049,N,00124.0258,W,0.10,248.08,17111$GPGGA,104432.000,5056.0046,N,00124.0263,W,1,5,3.25,97.1,M,47.6,M,,*71,972

$GPRMC,104432.000,A,5056.0046,N,00124.0263,W,0.06,248.08,17111$GPGGA,104433.000,5056.0042,N,00124.0266,W,1,5,3.24,97.2,M,47.6,M,,*73,956

$GPRMC,104433.000,A,5056.0042,N,00124.0266,W,0.13,248.08,17111$GPGGA,104434.000,5056.0040,N,00124.0265,W,1,5,3.25,97.3,M,47.6,M,,*75,999

$GPRMC,104434.000,A,5056.0040,N,00124.0265,W,0.22,248.08,17111$GPGGA,104435.000,5056.0037,N,00124.0270,W,1,5,3.24,97.5,M,47.6,M,,*77,1002

$GPRMC,104435.000,A,5056.0037,N,00124.0270,W,0.34,248.08,17111$GPGGA,104436.000,5056.0036,N,00124.0280,W,1,5,3.24,97.7,M,47.6,M,,*78,1021

$GPRMC,104436.000,A,5056.0036,N,00124.0280,W,4.06,249.80,17111$GPGGA,104437.000,5056.0035,N,00124.0284,W,1,5,9.67,98.0,M,47.6,M,,*7B,1030

$GPRMC,104437.000,A,5056.0035,N,00124.0284,W,3.23,250.49,17111$GPGGA,104438.000,5056.0034,N,00124.0290,W,1,5,3.24,98.4,M,47.6,M,,*79,971

$GPRMC,104438.000,A,5056.0034,N,00124.0290,W,0.14,250.49,17111$GPGGA,104439.000,5056.0033,N,00124.0288,W,1,5,3.24,98.8,M,47.6,M,,*7A,981

$GPRMC,104439.000,A,5056.0033,N,00124.0288,W,0.08,250.49,17111$GPGGA,104440.000,5056.0031,N,00124.0288,W,1,5,3.24,99.1,M,47.6,M,,*7E,1022

$GPRMC,104440.000,A,5056.0031,N,00124.0288,W,0.13,250.49,17111$GPGGA,104441.000,5056.0028,N,00124.0287,W,1,5,3.24,99.4,M,47.6,M,,*7D,989

$GPRMC,104441.000,A,5056.0028,N,00124.0287,W,0.32,250.49,17111$GPGGA,104442.000,5056.0027,N,00124.0284,W,1,5,3.24,99.9,M,47.6,M,,*7F,989

$GPRMC,104442.000,A,5056.0027,N,00124.0284,W,0.32,250.49,17111$GPGGA,104443.000,5056.0026,N,00124.0285,W,1,5,3.24,100.4,M,47.6,M,,*42,1001

$GPRMC,104443.000,A,5056.0026,N,00124.0285,W,0.32,250.49,17111$GPGGA,104444.000,5056.0025,N,00124.0289,W,1,5,3.24,100.9,M,47.6,M,,*47,1014

$GPRMC,104444.000,A,5056.0025,N,00124.0289,W,0.30,250.50,17111$GPGGA,104445.000,5056.0025,N,00124.0295,W,1,5,3.23,101.4,M,47.6,M,,*40,988

$GPRMC,104445.000,A,5056.0025,N,00124.0295,W,0.27,250.50,17111$GPGGA,104446.000,5056.0023,N,00124.0302,W,1,5,3.23,101.9,M,47.6,M,,*47,1022

$GPRMC,104446.000,A,5056.0023,N,00124.0302,W,0.24,250.50,17111$GPGGA,104447.000,5056.0021,N,00124.0308,W,1,5,3.23,102.3,M,47.6,M,,*47,993

$GPRMC,104447.000,A,5056.0021,N,00124.0308,W,0.27,250.50,17111$GPGGA,104448.000,5056.0019,N,00124.0314,W,1,5,3.23,102.8,M,47.6,M,,*45,986

$GPRMC,104448.000,A,5056.0019,N,00124.0314,W,2.36,250.50,17111$GPGGA,104449.000,5056.0016,N,00124.0321,W,1,5,3.23,103.4,M,47.6,M,,*40,1052

$GPRMC,104449.000,A,5056.0016,N,00124.0321,W,2.43,250.50,17111$GPGGA,104450.000,5056.0012,N,00124.0328,W,1,5,3.23,103.9,M,47.6,M,,*48,974

$GPRMC,104450.000,A,5056.0012,N,00124.0328,W,2.75,250.50,17111$GPGGA,104451.000,5056.0010,N,00124.0337,W,1,5,3.23,104.4,M,47.6,M,,*4F,751

$GPRMC,104451.000,A,5056.0010,N,00124.0337,W,2.43,250.50,17111$GPGGA,104452.000,5056.0006,N,00124.0348,W,1,5,3.23,104.9,M,47.6,M,,*4E,992

$GPRMC,104452.000,A,5056.0006,N,00124.0348,W,4.15,251.95,17111$GPGGA,104453.000,5056.0003,N,00124.0357,W,1,5,9.67,105.5,M,47.6,M,,*43,997

$GPRMC,104453.000,A,5056.0003,N,00124.0357,W,6.63,260.92,17111$GPGGA,104454.000,5056.0004,N,00124.0365,W,1,5,9.69,106.4,M,47.6,M,,*4E,978

$GPRMC,104454.000,A,5056.0004,N,00124.0365,W,6.27,263.15,17111$GPGGA,104455.000,5056.0004,N,00124.0380,W,1,5,9.69,107.4,M,47.6,M,,*45,1000

$GPRMC,104455.000,A,5056.0004,N,00124.0380,W,5.64,262.38,17111$GPGGA,104456.000,5056.0003,N,00124.0397,W,1,5,9.69,108.4,M,47.6,M,,*48,1018

$GPRMC,104456.000,A,5056.0003,N,00124.0397,W,5.02,261.29,17111$GPGGA,104457.000,5056.0001,N,00124.0410,W,1,5,9.68,109.3,M,47.6,M,,*44,1001

$GPRMC,104457.000,A,5056.0001,N,00124.0410,W,4.48,252.92,17111$GPGGA,104458.000,5055.9999,N,00124.0422,W,1,5,9.68,110.3,M,47.6,M,,*40,1008

$GPRMC,104458.000,A,5055.9999,N,00124.0422,W,3.88,251.81,17111$GPGGA,104459.000,5055.9996,N,00124.0433,W,1,5,3.22,111.3,M,47.6,M,,*4B,983

$GPRMC,104459.000,A,5055.9996,N,00124.0433,W,4.04,248.53,17111$GPGGA,104500.000,5055.9993,N,00124.0441,W,1,5,9.68,112.3,M,47.6,M,,*41,1012

$GPRMC,104500.000,A,5055.9993,N,00124.0441,W,4.02,245.30,17111$GPGGA,104501.000,5055.9991,N,00124.0449,W,1,5,9.69,113.3,M,47.6,M,,*4A,981

$GPRMC,104501.000,A,5055.9991,N,00124.0449,W,4.01,251.99,17111$GPGGA,104502.000,5055.9990,N,00124.0457,W,1,5,9.68,114.1,M,47.6,M,,*43,1020

$GPRMC,104502.000,A,5055.9990,N,00124.0457,W,3.30,253.11,17111$GPGGA,104503.000,5055.9989,N,00124.0465,W,1,5,3.22,115.0,M,47.6,M,,*4F,982

$GPRMC,104503.000,A,5055.9989,N,00124.0465,W,2.99,254.02,17111$GPGGA,104504.000,5055.9987,N,00124.0469,W,1,5,3.21,115.9,M,47.6,M,,*40,1018

$GPRMC,104504.000,A,5055.9987,N,00124.0469,W,3.23,251.06,17111$GPGGA,104505.000,5055.9988,N,00124.0467,W,1,5,3.22,115.0,M,47.6,M,,*4A,1000

$GPRMC,104505.000,A,5055.9988,N,00124.0467,W,2.25,251.06,17111$GPGGA,104506.000,5055.9986,N,00124.0472,W,1,5,3.21,115.6,M,47.6,M,,*46,983

$GPRMC,104506.000,A,5055.9986,N,00124.0472,W,2.01,251.06,17111$GPGGA,104507.000,5055.9986,N,00124.0475,W,1,5,3.21,116.2,M,47.6,M,,*47,1018

$GPRMC,104507.000,A,5055.9986,N,00124.0475,W,1.96,251.06,17111$GPGGA,104508.000,5055.9985,N,00124.0478,W,1,5,3.21,116.7,M,47.6,M,,*43,991

$GPRMC,104508.000,A,5055.9985,N,00124.0478,W,2.37,251.06,17111$GPGGA,104509.000,5055.9985,N,00124.0481,W,1,5,3.21,117.3,M,47.6,M,,*41,1272

$GPRMC,104509.000,A,5055.9985,N,00124.0481,W,2.55,251.06,17111$GPGGA,104510.000,5055.9987,N,00124.0484,W,1,5,3.21,117.9,M,47.6,M,,*44,1031

$GPRMC,104510.000,A,5055.9987,N,00124.0484,W,0.02,251.06,17111$GPGGA,104511.000,5055.9987,N,00124.0484,W,1,5,3.21,117.6,M,47.6,M,,*4A,972

$GPRMC,104511.000,A,5055.9987,N,00124.0484,W,0.04,251.06,17111$GPGGA,104512.000,5055.9989,N,00124.0486,W,1,5,3.21,117.3,M,47.6,M,,*40,1030

$GPRMC,104512.000,A,5055.9989,N,00124.0486,W,0.15,251.06,17111$GPGGA,104513.000,5055.9990,N,00124.0487,W,1,5,3.21,117.4,M,47.6,M,,*4F,1020

$GPRMC,104513.000,A,5055.9990,N,00124.0487,W,0.15,251.06,17111$GPGGA,104514.000,5055.9989,N,00124.0490,W,1,5,3.21,117.4,M,47.6,M,,*46,1004

$GPRMC,104514.000,A,5055.9989,N,00124.0490,W,0.26,251.06,17111$GPGGA,104515.000,5055.9989,N,00124.0492,W,1,5,3.20,117.4,M,47.6,M,,*44,938

$GPRMC,104515.000,A,5055.9989,N,00124.0492,W,0.24,251.06,17111$GPGGA,104516.000,5055.9989,N,00124.0495,W,1,5,3.20,117.5,M,47.6,M,,*41,1011

$GPRMC,104516.000,A,5055.9989,N,00124.0495,W,0.13,251.06,17111$GPGGA,104517.000,5055.9986,N,00124.0493,W,1,5,3.20,117.4,M,47.6,M,,*48,982

$GPRMC,104517.000,A,5055.9986,N,00124.0493,W,0.21,251.06,17111$GPGGA,104518.000,5055.9986,N,00124.0490,W,1,5,3.20,117.4,M,47.6,M,,*44,999

$GPRMC,104518.000,A,5055.9986,N,00124.0490,W,0.34,251.06,17111$GPGGA,104519.000,5055.9986,N,00124.0491,W,1,5,3.20,117.4,M,47.6,M,,*44,1050

$GPRMC,104519.000,A,5055.9986,N,00124.0491,W,0.28,251.06,17111$GPGGA,104520.000,5055.9983,N,00124.0495,W,1,5,3.20,117.5,M,47.6,M,,*4E,964

$GPRMC,104520.000,A,5055.9983,N,00124.0495,W,0.30,251.06,17111$GPGGA,104521.000,5055.9982,N,00124.0495,W,1,5,3.20,117.6,M,47.6,M,,*4D,1004

$GPRMC,104521.000,A,5055.9982,N,00124.0495,W,0.32,251.06,17111$GPGGA,104522.000,5055.9981,N,00124.0500,W,1,5,3.20,117.8,M,47.6,M,,*4E,991

$GPRMC,104522.000,A,5055.9981,N,00124.0500,W,4.10,262.10,17111$GPGGA,104523.000,5055.9981,N,00124.0505,W,1,5,9.71,118.1,M,47.6,M,,*42,991

$GPRMC,104523.000,A,5055.9981,N,00124.0505,W,3.56,258.68,17111$GPGGA,104524.000,5055.9982,N,00124.0508,W,1,5,3.20,118.4,M,47.6,M,,*40,1002

$GPRMC,104524.000,A,5055.9982,N,00124.0508,W,3.00,258.41,17111$GPGGA,104525.000,5055.9981,N,00124.0512,W,1,5,3.20,118.7,M,47.6,M,,*4A,999

$GPRMC,104525.000,A,5055.9981,N,00124.0512,W,2.64,258.41,17111$GPGGA,104526.000,5055.9980,N,00124.0518,W,1,5,3.19,119.1,M,47.6,M,,*4F,1006

$GPRMC,104526.000,A,5055.9980,N,00124.0518,W,2.67,258.41,17111$GPGGA,104527.000,5055.9981,N,00124.0523,W,1,5,3.19,119.5,M,47.6,M,,*43,1002

$GPRMC,104527.000,A,5055.9981,N,00124.0523,W,1.89,258.41,17111$GPGGA,104528.000,5055.9981,N,00124.0528,W,1,5,3.19,120.0,M,47.6,M,,*48,999

$GPRMC,104528.000,A,5055.9981,N,00124.0528,W,1.60,258.35,17111$GPGGA,104529.000,5055.9980,N,00124.0531,W,1,5,3.19,120.4,M,47.6,M,,*44,1000

$GPRMC,104529.000,A,5055.9980,N,00124.0531,W,1.78,258.38,17111$GPGGA,104530.000,5055.9980,N,00124.0532,W,1,5,3.19,120.8,M,47.6,M,,*43,999

$GPRMC,104530.000,A,5055.9980,N,00124.0532,W,3.53,264.31,17111$GPGGA,104531.000,5055.9979,N,00124.0538,W,1,5,3.19,121.3,M,47.6,M,,*44,1050

$GPRMC,104531.000,A,5055.9979,N,00124.0538,W,4.16,263.68,17111$GPGGA,104532.000,5055.9978,N,00124.0548,W,1,5,9.72,122.0,M,47.6,M,,*46,972

$GPRMC,104532.000,A,5055.9978,N,00124.0548,W,3.57,262.48,17111$GPGGA,104533.000,5055.9977,N,00124.0556,W,1,5,3.19,122.7,M,47.6,M,,*47,1029

$GPRMC,104533.000,A,5055.9977,N,00124.0556,W,2.76,262.48,17111$GPGGA,104534.000,5055.9977,N,00124.0559,W,1,5,3.19,123.4,M,47.6,M,,*4D,1021

$GPRMC,104534.000,A,5055.9977,N,00124.0559,W,0.12,262.48,17111$GPGGA,104535.000,5055.9976,N,00124.0563,W,1,5,3.18,124.0,M,47.6,M,,*46,1002

$GPRMC,104535.000,A,5055.9976,N,00124.0563,W,0.05,262.48,17111$GPGGA,104536.000,5055.9975,N,00124.0563,W,1,5,3.18,123.6,M,47.6,M,,*47,951

$GPRMC,104536.000,A,5055.9975,N,00124.0563,W,0.17,262.25,17111$GPGGA,104537.000,5055.9976,N,00124.0561,W,1,5,3.18,123.7,M,47.6,M,,*46,978

$GPRMC,104537.000,A,5055.9976,N,00124.0561,W,0.33,262.36,17111$GPGGA,104538.000,5055.9977,N,00124.0563,W,1,5,3.18,124.0,M,47.6,M,,*4A,1026

$GPRMC,104538.000,A,5055.9977,N,00124.0563,W,0.22,262.33,17111$GPGGA,104539.000,5055.9977,N,00124.0563,W,1,5,3.18,124.4,M,47.6,M,,*4F,999

$GPRMC,104539.000,A,5055.9977,N,00124.0563,W,0.14,262.30,17111$GPGGA,104540.000,5055.9978,N,00124.0563,W,1,5,3.18,124.7,M,47.6,M,,*4D,1006

$GPRMC,104540.000,A,5055.9978,N,00124.0563,W,0.13,262.28,17111$GPGGA,104541.000,5055.9979,N,00124.0562,W,1,5,3.18,125.0,M,47.6,M,,*4A,1044

$GPRMC,104541.000,A,5055.9979,N,00124.0562,W,0.15,262.28,17111$GPGGA,104542.000,5055.9981,N,00124.0559,W,1,5,3.18,125.3,M,47.6,M,,*45,941

$GPRMC,104542.000,A,5055.9981,N,00124.0559,W,0.15,262.28,17111$GPGGA,104543.000,5055.9982,N,00124.0559,W,1,5,3.18,125.6,M,47.6,M,,*42,996

$GPRMC,104543.000,A,5055.9982,N,00124.0559,W,0.19,262.28,17111$GPGGA,104544.000,5055.9984,N,00124.0562,W,1,5,3.18,125.8,M,47.6,M,,*45,1004

$GPRMC,104544.000,A,5055.9984,N,00124.0562,W,2.68,262.28,17111$GPGGA,104545.000,5055.9987,N,00124.0562,W,1,5,3.18,126.1,M,47.6,M,,*4D,1008

$GPRMC,104545.000,A,5055.9987,N,00124.0562,W,3.89,271.97,17111$GPGGA,104546.000,5055.9989,N,00124.0566,W,1,5,3.18,126.5,M,47.6,M,,*40,990

$GPRMC,104546.000,A,5055.9989,N,00124.0566,W,3.30,271.39,17111$GPGGA,104547.000,5055.9993,N,00124.0567,W,1,5,3.18,126.8,M,47.6,M,,*46,994

$GPRMC,104547.000,A,5055.9993,N,00124.0567,W,2.07,271.39,17111$GPGGA,104548.000,5055.9994,N,00124.0564,W,1,5,3.17,127.1,M,47.6,M,,*4A,1008

$GPRMC,104548.000,A,5055.9994,N,00124.0564,W,2.47,271.39,17111$GPGGA,104549.000,5055.9994,N,00124.0568,W,1,5,3.17,127.6,M,47.6,M,,*40,1015

$GPRMC,104549.000,A,5055.9994,N,00124.0568,W,3.68,270.56,17111$GPGGA,104550.000,5055.9995,N,00124.0570,W,1,5,3.17,128.1,M,47.6,M,,*48,987

$GPRMC,104550.000,A,5055.9995,N,00124.0570,W,3.88,269.65,17111$GPGGA,104551.000,5055.9994,N,00124.0573,W,1,5,3.17,128.7,M,47.6,M,,*4D,1003

$GPRMC,104551.000,A,5055.9994,N,00124.0573,W,3.90,268.80,17111$GPGGA,104552.000,5055.9993,N,00124.0579,W,1,5,9.74,129.3,M,47.6,M,,*49,996

$GPRMC,104552.000,A,5055.9993,N,00124.0579,W,2.53,268.28,17111$GPGGA,104553.000,5055.9991,N,00124.0583,W,1,5,3.17,130.0,M,47.6,M,,*4B,1064

$GPRMC,104553.000,A,5055.9991,N,00124.0583,W,2.59,267.86,17111$GPGGA,104554.000,5055.9992,N,00124.0583,W,1,5,3.17,130.6,M,47.6,M,,*49,1002

$GPRMC,104554.000,A,5055.9992,N,00124.0583,W,2.51,267.67,17111$GPGGA,104555.000,5055.9992,N,00124.0586,W,1,5,3.17,131.2,M,47.6,M,,*48,958

$GPRMC,104555.000,A,5055.9992,N,00124.0586,W,1.57,267.67,17111$GPGGA,104556.000,5055.9991,N,00124.0588,W,1,5,3.17,131.7,M,47.6,M,,*43,1045

$GPRMC,104556.000,A,5055.9991,N,00124.0588,W,2.20,267.67,17111$GPGGA,104557.000,5055.9991,N,00124.0591,W,1,5,3.17,132.2,M,47.6,M,,*4C,996

$GPRMC,104557.000,A,5055.9991,N,00124.0591,W,3.37,259.35,17111$GPGGA,104558.000,5055.9992,N,00124.0593,W,1,5,3.17,132.7,M,47.6,M,,*47,956

$GPRMC,104558.000,A,5055.9992,N,00124.0593,W,4.22,259.11,17111$GPGGA,104559.000,5055.9993,N,00124.0600,W,1,5,9.74,133.3,M,47.6,M,,*44,997

$GPRMC,104559.000,A,5055.9993,N,00124.0600,W,2.77,259.11,17111$GPGGA,104600.000,5055.9992,N,00124.0605,W,1,5,3.16,133.9,M,47.6,M,,*4B,978

$GPRMC,104600.000,A,5055.9992,N,00124.0605,W,0.15,259.11,17111$GPGGA,104601.000,5055.9990,N,00124.0606,W,1,5,3.16,134.4,M,47.6,M,,*41,1008

$GPRMC,104601.000,A,5055.9990,N,00124.0606,W,0.16,259.11,17111$GPGGA,104602.000,5055.9991,N,00124.0598,W,1,5,3.16,134.8,M,47.6,M,,*4B,1065

$GPRMC,104602.000,A,5055.9991,N,00124.0598,W,0.32,259.11,17111$GPGGA,104603.000,5055.9991,N,00124.0596,W,1,5,3.16,135.3,M,47.6,M,,*4E,927

$GPRMC,104603.000,A,5055.9991,N,00124.0596,W,3.97,257.15,17111$GPGGA,104604.000,5055.9990,N,00124.0601,W,1,5,9.75,136.0,M,47.6,M,,*4A,1028

$GPRMC,104604.000,A,5055.9990,N,00124.0601,W,3.97,257.74,17111$GPGGA,104605.000,5055.9989,N,00124.0613,W,1,5,9.75,136.6,M,47.6,M,,*46,977

$GPRMC,104605.000,A,5055.9989,N,00124.0613,W,2.84,257.48,17111$GPGGA,104606.000,5055.9989,N,00124.0616,W,1,5,3.16,137.3,M,47.6,M,,*4B,997

$GPRMC,104606.000,A,5055.9989,N,00124.0616,W,1.66,257.27,17111$GPGGA,104607.000,5055.9989,N,00124.0617,W,1,5,3.16,137.9,M,47.6,M,,*41,1011

$GPRMC,104607.000,A,5055.9989,N,00124.0617,W,1.67,257.27,17111$GPGGA,104608.000,5055.9989,N,00124.0615,W,1,5,3.16,138.5,M,47.6,M,,*4F,996

$GPRMC,104608.000,A,5055.9989,N,00124.0615,W,3.62,264.81,17111$GPGGA,104609.000,5055.9989,N,00124.0623,W,1,5,3.15,139.2,M,47.6,M,,*4E,1017

$GPRMC,104609.000,A,5055.9989,N,00124.0623,W,3.60,264.04,17111$GPGGA,104610.000,5055.9988,N,00124.0627,W,1,5,3.15,139.9,M,47.6,M,,*48,988

$GPRMC,104610.000,A,5055.9988,N,00124.0627,W,3.60,263.20,17111$GPGGA,104611.000,5055.9989,N,00124.0625,W,1,5,3.15,139.6,M,47.6,M,,*45,1012

$GPRMC,104611.000,A,5055.9989,N,00124.0625,W,2.91,263.20,17111$GPGGA,104612.000,5055.9988,N,00124.0627,W,1,5,3.15,140.1,M,47.6,M,,*4C,991

$GPRMC,104612.000,A,5055.9988,N,00124.0627,W,2.42,263.20,17111$GPGGA,104613.000,5055.9989,N,00124.0628,W,1,5,3.15,140.6,M,47.6,M,,*44,1000

$GPRMC,104613.000,A,5055.9989,N,00124.0628,W,2.43,263.20,17111$GPGGA,104614.000,5055.9991,N,00124.0629,W,1,5,3.15,141.1,M,47.6,M,,*4D,1055

$GPRMC,104614.000,A,5055.9991,N,00124.0629,W,2.43,263.03,17111$GPGGA,104615.000,5055.9993,N,00124.0634,W,1,5,3.15,141.6,M,47.6,M,,*45,990

$GPRMC,104615.000,A,5055.9993,N,00124.0634,W,2.70,263.11,17111$GPGGA,104616.000,5055.9993,N,00124.0640,W,1,5,3.15,142.2,M,47.6,M,,*42,964

$GPRMC,104616.000,A,5055.9993,N,00124.0640,W,2.94,261.68,17111$GPGGA,104617.000,5055.9994,N,00124.0639,W,1,5,3.15,142.6,M,47.6,M,,*4E,1033

$GPRMC,104617.000,A,5055.9994,N,00124.0639,W,4.22,261.72,17111$GPGGA,104618.000,5055.9995,N,00124.0647,W,1,5,9.76,143.2,M,47.6,M,,*43,1020

$GPRMC,104618.000,A,5055.9995,N,00124.0647,W,3.70,260.68,17111$GPGGA,104619.000,5055.9995,N,00124.0651,W,1,5,3.14,143.9,M,47.6,M,,*40,958

$GPRMC,104619.000,A,5055.9995,N,00124.0651,W,2.48,260.31,17111$GPGGA,104620.000,5055.9995,N,00124.0650,W,1,5,3.14,144.5,M,47.6,M,,*40,995

$GPRMC,104620.000,A,5055.9995,N,00124.0650,W,0.10,260.11,17111$GPGGA,104621.000,5055.9993,N,00124.0644,W,1,5,3.14,145.0,M,47.6,M,,*46,979

$GPRMC,104621.000,A,5055.9993,N,00124.0644,W,0.08,260.16,17111$GPGGA,104622.000,5055.9994,N,00124.0640,W,1,5,3.14,145.4,M,47.6,M,,*42,1009

$GPRMC,104622.000,A,5055.9994,N,00124.0640,W,0.18,259.79,17111$GPGGA,104623.000,5055.9995,N,00124.0644,W,1,5,3.14,145.9,M,47.6,M,,*4B,1065

$GPRMC,104623.000,A,5055.9995,N,00124.0644,W,0.32,259.93,17111$GPGGA,104624.000,5055.9996,N,00124.0652,W,1,5,3.14,146.4,M,47.6,M,,*46,952

$GPRMC,104624.000,A,5055.9996,N,00124.0652,W,0.26,259.79,17111$GPGGA,104625.000,5055.9995,N,00124.0657,W,1,5,3.14,146.8,M,47.6,M,,*4D,986

$GPRMC,104625.000,A,5055.9995,N,00124.0657,W,0.27,259.76,17111$GPGGA,104626.000,5055.9995,N,00124.0660,W,1,5,3.14,147.3,M,47.6,M,,*40,1007

$GPRMC,104626.000,A,5055.9995,N,00124.0660,W,0.19,259.73,17111$GPGGA,104627.000,5055.9995,N,00124.0664,W,1,5,3.14,147.7,M,47.6,M,,*41,987

$GPRMC,104627.000,A,5055.9995,N,00124.0664,W,0.29,259.69,17111$GPGGA,104628.000,5055.9994,N,00124.0669,W,1,5,3.13,148.2,M,47.6,M,,*4F,1027

$GPRMC,104628.000,A,5055.9994,N,00124.0669,W,0.24,259.70,17111$GPGGA,104629.000,5055.9996,N,00124.0669,W,1,5,3.14,148.6,M,47.6,M,,*4F,985

$GPRMC,104629.000,A,5055.9996,N,00124.0669,W,0.17,259.66,17111$GPGGA,104630.000,5055.9995,N,00124.0671,W,1,5,3.13,149.0,M,47.6,M,,*4D,999

$GPRMC,104630.000,A,5055.9995,N,00124.0671,W,2.29,259.66,17111$GPGGA,104631.000,5055.9997,N,00124.0669,W,1,5,3.13,149.4,M,47.6,M,,*43,991

$GPRMC,104631.000,A,5055.9997,N,00124.0669,W,2.78,259.65,17111$GPGGA,104632.000,5055.9998,N,00124.0673,W,1,6,2.55,149.7,M,47.6,M,,*47,1069

$GPRMC,104632.000,A,5055.9998,N,00124.0673,W,3.35,260.67,17111$GPGGA,104633.000,5055.9998,N,00124.0680,W,1,6,2.56,150.2,M,47.6,M,,*44,961

$GPRMC,104633.000,A,5055.9998,N,00124.0680,W,2.18,260.92,17111$GPGGA,104634.000,5055.9996,N,00124.0683,W,1,6,2.55,150.7,M,47.6,M,,*48,982

$GPRMC,104634.000,A,5055.9996,N,00124.0683,W,2.97,254.23,17111$GPGGA,104635.000,5055.9995,N,00124.0687,W,1,6,2.55,151.2,M,47.6,M,,*4A,1065

$GPRMC,104635.000,A,5055.9995,N,00124.0687,W,2.02,254.23,17111$GPGGA,104636.000,5055.9996,N,00124.0684,W,1,6,2.55,151.7,M,47.6,M,,*4C,989

$GPRMC,104636.000,A,5055.9996,N,00124.0684,W,0.07,254.23,17111$GPGGA,104637.000,5055.9995,N,00124.0681,W,1,6,2.55,152.2,M,47.6,M,,*4D,961

$GPRMC,104637.000,A,5055.9995,N,00124.0681,W,0.07,254.23,17111$GPGGA,104638.000,5055.9994,N,00124.0679,W,1,6,2.55,152.6,M,47.6,M,,*40,1054

$GPRMC,104638.000,A,5055.9994,N,00124.0679,W,0.15,254.23,17111$GPGGA,104639.000,5055.9992,N,00124.0682,W,1,6,2.55,153.0,M,47.6,M,,*44,981

$GPRMC,104639.000,A,5055.9992,N,00124.0682,W,0.27,254.23,17111$GPGGA,104640.000,5055.9991,N,00124.0685,W,1,6,2.55,153.4,M,47.6,M,,*4A,974

$GPRMC,104640.000,A,5055.9991,N,00124.0685,W,0.31,254.23,17111$GPGGA,104641.000,5055.9991,N,00124.0690,W,1,6,2.55,153.7,M,47.6,M,,*4C,972

$GPRMC,104641.000,A,5055.9991,N,00124.0690,W,3.66,261.94,17111$GPGGA,104642.000,5055.9989,N,00124.0701,W,1,6,2.55,154.1,M,47.6,M,,*4E,991

$GPRMC,104642.000,A,5055.9989,N,00124.0701,W,5.01,260.89,17111$GPGGA,104643.000,5055.9988,N,00124.0713,W,1,6,6.19,154.7,M,47.6,M,,*47,1020

$GPRMC,104643.000,A,5055.9988,N,00124.0713,W,4.49,260.04,17111$GPGGA,104644.000,5055.9990,N,00124.0716,W,1,6,6.19,155.2,M,47.6,M,,*48,1055

$GPRMC,104644.000,A,5055.9990,N,00124.0716,W,3.64,258.71,17111$GPGGA,104645.000,5055.9988,N,00124.0718,W,1,6,2.55,155.8,M,47.6,M,,*48,938

$GPRMC,104645.000,A,5055.9988,N,00124.0718,W,4.56,257.83,17111$GPGGA,104646.000,5055.9988,N,00124.0723,W,1,6,6.19,156.3,M,47.6,M,,*47,1018

$GPRMC,104646.000,A,5055.9988,N,00124.0723,W,3.92,256.15,17111$GPGGA,104647.000,5055.9987,N,00124.0727,W,1,6,6.19,157.0,M,47.6,M,,*4F,982

$GPRMC,104647.000,A,5055.9987,N,00124.0727,W,3.54,254.73,17111$GPGGA,104648.000,5055.9982,N,00124.0737,W,1,6,2.55,157.7,M,47.6,M,,*4F,1017

$GPRMC,104648.000,A,5055.9982,N,00124.0737,W,3.80,253.56,17111$GPGGA,104649.000,5055.9981,N,00124.0747,W,1,6,2.55,158.4,M,47.6,M,,*46,984

$GPRMC,104649.000,A,5055.9981,N,00124.0747,W,2.40,252.92,17111$GPGGA,104650.000,5055.9979,N,00124.0754,W,1,6,2.55,159.1,M,47.6,M,,*4F,1011

$GPRMC,104650.000,A,5055.9979,N,00124.0754,W,0.12,252.44,17111$GPGGA,104651.000,5055.9977,N,00124.0756,W,1,6,2.55,159.7,M,47.6,M,,*44,994

$GPRMC,104651.000,A,5055.9977,N,00124.0756,W,0.12,252.23,17111$GPGGA,104652.000,5055.9974,N,00124.0760,W,1,6,2.55,160.3,M,47.6,M,,*4F,1016

$GPRMC,104652.000,A,5055.9974,N,00124.0760,W,3.55,259.36,17111$GPGGA,104653.000,5055.9967,N,00124.0770,W,1,6,2.55,159.8,M,47.6,M,,*4C,1016

$GPRMC,104653.000,A,5055.9967,N,00124.0770,W,4.94,256.94,17111$GPGGA,104654.000,5055.9967,N,00124.0776,W,1,6,6.20,160.0,M,47.6,M,,*49,969

$GPRMC,104654.000,A,5055.9967,N,00124.0776,W,3.24,255.26,17111$GPGGA,104655.000,5055.9966,N,00124.0780,W,1,6,2.55,160.4,M,47.6,M,,*42,999

$GPRMC,104655.000,A,5055.9966,N,00124.0780,W,2.75,255.26,17111$GPGGA,104656.000,5055.9965,N,00124.0781,W,1,6,2.55,160.7,M,47.6,M,,*40,1030

$GPRMC,104656.000,A,5055.9965,N,00124.0781,W,2.98,254.35,17111$GPGGA,104657.000,5055.9963,N,00124.0789,W,1,6,2.55,161.1,M,47.6,M,,*48,979

$GPRMC,104657.000,A,5055.9963,N,00124.0789,W,4.29,255.57,17111$GPGGA,104658.000,5055.9960,N,00124.0802,W,1,6,6.20,161.5,M,47.6,M,,*4A,1062

$GPRMC,104658.000,A,5055.9960,N,00124.0802,W,3.60,254.56,17111$GPGGA,104659.000,5055.9957,N,00124.0808,W,1,6,2.55,161.9,M,47.6,M,,*4F,987

$GPRMC,104659.000,A,5055.9957,N,00124.0808,W,2.98,254.25,17111$GPGGA,104700.000,5055.9954,N,00124.0814,W,1,6,2.54,162.1,M,47.6,M,,*46,952

$GPRMC,104700.000,A,5055.9954,N,00124.0814,W,3.14,253.68,17111$GPGGA,104701.000,5055.9948,N,00124.0824,W,1,6,2.54,162.5,M,47.6,M,,*4D,1055

$GPRMC,104701.000,A,5055.9948,N,00124.0824,W,4.45,252.23,17111$GPGGA,104702.000,5055.9944,N,00124.0834,W,1,6,6.21,163.0,M,47.6,M,,*41,1010

$GPRMC,104702.000,A,5055.9944,N,00124.0834,W,5.05,250.62,17111$GPGGA,104703.000,5055.9942,N,00124.0842,W,1,6,6.21,163.4,M,47.6,M,,*43,931

$GPRMC,104703.000,A,5055.9942,N,00124.0842,W,4.09,240.63,17111$GPGGA,104704.000,5055.9938,N,00124.0850,W,1,6,6.21,163.8,M,47.6,M,,*46,1005

$GPRMC,104704.000,A,5055.9938,N,00124.0850,W,3.60,240.48,17111$GPGGA,104705.000,5055.9930,N,00124.0859,W,1,6,2.54,164.3,M,47.6,M,,*4C,1067

$GPRMC,104705.000,A,5055.9930,N,00124.0859,W,4.59,241.19,17111$GPGGA,104706.000,5055.9927,N,00124.0867,W,1,6,6.21,164.7,M,47.6,M,,*46,939

$GPRMC,104706.000,A,5055.9927,N,00124.0867,W,3.97,242.78,17111$GPGGA,104707.000,5055.9925,N,00124.0873,W,1,6,6.21,165.1,M,47.6,M,,*47,988

$GPRMC,104707.000,A,5055.9925,N,00124.0873,W,3.23,239.83,17111$GPGGA,104708.000,5055.9921,N,00124.0882,W,1,6,2.54,165.7,M,47.6,M,,*42,1024

$GPRMC,104708.000,A,5055.9921,N,00124.0882,W,4.18,248.81,17111$GPGGA,104709.000,5055.9918,N,00124.0897,W,1,6,6.22,166.2,M,47.6,M,,*4E,994

$GPRMC,104709.000,A,5055.9918,N,00124.0897,W,3.14,245.74,17111$GPGGA,104710.000,5055.9915,N,00124.0907,W,1,6,2.54,166.7,M,47.6,M,,*43,1006

$GPRMC,104710.000,A,5055.9915,N,00124.0907,W,1.86,245.74,17111$GPGGA,104711.000,5055.9915,N,00124.0911,W,1,6,2.54,167.1,M,47.6,M,,*42,980

$GPRMC,104711.000,A,5055.9915,N,00124.0911,W,1.47,245.74,17111$GPGGA,104712.000,5055.9915,N,00124.0914,W,1,6,2.54,167.4,M,47.6,M,,*41,1019

$GPRMC,104712.000,A,5055.9915,N,00124.0914,W,2.18,245.74,17111$GPGGA,104713.000,5055.9916,N,00124.0918,W,1,6,2.54,167.9,M,47.6,M,,*42,1000

$GPRMC,104713.000,A,5055.9916,N,00124.0918,W,2.95,247.70,17111$GPGGA,104714.000,5055.9916,N,00124.0922,W,1,6,2.54,168.1,M,47.6,M,,*4B,1038

$GPRMC,104714.000,A,5055.9916,N,00124.0922,W,4.56,248.31,17111$GPGGA,104715.000,5055.9915,N,00124.0934,W,1,6,6.22,168.7,M,47.6,M,,*4D,945

$GPRMC,104715.000,A,5055.9915,N,00124.0934,W,4.64,249.40,17111$GPGGA,104716.000,5055.9914,N,00124.0947,W,1,6,6.22,169.3,M,47.6,M,,*4E,999

$GPRMC,104716.000,A,5055.9914,N,00124.0947,W,3.45,251.58,17111$GPGGA,104717.000,5055.9914,N,00124.0951,W,1,6,2.54,169.9,M,47.6,M,,*47,1022

$GPRMC,104717.000,A,5055.9914,N,00124.0951,W,2.83,252.40,17111$GPGGA,104718.000,5055.9915,N,00124.0951,W,1,6,2.54,170.3,M,47.6,M,,*4B,994

$GPRMC,104718.000,A,5055.9915,N,00124.0951,W,3.81,256.99,17111$GPGGA,104719.000,5055.9915,N,00124.0954,W,1,6,2.54,170.8,M,47.6,M,,*44,1040

$GPRMC,104719.000,A,5055.9915,N,00124.0954,W,3.47,255.23,17111$GPGGA,104720.000,5055.9914,N,00124.0952,W,1,6,2.54,170.0,M,47.6,M,,*41,1009

$GPRMC,104720.000,A,5055.9914,N,00124.0952,W,2.78,255.23,17111$GPGGA,104721.000,5055.9914,N,00124.0949,W,1,6,2.53,170.4,M,47.6,M,,*49,958

$GPRMC,104721.000,A,5055.9914,N,00124.0949,W,1.76,255.23,17111$GPGGA,104722.000,5055.9914,N,00124.0950,W,1,6,2.54,170.7,M,47.6,M,,*46,1048

$GPRMC,104722.000,A,5055.9914,N,00124.0950,W,1.52,255.23,17111$GPGGA,104723.000,5055.9914,N,00124.0949,W,1,6,2.53,171.0,M,47.6,M,,*4E,982

$GPRMC,104723.000,A,5055.9914,N,00124.0949,W,2.36,255.23,17111$GPGGA,104724.000,5055.9914,N,00124.0952,W,1,6,2.53,171.3,M,47.6,M,,*40,952

$GPRMC,104724.000,A,5055.9914,N,00124.0952,W,3.08,265.02,17111$GPGGA,104725.000,5055.9914,N,00124.0960,W,1,6,2.53,171.6,M,47.6,M,,*45,1019

$GPRMC,104725.000,A,5055.9914,N,00124.0960,W,3.83,263.97,17111$GPGGA,104726.000,5055.9915,N,00124.0962,W,1,6,2.53,171.9,M,47.6,M,,*4A,1051

$GPRMC,104726.000,A,5055.9915,N,00124.0962,W,4.42,263.44,17111$GPGGA,104727.000,5055.9914,N,00124.0963,W,1,6,6.23,172.2,M,47.6,M,,*40,933

$GPRMC,104727.000,A,5055.9914,N,00124.0963,W,3.28,245.70,17111$GPGGA,104728.000,5055.9913,N,00124.0970,W,1,6,2.53,172.7,M,47.6,M,,*4C,1009

$GPRMC,104728.000,A,5055.9913,N,00124.0970,W,2.49,245.70,17111$GPGGA,104729.000,5055.9912,N,00124.0970,W,1,6,2.53,173.0,M,47.6,M,,*4A,1003

$GPRMC,104729.000,A,5055.9912,N,00124.0970,W,2.00,245.70,17111$GPGGA,104730.000,5055.9911,N,00124.0970,W,1,6,2.53,173.4,M,47.6,M,,*45,994

$GPRMC,104730.000,A,5055.9911,N,00124.0970,W,2.86,245.70,17111$GPGGA,104731.000,5055.9910,N,00124.0973,W,1,6,2.53,173.7,M,47.6,M,,*45,1017

$GPRMC,104731.000,A,5055.9910,N,00124.0973,W,2.93,255.18,17111$GPGGA,104732.000,5055.9909,N,00124.0982,W,1,6,2.53,174.2,M,47.6,M,,*42,997

$GPRMC,104732.000,A,5055.9909,N,00124.0982,W,3.55,257.46,17111$GPGGA,104733.000,5055.9910,N,00124.0984,W,1,6,2.53,174.5,M,47.6,M,,*4A,1002

$GPRMC,104733.000,A,5055.9910,N,00124.0984,W,4.38,261.02,17111$GPGGA,104734.000,5055.9911,N,00124.0989,W,1,6,6.24,175.0,M,47.6,M,,*41,983

$GPRMC,104734.000,A,5055.9911,N,00124.0989,W,3.84,255.66,17111$GPGGA,104735.000,5055.9913,N,00124.0989,W,1,6,2.53,175.5,M,47.6,M,,*43,1057

$GPRMC,104735.000,A,5055.9913,N,00124.0989,W,2.33,255.66,17111$GPGGA,104736.000,5055.9913,N,00124.0990,W,1,6,2.53,176.1,M,47.6,M,,*4F,966

$GPRMC,104736.000,A,5055.9913,N,00124.0990,W,1.49,255.66,17111$GPGGA,104737.000,5055.9913,N,00124.0989,W,1,6,2.53,176.7,M,47.6,M,,*40,999

$GPRMC,104737.000,A,5055.9913,N,00124.0989,W,1.12,255.66,17111$GPGGA,104738.000,5055.9912,N,00124.0987,W,1,6,2.53,177.2,M,47.6,M,,*44,1003

$GPRMC,104738.000,A,5055.9912,N,00124.0987,W,2.18,255.66,17111$GPGGA,104739.000,5055.9910,N,00124.0991,W,1,6,2.53,177.8,M,47.6,M,,*4A,998

$GPRMC,104739.000,A,5055.9910,N,00124.0991,W,2.85,255.66,17111$GPGGA,104740.000,5055.9910,N,00124.0996,W,1,6,2.53,178.4,M,47.6,M,,*40,1032

$GPRMC,104740.000,A,5055.9910,N,00124.0996,W,2.87,255.66,17111$GPGGA,104741.000,5055.9908,N,00124.1000,W,1,6,2.53,179.0,M,47.6,M,,*4A,1002

$GPRMC,104741.000,A,5055.9908,N,00124.1000,W,2.95,256.31,17111$GPGGA,104742.000,5055.9907,N,00124.1006,W,1,6,2.53,179.5,M,47.6,M,,*45,947

$GPRMC,104742.000,A,5055.9907,N,00124.1006,W,4.03,263.99,17111$GPGGA,104743.000,5055.9908,N,00124.1008,W,1,6,6.25,180.0,M,47.6,M,,*43,1074

$GPRMC,104743.000,A,5055.9908,N,00124.1008,W,2.76,263.99,17111$GPGGA,104744.000,5055.9908,N,00124.1009,W,1,5,2.57,180.7,M,47.6,M,,*40,975

$GPRMC,104744.000,A,5055.9908,N,00124.1009,W,1.87,263.99,17111$GPGGA,104745.000,5055.9907,N,00124.1002,W,1,5,2.57,181.1,M,47.6,M,,*42,936

$GPRMC,104745.000,A,5055.9907,N,00124.1002,W,2.13,263.99,17111$GPGGA,104746.000,5055.9908,N,00124.1000,W,1,6,2.52,182.0,M,47.6,M,,*48,1021

$GPRMC,104746.000,A,5055.9908,N,00124.1000,W,2.39,263.99,17111$GPGGA,104747.000,5055.9908,N,00124.1006,W,1,5,2.57,183.0,M,47.6,M,,*48,1034

$GPRMC,104747.000,A,5055.9908,N,00124.1006,W,3.53,265.96,17111$GPGGA,104748.000,5055.9908,N,00124.1016,W,1,6,2.53,183.9,M,47.6,M,,*48,986

$GPRMC,104748.000,A,5055.9908,N,00124.1016,W,3.10,266.19,17111$GPGGA,104749.000,5055.9907,N,00124.1020,W,1,6,2.52,184.5,M,47.6,M,,*49,999

$GPRMC,104749.000,A,5055.9907,N,00124.1020,W,1.92,266.67,17111$GPGGA,104750.000,5055.9905,N,00124.1020,W,1,6,2.52,185.4,M,47.6,M,,*43,1001

$GPRMC,104750.000,A,5055.9905,N,00124.1020,W,1.29,267.08,17111$GPGGA,104751.000,5055.9902,N,00124.1024,W,1,6,2.52,186.3,M,47.6,M,,*45,996

$GPRMC,104751.000,A,5055.9902,N,00124.1024,W,1.33,267.32,17111$GPGGA,104752.000,5055.9901,N,00124.1024,W,1,6,2.52,187.3,M,47.6,M,,*44,989

$GPRMC,104752.000,A,5055.9901,N,00124.1024,W,2.12,267.25,17111$GPGGA,104753.000,5055.9903,N,00124.1021,W,1,6,2.52,187.6,M,47.6,M,,*47,995

$GPRMC,104753.000,A,5055.9903,N,00124.1021,W,3.05,266.58,17111$GPGGA,104754.000,5055.9904,N,00124.1023,W,1,6,2.52,187.0,M,47.6,M,,*43,1021

$GPRMC,104754.000,A,5055.9904,N,00124.1023,W,4.69,266.16,17111$GPGGA,104755.000,5055.9906,N,00124.1031,W,1,6,6.26,187.1,M,47.6,M,,*45,997

$GPRMC,104755.000,A,5055.9906,N,00124.1031,W,2.77,265.90,17111$GPGGA,104756.000,5055.9908,N,00124.1031,W,1,6,2.52,187.3,M,47.6,M,,*4D,1063

$GPRMC,104756.000,A,5055.9908,N,00124.1031,W,0.12,265.67,17111$GPGGA,104757.000,5055.9908,N,00124.1027,W,1,6,2.52,187.4,M,47.6,M,,*4C,940

$GPRMC,104757.000,A,5055.9908,N,00124.1027,W,0.14,265.56,17111$GPGGA,104758.000,5055.9906,N,00124.1027,W,1,6,2.52,188.1,M,47.6,M,,*47,990

$GPRMC,104758.000,A,5055.9906,N,00124.1027,W,0.25,265.67,17111$GPGGA,104759.000,5055.9905,N,00124.1029,W,1,6,2.52,188.8,M,47.6,M,,*42,992

$GPRMC,104759.000,A,5055.9905,N,00124.1029,W,0.32,265.61,17111$GPGGA,104800.000,5055.9906,N,00124.1033,W,1,6,2.52,189.6,M,47.6,M,,*46,1021

$GPRMC,104800.000,A,5055.9906,N,00124.1033,W,4.31,264.24,17111$GPGGA,104801.000,5055.9906,N,00124.1042,W,1,6,6.26,190.4,M,47.6,M,,*4C,1049

$GPRMC,104801.000,A,5055.9906,N,00124.1042,W,3.32,262.32,17111$GPGGA,104802.000,5055.9908,N,00124.1042,W,1,6,2.52,191.2,M,47.6,M,,*41,1006

$GPRMC,104802.000,A,5055.9908,N,00124.1042,W,0.12,261.62,17111$GPGGA,104803.000,5055.9908,N,00124.1039,W,1,6,2.52,191.6,M,47.6,M,,*48,926

$GPRMC,104803.000,A,5055.9908,N,00124.1039,W,0.09,260.99,17111$GPGGA,104804.000,5055.9906,N,00124.1042,W,1,6,2.52,192.1,M,47.6,M,,*49,1053

$GPRMC,104804.000,A,5055.9906,N,00124.1042,W,0.10,260.56,17111$GPGGA,104805.000,5055.9905,N,00124.1041,W,1,6,2.52,192.6,M,47.6,M,,*4F,1009

$GPRMC,104805.000,A,5055.9905,N,00124.1041,W,0.14,260.56,17111$GPGGA,104806.000,5055.9905,N,00124.1045,W,1,6,2.52,193.0,M,47.6,M,,*4F,940

$GPRMC,104806.000,A,5055.9905,N,00124.1045,W,0.15,260.56,17111$GPGGA,104807.000,5055.9905,N,00124.1047,W,1,6,2.52,193.5,M,47.6,M,,*49,1010

$GPRMC,104807.000,A,5055.9905,N,00124.1047,W,0.17,260.56,17111$GPGGA,104808.000,5055.9908,N,00124.1047,W,1,6,2.52,194.0,M,47.6,M,,*49,1051

$GPRMC,104808.000,A,5055.9908,N,00124.1047,W,0.17,260.56,17111$GPGGA,104809.000,5055.9909,N,00124.1046,W,1,6,2.52,194.4,M,47.6,M,,*4C,959

$GPRMC,104809.000,A,5055.9909,N,00124.1046,W,0.17,260.56,17111$GPGGA,104810.000,5055.9909,N,00124.1051,W,1,6,2.52,194.9,M,47.6,M,,*4F,982

$GPRMC,104810.000,A,5055.9909,N,00124.1051,W,0.16,260.56,17111$GPGGA,104811.000,5055.9909,N,00124.1056,W,1,6,2.52,195.3,M,47.6,M,,*42,1026

$GPRMC,104811.000,A,5055.9909,N,00124.1056,W,0.19,260.56,17111$GPGGA,104812.000,5055.9909,N,00124.1060,W,1,6,2.52,195.8,M,47.6,M,,*4F,985

$GPRMC,104812.000,A,5055.9909,N,00124.1060,W,1.94,260.56,17111$GPGGA,104813.000,5055.9908,N,00124.1063,W,1,6,2.51,196.0,M,47.6,M,,*44,988

$GPRMC,104813.000,A,5055.9908,N,00124.1063,W,2.33,260.56,17111$GPGGA,104814.000,5055.9907,N,00124.1066,W,1,6,2.52,196.2,M,47.6,M,,*48,1023

$GPRMC,104814.000,A,5055.9907,N,00124.1066,W,2.57,260.56,17111$GPGGA,104815.000,5055.9907,N,00124.1072,W,1,6,2.51,196.4,M,47.6,M,,*49,1004

$GPRMC,104815.000,A,5055.9907,N,00124.1072,W,2.28,260.56,17111$GPGGA,104816.000,5055.9906,N,00124.1074,W,1,6,2.51,196.6,M,47.6,M,,*4F,989

$GPRMC,104816.000,A,5055.9906,N,00124.1074,W,1.90,260.56,17111$GPGGA,104817.000,5055.9904,N,00124.1076,W,1,6,2.51,196.9,M,47.6,M,,*41,997

$GPRMC,104817.000,A,5055.9904,N,00124.1076,W,2.70,260.56,17111$GPGGA,104818.000,5055.9901,N,00124.1087,W,1,6,2.51,197.7,M,47.6,M,,*4A,1026

$GPRMC,104818.000,A,5055.9901,N,00124.1087,W,3.50,260.12,17111$GPGGA,104819.000,5055.9897,N,00124.1100,W,1,6,2.51,198.6,M,47.6,M,,*45,985

$GPRMC,104819.000,A,5055.9897,N,00124.1100,W,4.67,259.79,17111$GPGGA,104820.000,5055.9895,N,00124.1112,W,1,6,6.28,199.0,M,47.6,M,,*43,1012

$GPRMC,104820.000,A,5055.9895,N,00124.1112,W,3.50,259.36,17111$GPGGA,104821.000,5055.9892,N,00124.1120,W,1,6,2.51,199.6,M,47.6,M,,*48,971

$GPRMC,104821.000,A,5055.9892,N,00124.1120,W,2.18,259.15,17111$GPGGA,104822.000,5055.9889,N,00124.1124,W,1,6,2.51,200.5,M,47.6,M,,*45,1048

$GPRMC,104822.000,A,5055.9889,N,00124.1124,W,1.30,259.02,17111$GPGGA,104823.000,5055.9886,N,00124.1130,W,1,6,2.51,201.5,M,47.6,M,,*4F,958

$GPRMC,104823.000,A,5055.9886,N,00124.1130,W,1.33,259.01,17111$GPGGA,104824.000,5055.9881,N,00124.1141,W,1,6,2.51,202.4,M,47.6,M,,*4B,1054

$GPRMC,104824.000,A,5055.9881,N,00124.1141,W,2.59,258.93,17111$GPGGA,104825.000,5055.9879,N,00124.1154,W,1,6,2.51,202.8,M,47.6,M,,*45,1011

$GPRMC,104825.000,A,5055.9879,N,00124.1154,W,3.54,259.55,17111$GPGGA,104826.000,5055.9878,N,00124.1165,W,1,6,2.51,203.2,M,47.6,M,,*4E,946

$GPRMC,104826.000,A,5055.9878,N,00124.1165,W,4.33,267.43,17111$GPGGA,104827.000,5055.9875,N,00124.1178,W,1,6,6.29,204.1,M,47.6,M,,*41,1050

$GPRMC,104827.000,A,5055.9875,N,00124.1178,W,3.93,266.45,17111$GPGGA,104828.000,5055.9874,N,00124.1185,W,1,6,6.29,205.1,M,47.6,M,,*4C,951

$GPRMC,104828.000,A,5055.9874,N,00124.1185,W,2.23,266.45,17111$GPGGA,104829.000,5055.9870,N,00124.1191,W,1,6,2.51,205.9,M,47.6,M,,*4F,1011

$GPRMC,104829.000,A,5055.9870,N,00124.1191,W,1.66,266.45,17111$GPGGA,104830.000,5055.9866,N,00124.1193,W,1,6,2.51,206.8,M,47.6,M,,*40,1042

$GPRMC,104830.000,A,5055.9866,N,00124.1193,W,1.83,266.45,17111$GPGGA,104831.000,5055.9865,N,00124.1199,W,1,6,2.51,207.7,M,47.6,M,,*46,932

$GPRMC,104831.000,A,5055.9865,N,00124.1199,W,2.76,266.45,17111$GPGGA,104832.000,5055.9865,N,00124.1201,W,1,6,2.51,207.5,M,47.6,M,,*45,1039

$GPRMC,104832.000,A,5055.9865,N,00124.1201,W,3.14,273.76,17111$GPGGA,104833.000,5055.9866,N,00124.1207,W,1,6,2.51,208.2,M,47.6,M,,*49,981

$GPRMC,104833.000,A,5055.9866,N,00124.1207,W,3.65,273.16,17111$GPGGA,104834.000,5055.9865,N,00124.1215,W,1,6,2.51,208.9,M,47.6,M,,*45,983

$GPRMC,104834.000,A,5055.9865,N,00124.1215,W,3.63,271.94,17111$GPGGA,104835.000,5055.9868,N,00124.1218,W,1,6,2.51,209.1,M,47.6,M,,*4D,1016

$GPRMC,104835.000,A,5055.9868,N,00124.1218,W,0.15,271.94,17111$GPGGA,104836.000,5055.9869,N,00124.1220,W,1,6,2.51,209.3,M,47.6,M,,*46,1001

$GPRMC,104836.000,A,5055.9869,N,00124.1220,W,0.14,271.94,17111$GPGGA,104837.000,5055.9873,N,00124.1219,W,1,6,2.51,209.4,M,47.6,M,,*41,1002

$GPRMC,104837.000,A,5055.9873,N,00124.1219,W,0.17,271.94,17111$GPGGA,104838.000,5055.9875,N,00124.1221,W,1,6,2.51,209.6,M,47.6,M,,*41,1018

$GPRMC,104838.000,A,5055.9875,N,00124.1221,W,0.22,271.71,17111$GPGGA,104839.000,5055.9877,N,00124.1223,W,1,6,2.51,209.7,M,47.6,M,,*41,1019

$GPRMC,104839.000,A,5055.9877,N,00124.1223,W,0.25,271.82,17111$GPGGA,104840.000,5055.9877,N,00124.1224,W,1,6,2.51,209.8,M,47.6,M,,*47,946

$GPRMC,104840.000,A,5055.9877,N,00124.1224,W,0.32,271.79,17111$GPGGA,104841.000,5055.9878,N,00124.1230,W,1,5,6.98,210.0,M,47.6,M,,*4E,1012

$GPRMC,104841.000,A,5055.9878,N,00124.1230,W,0.35,271.76,17111$GPGGA,104842.000,5055.9881,N,00124.1231,W,1,5,6.98,210.3,M,47.6,M,,*49,971

$GPRMC,104842.000,A,5055.9881,N,00124.1231,W,0.21,271.74,17111$GPGGA,104843.000,5055.9885,N,00124.1224,W,1,5,6.98,210.4,M,47.6,M,,*4F,1075

$GPRMC,104843.000,A,5055.9885,N,00124.1224,W,0.14,271.74,17111$GPGGA,104844.000,5055.9885,N,00124.1222,W,1,5,6.98,210.5,M,47.6,M,,*4F,959

$GPRMC,104844.000,A,5055.9885,N,00124.1222,W,0.18,271.74,17111$GPGGA,104845.000,5055.9881,N,00124.1221,W,1,5,6.97,210.6,M,47.6,M,,*45,1031

$GPRMC,104845.000,A,5055.9881,N,00124.1221,W,2.94,269.21,17111$GPGGA,104846.000,5055.9877,N,00124.1226,W,1,5,6.97,210.9,M,47.6,M,,*47,1011

$GPRMC,104846.000,A,5055.9877,N,00124.1226,W,3.92,267.51,17111$GPGGA,104847.000,5055.9871,N,00124.1237,W,1,5,12.39,211.2,M,47.6,M,,*7B,937

$GPRMC,104847.000,A,5055.9871,N,00124.1237,W,5.06,266.01,17111$GPGGA,104848.000,5055.9873,N,00124.1238,W,1,5,12.40,211.4,M,47.6,M,,*71,1043

$GPRMC,104848.000,A,5055.9873,N,00124.1238,W,3.61,263.44,17111$GPGGA,104849.000,5055.9873,N,00124.1238,W,1,5,6.96,211.7,M,47.6,M,,*4D,971

$GPRMC,104849.000,A,5055.9873,N,00124.1238,W,3.15,260.92,17111$GPGGA,104850.000,5055.9874,N,00124.1236,W,1,5,6.97,212.0,M,47.6,M,,*49,1002

$GPRMC,104850.000,A,5055.9874,N,00124.1236,W,2.58,259.86,17111$GPGGA,104851.000,5055.9873,N,00124.1238,W,1,5,6.97,212.8,M,47.6,M,,*49,1035

$GPRMC,104851.000,A,5055.9873,N,00124.1238,W,2.57,258.94,17111$GPGGA,104852.000,5055.9888,N,00124.1224,W,1,5,6.96,213.1,M,47.6,M,,*4A,966

$GPRMC,104852.000,A,5055.9888,N,00124.1224,W,2.61,258.33,17111$GPGGA,104853.000,5055.9894,N,00124.1223,W,1,5,6.97,213.4,M,47.6,M,,*45,988

$GPRMC,104853.000,A,5055.9894,N,00124.1223,W,3.01,268.12,17111$GPGGA,104854.000,5055.9895,N,00124.1229,W,1,5,6.97,213.7,M,47.6,M,,*4A,991

$GPRMC,104854.000,A,5055.9895,N,00124.1229,W,4.07,267.56,17111$GPGGA,104855.000,5055.9898,N,00124.1233,W,1,5,12.44,214.0,M,47.6,M,,*76,1019

$GPRMC,104855.000,A,5055.9898,N,00124.1233,W,4.01,265.76,17111$GPGGA,104856.000,5055.9907,N,00124.1229,W,1,5,12.45,214.5,M,47.6,M,,*7D,1010

$GPRMC,104856.000,A,5055.9907,N,00124.1229,W,3.42,264.10,17111$GPGGA,104857.000,5055.9903,N,00124.1238,W,1,5,6.95,215.4,M,47.6,M,,*40,982

$GPRMC,104857.000,A,5055.9903,N,00124.1238,W,3.82,262.74,17111$GPGGA,104858.000,5055.9899,N,00124.1249,W,1,5,6.96,216.4,M,47.6,M,,*4B,1012

$GPRMC,104858.000,A,5055.9899,N,00124.1249,W,3.50,243.85,17111$GPGGA,104859.000,5055.9892,N,00124.1255,W,1,5,6.96,217.2,M,47.6,M,,*4B,998

$GPRMC,104859.000,A,5055.9892,N,00124.1255,W,2.60,243.85,17111$GPGGA,104900.000,5055.9875,N,00124.1262,W,1,5,6.94,216.4,M,47.6,M,,*4E,1038

$GPRMC,104900.000,A,5055.9875,N,00124.1262,W,3.97,241.58,17111$GPGGA,104901.000,5055.9876,N,00124.1256,W,1,5,12.47,216.5,M,47.6,M,,*71,954

$GPRMC,104901.000,A,5055.9876,N,00124.1256,W,3.96,240.18,17111$GPGGA,104902.000,5055.9880,N,00124.1248,W,1,5,12.47,216.4,M,47.6,M,,*75,1012

$GPRMC,104902.000,A,5055.9880,N,00124.1248,W,4.53,239.21,17111$GPGGA,104903.000,5055.9880,N,00124.1247,W,1,5,12.48,216.4,M,47.6,M,,*74,980

$GPRMC,104903.000,A,5055.9880,N,00124.1247,W,5.77,239.40,17111$GPGGA,104904.000,5055.9874,N,00124.1258,W,1,5,12.50,216.6,M,47.6,M,,*7D,1072

$GPRMC,104904.000,A,5055.9874,N,00124.1258,W,6.75,237.01,17111$GPGGA,104905.000,5055.9878,N,00124.1255,W,1,5,12.50,216.6,M,47.6,M,,*7D,955

$GPRMC,104905.000,A,5055.9878,N,00124.1255,W,5.35,223.89,17111$GPGGA,104906.000,5055.9891,N,00124.1240,W,1,5,12.52,216.5,M,47.6,M,,*7C,1025

$GPRMC,104906.000,A,5055.9891,N,00124.1240,W,3.42,221.01,17111$GPGGA,104907.000,5055.9903,N,00124.1220,W,1,5,6.95,216.5,M,47.6,M,,*4F,1003

$GPRMC,104907.000,A,5055.9903,N,00124.1220,W,2.84,222.06,17111$GPGGA,104908.000,5055.9915,N,00124.1201,W,1,5,6.95,216.4,M,47.6,M,,*45,971

$GPRMC,104908.000,A,5055.9915,N,00124.1201,W,3.29,223.80,17111$GPGGA,104909.000,5055.9925,N,00124.1185,W,1,5,6.95,216.4,M,47.6,M,,*48,1037

$GPRMC,104909.000,A,5055.9925,N,00124.1185,W,3.29,224.91,17111$GPGGA,104910.000,5055.9934,N,00124.1172,W,1,5,6.95,216.3,M,47.6,M,,*4F,961

$GPRMC,104910.000,A,5055.9934,N,00124.1172,W,3.05,226.11,17111$GPGGA,104911.000,5055.9947,N,00124.1158,W,1,5,6.95,216.4,M,47.6,M,,*45,988

$GPRMC,104911.000,A,5055.9947,N,00124.1158,W,2.12,227.60,17111$GPGGA,104912.000,5055.9948,N,00124.1156,W,1,5,6.94,216.2,M,47.6,M,,*40,1044

$GPRMC,104912.000,A,5055.9948,N,00124.1156,W,2.52,247.29,17111$GPGGA,104913.000,5055.9954,N,00124.1148,W,1,5,6.94,216.2,M,47.6,M,,*43,968

$GPRMC,104913.000,A,5055.9954,N,00124.1148,W,2.06,248.85,17111$GPGGA,104914.000,5055.9952,N,00124.1147,W,1,5,6.94,216.1,M,47.6,M,,*4E,994

$GPRMC,104914.000,A,5055.9952,N,00124.1147,W,2.07,248.26,17111$GPGGA,104915.000,5055.9957,N,00124.1137,W,1,5,6.94,216.1,M,47.6,M,,*4D,1008

$GPRMC,104915.000,A,5055.9957,N,00124.1137,W,2.11,246.03,17111$GPGGA,104916.000,5055.9955,N,00124.1136,W,1,5,6.94,216.0,M,47.6,M,,*4C,1000

$GPRMC,104916.000,A,5055.9955,N,00124.1136,W,2.42,245.27,17111$GPGGA,104917.000,5055.9960,N,00124.1128,W,1,6,2.49,215.8,M,47.6,M,,*48,1012

$GPRMC,104917.000,A,5055.9960,N,00124.1128,W,2.66,245.86,17111$GPGGA,104918.000,5055.9960,N,00124.1126,W,1,6,2.49,215.6,M,47.6,M,,*47,978

$GPRMC,104918.000,A,5055.9960,N,00124.1126,W,2.72,243.01,17111$GPGGA,104919.000,5055.9939,N,00124.1144,W,1,6,2.49,215.3,M,47.6,M,,*4B,999

$GPRMC,104919.000,A,5055.9939,N,00124.1144,W,4.80,243.62,17111$GPGGA,104920.000,5055.9932,N,00124.1160,W,1,5,9.85,215.4,M,47.6,M,,*43,1006

$GPRMC,104920.000,A,5055.9932,N,00124.1160,W,4.37,243.19,17111$GPGGA,104921.000,5055.9930,N,00124.1167,W,1,5,9.84,215.5,M,47.6,M,,*47,1025

$GPRMC,104921.000,A,5055.9930,N,00124.1167,W,3.02,242.25,17111$GPGGA,104922.000,5055.9927,N,00124.1171,W,1,5,2.99,215.5,M,47.6,M,,*42,964

$GPRMC,104922.000,A,5055.9927,N,00124.1171,W,2.81,240.04,17111$GPGGA,104923.000,5055.9913,N,00124.1192,W,1,5,2.99,215.6,M,47.6,M,,*4A,1012

$GPRMC,104923.000,A,5055.9913,N,00124.1192,W,3.29,241.05,17111$GPGGA,104924.000,5055.9903,N,00124.1205,W,1,5,2.99,215.7,M,47.6,M,,*40,1012

$GPRMC,104924.000,A,5055.9903,N,00124.1205,W,3.69,242.27,17111$GPGGA,104925.000,5055.9897,N,00124.1213,W,1,5,2.99,215.5,M,47.6,M,,*48,982

$GPRMC,104925.000,A,5055.9897,N,00124.1213,W,5.85,243.16,17111$GPGGA,104926.000,5055.9895,N,00124.1221,W,1,5,9.85,215.5,M,47.6,M,,*4E,1069

$GPRMC,104926.000,A,5055.9895,N,00124.1221,W,5.04,240.38,17111$GPGGA,104927.000,5055.9894,N,00124.1229,W,1,5,9.85,215.5,M,47.6,M,,*46,955

$GPRMC,104927.000,A,5055.9894,N,00124.1229,W,3.62,234.33,17111$GPGGA,104928.000,5055.9907,N,00124.1223,W,1,5,2.98,215.5,M,47.6,M,,*4F,998

$GPRMC,104928.000,A,5055.9907,N,00124.1223,W,2.48,236.17,17111$GPGGA,104929.000,5055.9924,N,00124.1209,W,1,5,2.98,215.5,M,47.6,M,,*47,1025

