$PGACK,103*40
$PGACK,105*46
t531,0
$PMTK011,MTKGPS*08
$PMTK010,001*2E
t531,0
$PMTK010,002*2D
$PGACK,33,0*6E
t757,0
$GPGGA,160515.964,,,,,0,3,,,M,,M,,*46
$GPRMC,160515.964,V,,,,,0.77,183.33,021215,,,N*4F
t1651,0
$GPGGA,160516.113,,,,,0,3,,,M,,M,,*4D
$GPRMC,160516.113,V,,,,,1.22,177.29,021215,,,N*45
t1651,0
$GPGGA,160517.113,,,,,0,3,,,M,,M,,*4C
$GPRMC,160517.113,V,,,,,1.03,183.51,021215,,,N*43
t2751,0
$GPGGA,160518.113,,,,,0,4,,,M,,M,,*44
$GPRMC,160518.113,V,,,,,0.41,183.51,021215,,,N*4B
t3843,0
$GPGGA,160519.113,5055.9611,N,00123.7622,W,1,5,1.34,21.4,M,47.6,M,,*7D
$GPRMC,160519.113,A,5055.9611,N,00123.7622,W,0.27,183.51,021215,,,A*70
t4793,4378
$GPGGA,160521.000,5055.9617,N,00123.7541,W,1,7,1.09,21.7,M,47.6,M,,*7A
$GPRMC,160521.000,A,5055.9617,N,00123.7541,W,0.96,87.84,021215,,,A*4F
t6675,5379
$GPGGA,160522.000,5055.9610,N,00123.7563,W,1,7,1.09,21.3,M,47.6,M,,*7A
$GPRMC,160522.000,A,5055.9610,N,00123.7563,W,0.37,87.84,021215,,,A*40
t7667,7379
$GPGGA,160523.000,5055.9608,N,00123.7561,W,1,7,1.09,21.9,M,47.6,M,,*7A
$GPRMC,160523.000,A,5055.9608,N,00123.7561,W,0.44,87.84,021215,,,A*4E
t8686,8380
$GPGGA,160524.000,5055.9606,N,00123.7560,W,1,7,1.09,22.2,M,47.6,M,,*7A
$GPRMC,160524.000,A,5055.9606,N,00123.7560,W,0.50,87.84,021215,,,A*43
t9684,9380
$GPGGA,160525.000,5055.9605,N,00123.7563,W,1,7,1.09,22.3,M,47.6,M,,*7A
$GPRMC,160525.000,A,5055.9605,N,00123.7563,W,0.46,87.84,021215,,,A*45
t10683,10381
$GPGGA,160526.000,5055.9601,N,00123.7580,W,1,7,1.09,22.3,M,47.6,M,,*70
$GPRMC,160526.000,A,5055.9601,N,00123.7580,W,0.32,87.84,021215,,,A*4C
t11695,11381
$GPGGA,160527.000,5055.9600,N,00123.7588,W,1,7,1.09,22.3,M,47.6,M,,*78
$GPRMC,160527.000,A,5055.9600,N,00123.7588,W,0.41,87.84,021215,,,A*40
t12667,12382
$GPGGA,160528.000,5055.9598,N,00123.7594,W,1,7,1.09,22.3,M,47.6,M,,*78
$GPRMC,160528.000,A,5055.9598,N,00123.7594,W,0.34,87.84,021215,,,A*42
t13719,13382
$GPGGA,160529.000,5055.9596,N,00123.7602,W,1,7,1.09,22.2,M,47.6,M,,*7A
$GPRMC,160529.000,A,5055.9596,N,00123.7602,W,0.20,87.84,021215,,,A*44
t14721,14383
$GPGGA,160530.000,5055.9598,N,00123.7595,W,1,7,1.09,22.2,M,47.6,M,,*71
$GPRMC,160530.000,A,5055.9598,N,00123.7595,W,0.16,87.84,021215,,,A*4A
t15688,15383
$GPGGA,160531.000,5055.9597,N,00123.7600,W,1,7,1.09,22.2,M,47.6,M,,*70
$GPRMC,160531.000,A,5055.9597,N,00123.7600,W,0.13,87.84,021215,,,A*4E
t16721,16385
$GPGGA,160532.000,5055.9597,N,00123.7603,W,1,7,1.09,22.2,M,47.6,M,,*70
$GPRMC,160532.000,A,5055.9597,N,00123.7603,W,0.21,87.84,021215,,,A*4F
t17733,17385
$GPGGA,160533.000,5055.9596,N,00123.7606,W,1,7,1.09,22.1,M,47.6,M,,*76
$GPRMC,160533.000,A,5055.9596,N,00123.7606,W,0.18,87.84,021215,,,A*40
t18742,18385
$GPGGA,160534.000,5055.9595,N,00123.7608,W,1,7,1.09,22.1,M,47.6,M,,*7C
$GPRMC,160534.000,A,5055.9595,N,00123.7608,W,0.18,87.84,021215,,,A*4A
t19725,19386
$GPGGA,160535.000,5055.9594,N,00123.7612,W,1,7,1.09,22.1,M,47.6,M,,*77
$GPRMC,160535.000,A,5055.9594,N,00123.7612,W,0.03,87.84,021215,,,A*4B
t20726,20386
$GPGGA,160536.000,5055.9594,N,00123.7615,W,1,7,1.09,22.1,M,47.6,M,,*73
$GPRMC,160536.000,A,5055.9594,N,00123.7615,W,0.08,87.84,021215,,,A*44
t21676,21387
$GPGGA,160537.000,5055.9597,N,00123.7605,W,1,7,1.09,22.1,M,47.6,M,,*70
$GPRMC,160537.000,A,5055.9597,N,00123.7605,W,0.17,87.84,021215,,,A*49
t22695,22387
$GPGGA,160538.000,5055.9599,N,00123.7600,W,1,7,1.09,22.1,M,47.6,M,,*74
$GPRMC,160538.000,A,5055.9599,N,00123.7600,W,0.07,87.84,021215,,,A*4C
t23706,23388
$GPGGA,160539.000,5055.9598,N,00123.7603,W,1,7,1.09,22.1,M,47.6,M,,*77
$GPRMC,160539.000,A,5055.9598,N,00123.7603,W,0.08,87.84,021215,,,A*40
t24686,24388
$GPGGA,160540.000,5055.9599,N,00123.7597,W,1,7,1.09,22.1,M,47.6,M,,*76
$GPRMC,160540.000,A,5055.9599,N,00123.7597,W,0.20,87.84,021215,,,A*4B
t25697,25389
$GPGGA,160541.000,5055.9600,N,00123.7594,W,1,7,1.09,22.1,M,47.6,M,,*77
$GPRMC,160541.000,A,5055.9600,N,00123.7594,W,0.07,87.84,021215,,,A*4F
t26696,26389
$GPGGA,160542.000,5055.9600,N,00123.7596,W,1,7,1.09,22.1,M,47.6,M,,*76
$GPRMC,160542.000,A,5055.9600,N,00123.7596,W,0.05,87.84,021215,,,A*4C
t27679,27390
$GPGGA,160543.000,5055.9600,N,00123.7593,W,1,7,1.09,22.1,M,47.6,M,,*72
$GPRMC,160543.000,A,5055.9600,N,00123.7593,W,0.12,87.84,021215,,,A*4E
t28697,28391
$GPGGA,160544.000,5055.9600,N,00123.7593,W,1,7,1.09,22.0,M,47.6,M,,*74
$GPRMC,160544.000,A,5055.9600,N,00123.7593,W,0.09,87.84,021215,,,A*43
t29709,29391
$GPGGA,160545.000,5055.9600,N,00123.7594,W,1,7,1.09,22.0,M,47.6,M,,*72
$GPRMC,160545.000,A,5055.9600,N,00123.7594,W,0.05,87.84,021215,,,A*49
t30681,30392
$GPGGA,160546.000,5055.9600,N,00123.7596,W,1,7,1.09,22.0,M,47.6,M,,*73
$GPRMC,160546.000,A,5055.9600,N,00123.7596,W,0.10,87.84,021215,,,A*4C
t31679,31392
$GPGGA,160547.000,5055.9600,N,00123.7597,W,1,7,1.09,22.0,M,47.6,M,,*73
$GPRMC,160547.000,A,5055.9600,N,00123.7597,W,0.05,87.84,021215,,,A*48
t32680,32393
$GPGGA,160548.000,5055.9602,N,00123.7590,W,1,7,1.09,22.0,M,47.6,M,,*79
$GPRMC,160548.000,A,5055.9602,N,00123.7590,W,0.17,87.84,021215,,,A*41
t33699,33393
$GPGGA,160549.000,5055.9603,N,00123.7584,W,1,7,1.09,22.0,M,47.6,M,,*7C
$GPRMC,160549.000,A,5055.9603,N,00123.7584,W,0.22,87.84,021215,,,A*42
t34751,34394
$GPGGA,160550.000,5055.9603,N,00123.7583,W,1,7,1.09,22.0,M,47.6,M,,*73
$GPRMC,160550.000,A,5055.9603,N,00123.7583,W,0.22,87.84,021215,,,A*4D
t35822,35394
$GPGGA,160551.000,5055.9603,N,00123.7581,W,1,7,1.09,22.0,M,47.6,M,,*70
$GPRMC,160551.000,A,5055.9603,N,00123.7581,W,0.23,87.84,021215,,,A*4F
t36455,36395
$GPGGA,160552.000,5055.9602,N,00123.7582,W,1,7,1.09,22.0,M,47.6,M,,*71
$GPRMC,160552.000,A,5055.9602,N,00123.7582,W,0.05,87.84,021215,,,A*4A
t37779,37396
$GPGGA,160553.000,5055.9602,N,00123.7581,W,1,7,1.09,22.0,M,47.6,M,,*73
$GPRMC,160553.000,A,5055.9602,N,00123.7581,W,0.15,87.84,021215,,,A*49
t38806,38396
$GPGGA,160554.000,5055.9602,N,00123.7580,W,1,7,1.09,22.0,M,47.6,M,,*75
$GPRMC,160554.000,A,5055.9602,N,00123.7580,W,0.37,87.84,021215,,,A*4F
t39796,39397
$GPGGA,160555.000,5055.9603,N,00123.7580,W,1,7,1.09,22.0,M,47.6,M,,*75
$GPRMC,160555.000,A,5055.9603,N,00123.7580,W,0.38,87.84,021215,,,A*40
t40786,40397
$GPGGA,160556.000,5055.9603,N,00123.7578,W,1,7,1.09,22.0,M,47.6,M,,*71
$GPRMC,160556.000,A,5055.9603,N,00123.7578,W,0.36,87.84,021215,,,A*4A
t41817,41398
$GPGGA,160557.000,5055.9604,N,00123.7576,W,1,7,1.09,22.0,M,47.6,M,,*79
$GPRMC,160557.000,A,5055.9604,N,00123.7576,W,0.33,87.84,021215,,,A*47
t42732,42398
$GPGGA,160558.000,5055.9604,N,00123.7575,W,1,7,1.09,22.0,M,47.6,M,,*75
$GPRMC,160558.000,A,5055.9604,N,00123.7575,W,0.39,87.84,021215,,,A*41
t43750,43399
$GPGGA,160559.000,5055.9604,N,00123.7573,W,1,7,1.09,22.0,M,47.6,M,,*72
$GPRMC,160559.000,A,5055.9604,N,00123.7573,W,0.29,87.84,021215,,,A*47
t44749,44399
$GPGGA,160600.000,5055.9604,N,00123.7572,W,1,7,1.09,22.0,M,47.6,M,,*7C
$GPRMC,160600.000,A,5055.9604,N,00123.7572,W,0.25,87.84,021215,,,A*45
t45749,45400
$GPGGA,160601.000,5055.9604,N,00123.7571,W,1,7,1.09,22.0,M,47.6,M,,*7E
$GPRMC,160601.000,A,5055.9604,N,00123.7571,W,0.29,87.84,021215,,,A*4B
t46750,46400
$GPGGA,160602.000,5055.9604,N,00123.7569,W,1,7,1.09,22.0,M,47.6,M,,*74
$GPRMC,160602.000,A,5055.9604,N,00123.7569,W,0.38,87.84,021215,,,A*41
t47762,47400
$GPGGA,160603.000,5055.9604,N,00123.7568,W,1,7,1.09,22.0,M,47.6,M,,*74
$GPRMC,160603.000,A,5055.9604,N,00123.7568,W,0.37,87.84,021215,,,A*4E
t48731,48402
$GPGGA,160604.000,5055.9604,N,00123.7566,W,1,7,1.09,22.0,M,47.6,M,,*7D
$GPRMC,160604.000,A,5055.9604,N,00123.7566,W,0.49,87.84,021215,,,A*4E
t49751,49402
$GPGGA,160605.000,5055.9604,N,00123.7564,W,1,7,1.09,22.0,M,47.6,M,,*7E
$GPRMC,160605.000,A,5055.9604,N,00123.7564,W,0.48,87.84,021215,,,A*4C
t50739,50403
$GPGGA,160606.000,5055.9603,N,00123.7562,W,1,7,1.09,22.0,M,47.6,M,,*7C
$GPRMC,160606.000,A,5055.9603,N,00123.7562,W,0.36,87.84,021215,,,A*47
t51745,51403
$GPGGA,160607.000,5055.9603,N,00123.7560,W,1,7,1.09,22.0,M,47.6,M,,*7F
$GPRMC,160607.000,A,5055.9603,N,00123.7560,W,0.37,87.84,021215,,,A*45
t52739,52404
$GPGGA,160608.000,5055.9604,N,00123.7559,W,1,7,1.09,22.0,M,47.6,M,,*7D
$GPRMC,160608.000,A,5055.9604,N,00123.7559,W,0.33,87.84,021215,,,A*43
t53748,53404
$GPGGA,160609.000,5055.9604,N,00123.7558,W,1,7,1.09,22.0,M,47.6,M,,*7D
$GPRMC,160609.000,A,5055.9604,N,00123.7558,W,0.33,87.84,021215,,,A*43
t54760,54405
$GPGGA,160610.000,5055.9605,N,00123.7556,W,1,7,1.09,22.0,M,47.6,M,,*7A
$GPRMC,160610.000,A,5055.9605,N,00123.7556,W,0.51,87.84,021215,,,A*40
t55795,55405
$GPGGA,160611.000,5055.9604,N,00123.7554,W,1,7,1.09,21.9,M,47.6,M,,*72
$GPRMC,160611.000,A,5055.9604,N,00123.7554,W,0.53,87.84,021215,,,A*40
t56816,56406
$GPGGA,160612.000,5055.9605,N,00123.7546,W,1,7,1.09,21.9,M,47.6,M,,*73
$GPRMC,160612.000,A,5055.9605,N,00123.7546,W,0.52,87.84,021215,,,A*40
t57748,57406
$GPGGA,160613.000,5055.9607,N,00123.7541,W,1,7,1.09,21.9,M,47.6,M,,*77
$GPRMC,160613.000,A,5055.9607,N,00123.7541,W,0.49,87.84,021215,,,A*4E
t58798,58407
$GPGGA,160614.000,5055.9608,N,00123.7535,W,1,7,1.09,22.0,M,47.6,M,,*76
$GPRMC,160614.000,A,5055.9608,N,00123.7535,W,0.48,87.84,021215,,,A*44
t59827,59408
$GPGGA,160615.000,5055.9610,N,00123.7527,W,1,7,1.09,22.0,M,47.6,M,,*7D
$GPRMC,160615.000,A,5055.9610,N,00123.7527,W,0.51,87.84,021215,,,A*47
t60800,60408
$GPGGA,160616.000,5055.9611,N,00123.7521,W,1,7,1.09,22.0,M,47.6,M,,*79
$GPRMC,160616.000,A,5055.9611,N,00123.7521,W,0.49,87.84,021215,,,A*4A
t61818,61409
$GPGGA,160617.000,5055.9612,N,00123.7519,W,1,7,1.09,22.0,M,47.6,M,,*70
$GPRMC,160617.000,A,5055.9612,N,00123.7519,W,0.46,87.84,021215,,,A*4C
t62798,62409
$GPGGA,160618.000,5055.9611,N,00123.7521,W,1,7,1.09,21.9,M,47.6,M,,*7D
$GPRMC,160618.000,A,5055.9611,N,00123.7521,W,0.42,87.84,021215,,,A*4F
t63753,63410
$GPGGA,160619.000,5055.9612,N,00123.7518,W,1,7,1.09,21.9,M,47.6,M,,*75
$GPRMC,160619.000,A,5055.9612,N,00123.7518,W,0.35,87.84,021215,,,A*47
t64747,64410
$GPGGA,160620.000,5055.9611,N,00123.7519,W,1,7,1.09,22.0,M,47.6,M,,*77
$GPRMC,160620.000,A,5055.9611,N,00123.7519,W,0.29,87.84,021215,,,A*42
t65777,65411
$GPGGA,160621.000,5055.9610,N,00123.7521,W,1,7,1.09,22.0,M,47.6,M,,*7C
$GPRMC,160621.000,A,5055.9610,N,00123.7521,W,0.22,87.84,021215,,,A*42
t66751,66411
$GPGGA,160622.000,5055.9610,N,00123.7523,W,1,7,1.09,22.0,M,47.6,M,,*7D
$GPRMC,160622.000,A,5055.9610,N,00123.7523,W,0.15,87.84,021215,,,A*47
t67758,67411
$GPGGA,160623.000,5055.9610,N,00123.7523,W,1,7,1.09,22.0,M,47.6,M,,*7C
$GPRMC,160623.000,A,5055.9610,N,00123.7523,W,0.11,87.84,021215,,,A*42
t68769,68413
$GPGGA,160624.000,5055.9610,N,00123.7523,W,1,7,1.09,22.0,M,47.6,M,,*7B
$GPRMC,160624.000,A,5055.9610,N,00123.7523,W,0.08,87.84,021215,,,A*4D
t69760,69413
$GPGGA,160625.000,5055.9610,N,00123.7522,W,1,7,1.09,22.0,M,47.6,M,,*7B
$GPRMC,160625.000,A,5055.9610,N,00123.7522,W,0.07,87.84,021215,,,A*42
t70763,70414
$GPGGA,160626.000,5055.9611,N,00123.7523,W,1,7,1.09,22.0,M,47.6,M,,*78
$GPRMC,160626.000,A,5055.9611,N,00123.7523,W,0.04,87.84,021215,,,A*42
t71763,71414
$GPGGA,160627.000,5055.9611,N,00123.7523,W,1,7,1.09,22.0,M,47.6,M,,*79
$GPRMC,160627.000,A,5055.9611,N,00123.7523,W,0.02,87.84,021215,,,A*45
t72751,72415
$GPGGA,160628.000,5055.9610,N,00123.7523,W,1,7,1.09,22.0,M,47.6,M,,*77
$GPRMC,160628.000,A,5055.9610,N,00123.7523,W,0.11,87.84,021215,,,A*49
t73769,73415
$GPGGA,160629.000,5055.9610,N,00123.7523,W,1,7,1.09,22.0,M,47.6,M,,*76
$GPRMC,160629.000,A,5055.9610,N,00123.7523,W,0.11,87.84,021215,,,A*48
t74757,74416
$GPGGA,160630.000,5055.9610,N,00123.7522,W,1,7,1.09,22.0,M,47.6,M,,*7F
$GPRMC,160630.000,A,5055.9610,N,00123.7522,W,0.06,87.84,021215,,,A*47
t75755,75416
$GPGGA,160631.000,5055.9610,N,00123.7522,W,1,7,1.09,22.0,M,47.6,M,,*7E
$GPRMC,160631.000,A,5055.9610,N,00123.7522,W,0.10,87.84,021215,,,A*41
t76822,76417
$GPGGA,160632.000,5055.9610,N,00123.7522,W,1,7,1.10,22.0,M,47.6,M,,*75
$GPRMC,160632.000,A,5055.9610,N,00123.7522,W,0.01,87.84,021215,,,A*42
t77836,77417
$GPGGA,160633.000,5055.9610,N,00123.7522,W,1,7,1.09,22.0,M,47.6,M,,*7C
$GPRMC,160633.000,A,5055.9610,N,00123.7522,W,0.09,87.84,021215,,,A*4B
t78761,78418
$GPGGA,160634.000,5055.9611,N,00123.7522,W,1,7,1.09,22.0,M,47.6,M,,*7A
$GPRMC,160634.000,A,5055.9611,N,00123.7522,W,0.12,87.84,021215,,,A*47
t79813,79419
$GPGGA,160635.000,5055.9611,N,00123.7521,W,1,7,1.09,22.0,M,47.6,M,,*78
$GPRMC,160635.000,A,5055.9611,N,00123.7521,W,0.16,87.84,021215,,,A*41
t80805,80419
$GPGGA,160636.000,5055.9611,N,00123.7521,W,1,7,1.09,22.0,M,47.6,M,,*7B
$GPRMC,160636.000,A,5055.9611,N,00123.7521,W,0.23,87.84,021215,,,A*44
t81824,81420
$GPGGA,160637.000,5055.9611,N,00123.7520,W,1,7,1.09,22.0,M,47.6,M,,*7B
$GPRMC,160637.000,A,5055.9611,N,00123.7520,W,0.29,87.84,021215,,,A*4E
t82827,82420
$GPGGA,160638.000,5055.9611,N,00123.7518,W,1,7,1.09,22.0,M,47.6,M,,*7F
$GPRMC,160638.000,A,5055.9611,N,00123.7518,W,0.38,87.84,021215,,,A*4A
t83840,83421
$GPGGA,160639.000,5055.9611,N,00123.7517,W,1,7,1.09,22.0,M,47.6,M,,*71
$GPRMC,160639.000,A,5055.9611,N,00123.7517,W,0.42,87.84,021215,,,A*49
t84759,84421
$GPGGA,160640.000,5055.9611,N,00123.7515,W,1,7,1.09,22.0,M,47.6,M,,*7D
$GPRMC,160640.000,A,5055.9611,N,00123.7515,W,0.42,87.84,021215,,,A*45
t85760,85422
$GPGGA,160641.000,5055.9612,N,00123.7513,W,1,7,1.09,22.0,M,47.6,M,,*79
$GPRMC,160641.000,A,5055.9612,N,00123.7513,W,0.29,87.84,021215,,,A*4C
t86768,86422
$GPGGA,160642.000,5055.9612,N,00123.7512,W,1,7,1.09,22.0,M,47.6,M,,*7B
$GPRMC,160642.000,A,5055.9612,N,00123.7512,W,0.30,87.84,021215,,,A*46
t87780,87422
$GPGGA,160643.000,5055.9612,N,00123.7511,W,1,7,1.09,22.0,M,47.6,M,,*79
$GPRMC,160643.000,A,5055.9612,N,00123.7511,W,0.25,87.84,021215,,,A*40
t88779,88424
$GPGGA,160644.000,5055.9612,N,00123.7510,W,1,7,1.09,22.0,M,47.6,M,,*7F
$GPRMC,160644.000,A,5055.9612,N,00123.7510,W,0.15,87.84,021215,,,A*45
t89774,89424
$GPGGA,160645.000,5055.9612,N,00123.7509,W,1,7,1.09,22.0,M,47.6,M,,*76
$GPRMC,160645.000,A,5055.9612,N,00123.7509,W,0.16,87.84,021215,,,A*4F
t90779,90425
$GPGGA,160646.000,5055.9612,N,00123.7509,W,1,7,1.09,22.0,M,47.6,M,,*75
$GPRMC,160646.000,A,5055.9612,N,00123.7509,W,0.10,87.84,021215,,,A*4A
t91766,91425
$GPGGA,160647.000,5055.9612,N,00123.7508,W,1,7,1.09,22.1,M,47.6,M,,*74
$GPRMC,160647.000,A,5055.9612,N,00123.7508,W,0.21,87.84,021215,,,A*48
t92764,92426
$GPGGA,160648.000,5055.9613,N,00123.7508,W,1,7,1.09,22.1,M,47.6,M,,*7A
$GPRMC,160648.000,A,5055.9613,N,00123.7508,W,0.14,87.84,021215,,,A*40
t93766,93426
$GPGGA,160649.000,5055.9613,N,00123.7508,W,1,7,1.09,22.1,M,47.6,M,,*7B
$GPRMC,160649.000,A,5055.9613,N,00123.7508,W,0.04,87.84,021215,,,A*40
t94782,94427
$GPGGA,160650.000,5055.9613,N,00123.7508,W,1,7,1.09,22.1,M,47.6,M,,*73
$GPRMC,160650.000,A,5055.9613,N,00123.7508,W,0.16,87.84,021215,,,A*4B
t95798,95427
$GPGGA,160651.000,5055.9614,N,00123.7507,W,1,7,1.11,22.1,M,47.6,M,,*73
$GPRMC,160651.000,A,5055.9614,N,00123.7507,W,0.17,87.84,021215,,,A*43
t96758,96428
$GPGGA,160652.000,5055.9614,N,00123.7508,W,1,7,1.09,22.1,M,47.6,M,,*76
$GPRMC,160652.000,A,5055.9614,N,00123.7508,W,0.21,87.84,021215,,,A*4A
t97788,97429
$GPGGA,160653.000,5055.9614,N,00123.7509,W,1,7,1.09,22.1,M,47.6,M,,*76
$GPRMC,160653.000,A,5055.9614,N,00123.7509,W,0.19,87.84,021215,,,A*41
t98838,98429
$GPGGA,160654.000,5055.9613,N,00123.7509,W,1,7,1.09,22.1,M,47.6,M,,*76
$GPRMC,160654.000,A,5055.9613,N,00123.7509,W,0.16,87.84,021215,,,A*4E
t99828,99430
$GPGGA,160655.000,5055.9613,N,00123.7510,W,1,7,1.09,22.1,M,47.6,M,,*7F
$GPRMC,160655.000,A,5055.9613,N,00123.7510,W,0.16,87.84,021215,,,A*47
t100838,100430
$GPGGA,160656.000,5055.9613,N,00123.7510,W,1,7,1.10,22.1,M,47.6,M,,*74
$GPRMC,160656.000,A,5055.9613,N,00123.7510,W,0.24,87.84,021215,,,A*45
t101850,101431
$GPGGA,160657.000,5055.9613,N,00123.7511,W,1,7,1.09,22.1,M,47.6,M,,*7C
$GPRMC,160657.000,A,5055.9613,N,00123.7511,W,0.50,87.84,021215,,,A*46
t102820,102431
$GPGGA,160658.000,5055.9613,N,00123.7513,W,1,7,1.10,22.1,M,47.6,M,,*79
$GPRMC,160658.000,A,5055.9613,N,00123.7513,W,0.59,261.77,021215,,,A*74
t103825,103432
$GPGGA,160659.000,5055.9612,N,00123.7515,W,1,7,1.10,22.2,M,47.6,M,,*7C
$GPRMC,160659.000,A,5055.9612,N,00123.7515,W,0.61,262.93,021215,,,A*70
t104821,104432
$GPGGA,160700.000,5055.9612,N,00123.7517,W,1,7,1.10,22.2,M,47.6,M,,*73
$GPRMC,160700.000,A,5055.9612,N,00123.7517,W,0.64,262.04,021215,,,A*74
t105817,105433
$GPGGA,160701.000,5055.9611,N,00123.7516,W,1,7,1.10,22.3,M,47.6,M,,*71
$GPRMC,160701.000,A,5055.9611,N,00123.7516,W,0.62,261.01,021215,,,A*77
t106772,106433
$GPGGA,160702.000,5055.9612,N,00123.7515,W,1,7,1.09,22.4,M,47.6,M,,*7D
$GPRMC,160702.000,A,5055.9612,N,00123.7515,W,0.63,264.17,021215,,,A*77
t107839,107435
$GPGGA,160703.000,5055.9612,N,00123.7516,W,1,7,1.09,22.5,M,47.6,M,,*7E
$GPRMC,160703.000,A,5055.9612,N,00123.7516,W,0.65,261.43,021215,,,A*77
t108787,108435
$GPGGA,160704.000,5055.9611,N,00123.7517,W,1,7,1.10,22.5,M,47.6,M,,*73
$GPRMC,160704.000,A,5055.9611,N,00123.7517,W,0.62,261.43,021215,,,A*75
t109799,109435
$GPGGA,160705.000,5055.9611,N,00123.7516,W,1,7,1.10,22.6,M,47.6,M,,*70
$GPRMC,160705.000,A,5055.9611,N,00123.7516,W,0.31,261.59,021215,,,A*78
t110782,110436
$GPGGA,160706.000,5055.9611,N,00123.7514,W,1,7,1.10,22.6,M,47.6,M,,*71
$GPRMC,160706.000,A,5055.9611,N,00123.7514,W,0.28,261.47,021215,,,A*7E
t111785,111436
$GPGGA,160707.000,5055.9611,N,00123.7513,W,1,7,1.10,22.7,M,47.6,M,,*76
$GPRMC,160707.000,A,5055.9611,N,00123.7513,W,0.34,260.99,021215,,,A*77
t112784,112437
$GPGGA,160708.000,5055.9610,N,00123.7515,W,1,7,1.10,22.7,M,47.6,M,,*7E
$GPRMC,160708.000,A,5055.9610,N,00123.7515,W,0.58,261.25,021215,,,A*73
t113793,113437
$GPGGA,160709.000,5055.9609,N,00123.7520,W,1,7,1.10,22.8,M,47.6,M,,*7E
$GPRMC,160709.000,A,5055.9609,N,00123.7520,W,0.80,258.50,021215,,,A*71
t114788,114438
$GPGGA,160710.000,5055.9607,N,00123.7525,W,1,7,1.10,22.8,M,47.6,M,,*7D
$GPRMC,160710.000,A,5055.9607,N,00123.7525,W,0.85,251.76,021215,,,A*7A
t115795,115438
$GPGGA,160711.000,5055.9605,N,00123.7533,W,1,7,1.10,22.9,M,47.6,M,,*78
$GPRMC,160711.000,A,5055.9605,N,00123.7533,W,0.90,253.09,021215,,,A*70
t116785,116440
$GPGGA,160712.000,5055.9604,N,00123.7541,W,1,7,1.10,23.0,M,47.6,M,,*77
$GPRMC,160712.000,A,5055.9604,N,00123.7541,W,0.93,254.86,021215,,,A*74
t117847,117440
$GPGGA,160713.000,5055.9604,N,00123.7543,W,1,7,1.10,23.0,M,47.6,M,,*74
$GPRMC,160713.000,A,5055.9604,N,00123.7543,W,0.87,254.46,021215,,,A*7E
t118802,118440
$GPGGA,160714.000,5055.9604,N,00123.7543,W,1,7,1.10,23.1,M,47.6,M,,*72
$GPRMC,160714.000,A,5055.9604,N,00123.7543,W,0.69,255.68,021215,,,A*74
t119798,119441
$GPGGA,160715.000,5055.9603,N,00123.7547,W,1,7,1.10,23.2,M,47.6,M,,*73
$GPRMC,160715.000,A,5055.9603,N,00123.7547,W,0.74,246.26,021215,,,A*72
t120833,120441
$GPGGA,160716.000,5055.9602,N,00123.7551,W,1,7,1.10,23.3,M,47.6,M,,*77
$GPRMC,160716.000,A,5055.9602,N,00123.7551,W,0.74,247.18,021215,,,A*7B
t121784,121442
$GPGGA,160717.000,5055.9601,N,00123.7556,W,1,7,1.10,23.4,M,47.6,M,,*75
$GPRMC,160717.000,A,5055.9601,N,00123.7556,W,0.76,247.86,021215,,,A*7B
t122847,122442
$GPGGA,160718.000,5055.9602,N,00123.7554,W,1,7,1.10,23.5,M,47.6,M,,*7A
$GPRMC,160718.000,A,5055.9602,N,00123.7554,W,0.54,247.86,021215,,,A*75
t123828,123443
$GPGGA,160719.000,5055.9601,N,00123.7556,W,1,7,1.10,23.5,M,47.6,M,,*7A
$GPRMC,160719.000,A,5055.9601,N,00123.7556,W,0.15,247.86,021215,,,A*70
t124831,124443
$GPGGA,160720.000,5055.9602,N,00123.7554,W,1,7,1.10,23.6,M,47.6,M,,*72
$GPRMC,160720.000,A,5055.9602,N,00123.7554,W,0.10,247.86,021215,,,A*7E
t125865,125444
$GPGGA,160721.000,5055.9602,N,00123.7556,W,1,7,1.10,23.6,M,47.6,M,,*71
$GPRMC,160721.000,A,5055.9602,N,00123.7556,W,0.11,247.99,021215,,,A*72
t126852,126445
$GPGGA,160722.000,5055.9603,N,00123.7553,W,1,7,1.10,23.7,M,47.6,M,,*77
$GPRMC,160722.000,A,5055.9603,N,00123.7553,W,0.11,247.93,021215,,,A*7F
t127811,127446
$GPGGA,160723.000,5055.9603,N,00123.7553,W,1,7,1.10,23.7,M,47.6,M,,*76
$GPRMC,160723.000,A,5055.9603,N,00123.7553,W,0.05,247.95,021215,,,A*7D
t128785,128446
$GPGGA,160724.000,5055.9603,N,00123.7553,W,1,7,1.10,23.8,M,47.6,M,,*7E
$GPRMC,160724.000,A,5055.9603,N,00123.7553,W,0.04,247.95,021215,,,A*7B
t129783,129446
$GPGGA,160725.000,5055.9603,N,00123.7553,W,1,7,1.10,23.8,M,47.6,M,,*7F
$GPRMC,160725.000,A,5055.9603,N,00123.7553,W,0.13,247.95,021215,,,A*7C
t130785,130447
$GPGGA,160726.000,5055.9602,N,00123.7552,W,1,7,1.10,23.8,M,47.6,M,,*7C
$GPRMC,160726.000,A,5055.9602,N,00123.7552,W,0.37,247.95,021215,,,A*79
t131798,131447
$GPGGA,160727.000,5055.9603,N,00123.7551,W,1,7,1.10,23.8,M,47.6,M,,*7F
$GPRMC,160727.000,A,5055.9603,N,00123.7551,W,0.38,247.95,021215,,,A*75
t132805,132448
$GPGGA,160728.000,5055.9603,N,00123.7549,W,1,7,1.10,23.8,M,47.6,M,,*79
$GPRMC,160728.000,A,5055.9603,N,00123.7549,W,0.45,247.95,021215,,,A*79
t133811,133448
$GPGGA,160729.000,5055.9603,N,00123.7547,W,1,7,1.10,23.8,M,47.6,M,,*76
$GPRMC,160729.000,A,5055.9603,N,00123.7547,W,0.65,83.97,021215,,,A*4C
t134808,134449
$GPGGA,160730.000,5055.9604,N,00123.7548,W,1,7,1.10,23.8,M,47.6,M,,*76
$GPRMC,160730.000,A,5055.9604,N,00123.7548,W,0.66,74.23,021215,,,A*48
t135789,135450
$GPGGA,160731.000,5055.9605,N,00123.7547,W,1,7,1.10,23.9,M,47.6,M,,*78
$GPRMC,160731.000,A,5055.9605,N,00123.7547,W,0.63,73.93,021215,,,A*4E
t136807,136451
$GPGGA,160732.000,5055.9606,N,00123.7548,W,1,7,1.10,23.9,M,47.6,M,,*77
$GPRMC,160732.000,A,5055.9606,N,00123.7548,W,0.62,75.13,021215,,,A*4E
t137822,137451
$GPGGA,160733.000,5055.9606,N,00123.7548,W,1,7,1.10,23.9,M,47.6,M,,*76
$GPRMC,160733.000,A,5055.9606,N,00123.7548,W,0.79,72.52,021215,,,A*47
t138840,138451
$GPGGA,160734.000,5055.9608,N,00123.7547,W,1,7,1.10,24.0,M,47.6,M,,*7E
$GPRMC,160734.000,A,5055.9608,N,00123.7547,W,0.73,71.95,021215,,,A*43
t139816,139452
$GPGGA,160735.000,5055.9609,N,00123.7547,W,1,7,1.10,24.0,M,47.6,M,,*7E
$GPRMC,160735.000,A,5055.9609,N,00123.7547,W,0.30,71.95,021215,,,A*44
t140789,140452
$GPGGA,160736.000,5055.9609,N,00123.7547,W,1,7,1.10,24.1,M,47.6,M,,*7C
$GPRMC,160736.000,A,5055.9609,N,00123.7547,W,0.25,71.95,021215,,,A*43
t141846,141453
$GPGGA,160737.000,5055.9610,N,00123.7549,W,1,7,1.10,24.1,M,47.6,M,,*7B
$GPRMC,160737.000,A,5055.9610,N,00123.7549,W,0.25,71.95,021215,,,A*44
t142811,142453
$GPGGA,160738.000,5055.9611,N,00123.7546,W,1,7,1.10,24.2,M,47.6,M,,*79
$GPRMC,160738.000,A,5055.9611,N,00123.7546,W,0.29,71.95,021215,,,A*49
t143875,143454
$GPGGA,160739.000,5055.9612,N,00123.7544,W,1,7,1.10,24.2,M,47.6,M,,*79
$GPRMC,160739.000,A,5055.9612,N,00123.7544,W,0.65,70.10,021215,,,A*4D
t144844,144455
$GPGGA,160740.000,5055.9612,N,00123.7546,W,1,7,1.10,24.3,M,47.6,M,,*74
$GPRMC,160740.000,A,5055.9612,N,00123.7546,W,0.93,75.07,021215,,,A*4B
t145819,145456
$GPGGA,160741.000,5055.9612,N,00123.7546,W,1,7,1.10,24.3,M,47.6,M,,*75
$GPRMC,160741.000,A,5055.9612,N,00123.7546,W,0.92,77.58,021215,,,A*43
t146848,146456
$GPGGA,160742.000,5055.9613,N,00123.7544,W,1,7,1.10,24.4,M,47.6,M,,*72
$GPRMC,160742.000,A,5055.9613,N,00123.7544,W,0.93,76.84,021215,,,A*42
t147850,147457
$GPGGA,160743.000,5055.9613,N,00123.7543,W,1,7,1.10,24.4,M,47.6,M,,*74
$GPRMC,160743.000,A,5055.9613,N,00123.7543,W,0.73,76.13,021215,,,A*44
t148853,148457
$GPGGA,160744.000,5055.9613,N,00123.7542,W,1,7,1.10,24.5,M,47.6,M,,*73
$GPRMC,160744.000,A,5055.9613,N,00123.7542,W,0.26,76.13,021215,,,A*42
t149815,149457
$GPGGA,160745.000,5055.9613,N,00123.7544,W,1,7,1.10,24.5,M,47.6,M,,*74
$GPRMC,160745.000,A,5055.9613,N,00123.7544,W,0.06,76.13,021215,,,A*47
t150809,150458
$GPGGA,160746.000,5055.9614,N,00123.7544,W,1,7,1.10,24.6,M,47.6,M,,*73
$GPRMC,160746.000,A,5055.9614,N,00123.7544,W,0.10,76.13,021215,,,A*44
t151816,151458
$GPGGA,160747.000,5055.9614,N,00123.7546,W,1,7,1.10,24.6,M,47.6,M,,*70
$GPRMC,160747.000,A,5055.9614,N,00123.7546,W,0.14,76.00,021215,,,A*41
t152815,152459
$GPGGA,160748.000,5055.9614,N,00123.7545,W,1,7,1.10,24.6,M,47.6,M,,*7C
$GPRMC,160748.000,A,5055.9614,N,00123.7545,W,0.43,76.06,021215,,,A*49
t153812,153460
$GPGGA,160749.000,5055.9615,N,00123.7543,W,1,7,1.10,24.6,M,47.6,M,,*7A
$GPRMC,160749.000,A,5055.9615,N,00123.7543,W,0.70,74.47,021215,,,A*48
t154805,154461
$GPGGA,160750.000,5055.9615,N,00123.7544,W,1,7,1.10,24.7,M,47.6,M,,*74
$GPRMC,160750.000,A,5055.9615,N,00123.7544,W,0.63,74.47,021215,,,A*45
t155838,155461
$GPGGA,160751.000,5055.9616,N,00123.7544,W,1,7,1.10,24.7,M,47.6,M,,*76
$GPRMC,160751.000,A,5055.9616,N,00123.7544,W,0.65,73.61,021215,,,A*42
t156806,156462
$GPGGA,160752.000,5055.9617,N,00123.7545,W,1,7,1.10,24.7,M,47.6,M,,*75
$GPRMC,160752.000,A,5055.9617,N,00123.7545,W,0.71,70.84,021215,,,A*4C
t157814,157462
$GPGGA,160753.000,5055.9617,N,00123.7545,W,1,7,1.10,24.8,M,47.6,M,,*7B
$GPRMC,160753.000,A,5055.9617,N,00123.7545,W,0.71,64.44,021215,,,A*44
t158808,158462
$GPGGA,160754.000,5055.9618,N,00123.7545,W,1,7,1.10,24.8,M,47.6,M,,*73
$GPRMC,160754.000,A,5055.9618,N,00123.7545,W,0.65,63.17,021215,,,A*48
t159861,159463
$GPGGA,160755.000,5055.9619,N,00123.7545,W,1,7,1.10,24.9,M,47.6,M,,*72
$GPRMC,160755.000,A,5055.9619,N,00123.7545,W,0.35,63.17,021215,,,A*4D
t160811,160463
$GPGGA,160756.000,5055.9620,N,00123.7546,W,1,7,1.10,24.9,M,47.6,M,,*78
$GPRMC,160756.000,A,5055.9620,N,00123.7546,W,0.32,63.17,021215,,,A*40
t161820,161464
$GPGGA,160757.000,5055.9621,N,00123.7547,W,1,7,1.10,24.9,M,47.6,M,,*79
$GPRMC,160757.000,A,5055.9621,N,00123.7547,W,0.25,63.17,021215,,,A*47
t162872,162465
$GPGGA,160758.000,5055.9621,N,00123.7550,W,1,7,1.11,25.0,M,47.6,M,,*79
$GPRMC,160758.000,A,5055.9621,N,00123.7550,W,0.69,265.99,021215,,,A*74
t163829,163466
$GPGGA,160759.000,5055.9621,N,00123.7552,W,1,7,1.10,25.0,M,47.6,M,,*7B
$GPRMC,160759.000,A,5055.9621,N,00123.7552,W,0.29,265.99,021215,,,A*73
t164865,164466
$GPGGA,160800.000,5055.9620,N,00123.7553,W,1,7,1.10,25.1,M,47.6,M,,*79
$GPRMC,160800.000,A,5055.9620,N,00123.7553,W,0.33,265.99,021215,,,A*7B
t165870,165467
$GPGGA,160801.000,5055.9621,N,00123.7553,W,1,7,1.10,25.1,M,47.6,M,,*79
$GPRMC,160801.000,A,5055.9621,N,00123.7553,W,0.54,265.99,021215,,,A*7A
t166812,166467
$GPGGA,160802.000,5055.9621,N,00123.7553,W,1,7,1.10,25.2,M,47.6,M,,*79
$GPRMC,160802.000,A,5055.9621,N,00123.7553,W,0.59,74.46,021215,,,A*44
t167876,167468
$GPGGA,160803.000,5055.9620,N,00123.7554,W,1,7,1.10,25.2,M,47.6,M,,*7E
$GPRMC,160803.000,A,5055.9620,N,00123.7554,W,0.37,74.46,021215,,,A*4B
t168882,168468
$GPGGA,160804.000,5055.9620,N,00123.7553,W,1,7,1.10,25.2,M,47.6,M,,*7E
$GPRMC,160804.000,A,5055.9620,N,00123.7553,W,0.06,74.46,021215,,,A*49
t169864,169468
$GPGGA,160805.000,5055.9620,N,00123.7554,W,1,7,1.10,25.3,M,47.6,M,,*79
$GPRMC,160805.000,A,5055.9620,N,00123.7554,W,0.07,74.46,021215,,,A*4E
t170821,170469
$GPGGA,160806.000,5055.9620,N,00123.7554,W,1,7,1.10,25.3,M,47.6,M,,*7A
$GPRMC,160806.000,A,5055.9620,N,00123.7554,W,0.09,74.46,021215,,,A*43
t171807,171470
$GPGGA,160807.000,5055.9621,N,00123.7553,W,1,7,1.10,25.3,M,47.6,M,,*7D
$GPRMC,160807.000,A,5055.9621,N,00123.7553,W,0.09,74.46,021215,,,A*44
t172805,172471
$GPGGA,160808.000,5055.9620,N,00123.7553,W,1,7,1.10,25.3,M,47.6,M,,*73
$GPRMC,160808.000,A,5055.9620,N,00123.7553,W,0.11,74.46,021215,,,A*43
t173830,173471
$GPGGA,160809.000,5055.9621,N,00123.7552,W,1,7,1.10,25.3,M,47.6,M,,*72
$GPRMC,160809.000,A,5055.9621,N,00123.7552,W,0.22,74.46,021215,,,A*42
t174821,174472
$GPGGA,160810.000,5055.9621,N,00123.7551,W,1,7,1.10,25.3,M,47.6,M,,*79
$GPRMC,160810.000,A,5055.9621,N,00123.7551,W,0.25,74.46,021215,,,A*4E
t175811,175472
$GPGGA,160811.000,5055.9621,N,00123.7550,W,1,7,1.10,25.3,M,47.6,M,,*79
$GPRMC,160811.000,A,5055.9621,N,00123.7550,W,0.13,74.46,021215,,,A*4B
t176820,176473
$GPGGA,160812.000,5055.9620,N,00123.7550,W,1,7,1.10,25.3,M,47.6,M,,*7B
$GPRMC,160812.000,A,5055.9620,N,00123.7550,W,0.09,74.46,021215,,,A*42
t177807,177473
$GPGGA,160813.000,5055.9621,N,00123.7550,W,1,7,1.11,25.3,M,47.6,M,,*7A
$GPRMC,160813.000,A,5055.9621,N,00123.7550,W,0.08,74.46,021215,,,A*43
t178808,178473
$GPGGA,160814.000,5055.9621,N,00123.7550,W,1,7,1.10,25.3,M,47.6,M,,*7C
$GPRMC,160814.000,A,5055.9621,N,00123.7550,W,0.24,74.46,021215,,,A*4A
t179843,179474
$GPGGA,160815.000,5055.9621,N,00123.7551,W,1,7,1.10,25.3,M,47.6,M,,*7C
$GPRMC,160815.000,A,5055.9621,N,00123.7551,W,0.42,74.46,021215,,,A*4A
t180865,180475
$GPGGA,160816.000,5055.9621,N,00123.7553,W,1,7,1.10,25.4,M,47.6,M,,*7A
$GPRMC,160816.000,A,5055.9621,N,00123.7553,W,0.49,74.46,021215,,,A*40
t181814,181476
$GPGGA,160817.000,5055.9621,N,00123.7555,W,1,7,1.10,25.4,M,47.6,M,,*7D
$GPRMC,160817.000,A,5055.9621,N,00123.7555,W,0.54,74.46,021215,,,A*4B
t182822,182476
$GPGGA,160818.000,5055.9621,N,00123.7557,W,1,7,1.10,25.4,M,47.6,M,,*70
$GPRMC,160818.000,A,5055.9621,N,00123.7557,W,0.28,74.46,021215,,,A*4D
t183875,183477
$GPGGA,160819.000,5055.9621,N,00123.7558,W,1,7,1.10,25.4,M,47.6,M,,*7E
$GPRMC,160819.000,A,5055.9621,N,00123.7558,W,0.16,74.46,021215,,,A*4E
t184813,184477
$GPGGA,160820.000,5055.9620,N,00123.7558,W,2,7,1.10,25.4,M,47.6,M,0000,0000*76
G$GPRMC,160820.000,A,5055.9620,N,00123.7558,W,0.35,74.46,021215,,,D*41
t185888,185478
$GPGGA,160821.000,5055.9619,N,00123.7557,W,2,7,1.10,25.5,M,47.6,M,0000,0000*73
G$GPRMC,160821.000,A,5055.9619,N,00123.7557,W,0.34,74.46,021215,,,D*44
t186880,186478
$GPGGA,160822.000,5055.9620,N,00123.7552,W,2,7,1.10,25.6,M,47.6,M,0000,0000*7C
G$GPRMC,160822.000,A,5055.9620,N,00123.7552,W,0.11,74.46,021215,,,D*4F
t187833,187479
$GPGGA,160823.000,5055.9621,N,00123.7549,W,2,7,1.10,25.7,M,47.6,M,0000,0000*77
G$GPRMC,160823.000,A,5055.9621,N,00123.7549,W,0.16,74.46,021215,,,D*42
t188874,188479
$GPGGA,160824.000,5055.9621,N,00123.7546,W,2,7,1.10,25.8,M,47.6,M,0000,0000*70
G$GPRMC,160824.000,A,5055.9621,N,00123.7546,W,0.44,74.46,021215,,,D*4D
t189883,189480
$GPGGA,160825.000,5055.9622,N,00123.7544,W,2,7,1.10,25.8,M,47.6,M,0000,0000*70
G$GPRMC,160825.000,A,5055.9622,N,00123.7544,W,0.68,74.46,021215,,,D*43
t190896,190481
$GPGGA,160826.000,5055.9621,N,00123.7544,W,2,8,0.93,26.0,M,47.6,M,0000,0000*7E
G$GPRMC,160826.000,A,5055.9621,N,00123.7544,W,0.73,74.46,021215,,,D*49
t191892,191481
$GPGGA,160827.000,5055.9620,N,00123.7546,W,2,8,0.93,26.1,M,47.6,M,0000,0000*7D
H$GPRMC,160827.000,A,5055.9620,N,00123.7546,W,0.72,243.86,021215,,,D*70
t192842,192482
$GPGGA,160828.000,5055.9621,N,00123.7546,W,2,8,0.93,26.1,M,47.6,M,0000,0000*73
H$GPRMC,160828.000,A,5055.9621,N,00123.7546,W,0.22,242.45,021215,,,D*75
t193838,193482
$GPGGA,160829.000,5055.9622,N,00123.7543,W,2,8,0.93,26.3,M,47.6,M,0000,0000*76
H$GPRMC,160829.000,A,5055.9622,N,00123.7543,W,0.27,241.34,021215,,,D*72
t194839,194483
$GPGGA,160830.000,5055.9623,N,00123.7542,W,2,8,0.93,26.3,M,47.6,M,0000,0000*7E
H$GPRMC,160830.000,A,5055.9623,N,00123.7542,W,0.31,241.34,021215,,,D*7D
t195857,195483
$GPGGA,160831.000,5055.9623,N,00123.7541,W,2,8,0.93,26.4,M,47.6,M,0000,0000*7B
H$GPRMC,160831.000,A,5055.9623,N,00123.7541,W,0.14,241.34,021215,,,D*78
t196840,196484
$GPGGA,160832.000,5055.9624,N,00123.7541,W,2,8,0.93,26.5,M,47.6,M,0000,0000*7E
H$GPRMC,160832.000,A,5055.9624,N,00123.7541,W,0.16,241.34,021215,,,D*7E
t197866,197484
$GPGGA,160833.000,5055.9623,N,00123.7543,W,2,8,0.93,26.6,M,47.6,M,0000,0000*79
H$GPRMC,160833.000,A,5055.9623,N,00123.7543,W,0.48,241.13,021215,,,D*74
t198840,198486
$GPGGA,160834.000,5055.9622,N,00123.7546,W,2,8,0.93,26.6,M,47.6,M,0000,0000*7A
H$GPRMC,160834.000,A,5055.9622,N,00123.7546,W,0.75,243.04,021215,,,D*7D
t199858,199486
$GPGGA,160835.000,5055.9622,N,00123.7546,W,2,8,0.93,26.7,M,47.6,M,0000,0000*7A
H$GPRMC,160835.000,A,5055.9622,N,00123.7546,W,0.76,243.87,021215,,,D*74
t200860,200486
$GPGGA,160836.000,5055.9623,N,00123.7546,W,2,8,0.93,26.8,M,47.6,M,0000,0000*77
H$GPRMC,160836.000,A,5055.9623,N,00123.7546,W,0.77,256.43,021215,,,D*7B
t201893,201487
$GPGGA,160837.000,5055.9623,N,00123.7549,W,2,8,0.99,26.9,M,47.6,M,0000,0000*72
H$GPRMC,160837.000,A,5055.9623,N,00123.7549,W,0.75,259.21,021215,,,D*7C
t202847,202487
$GPGGA,160838.000,5055.9623,N,00123.7550,W,2,8,0.99,27.0,M,47.6,M,0000,0000*7D
H$GPRMC,160838.000,A,5055.9623,N,00123.7550,W,0.68,260.13,021215,,,D*7C
t203870,203488
$GPGGA,160839.000,5055.9624,N,00123.7551,W,2,8,0.99,27.1,M,47.6,M,0000,0000*7B
H$GPRMC,160839.000,A,5055.9624,N,00123.7551,W,0.49,261.06,021215,,,D*7D
t204899,204488
$GPGGA,160840.000,5055.9624,N,00123.7552,W,2,8,0.99,27.2,M,47.6,M,0000,0000*75
H$GPRMC,160840.000,A,5055.9624,N,00123.7552,W,0.29,261.85,021215,,,D*7D
t205901,205489
$GPGGA,160841.000,5055.9624,N,00123.7554,W,2,8,0.99,27.3,M,47.6,M,0000,0000*73
H$GPRMC,160841.000,A,5055.9624,N,00123.7554,W,0.23,262.80,021215,,,D*76
t206913,206489
$GPGGA,160842.000,5055.9624,N,00123.7555,W,2,8,0.99,27.4,M,47.6,M,0000,0000*76
H$GPRMC,160842.000,A,5055.9624,N,00123.7555,W,0.15,265.58,021215,,,D*73
t207911,207491
$GPGGA,160843.000,5055.9624,N,00123.7557,W,2,8,0.99,27.5,M,47.6,M,0000,0000*74
H$GPRMC,160843.000,A,5055.9624,N,00123.7557,W,0.14,273.43,021215,,,D*7C
t208910,208491
$GPGGA,160844.000,5055.9625,N,00123.7560,W,2,8,0.99,27.6,M,47.6,M,0000,0000*75
H$GPRMC,160844.000,A,5055.9625,N,00123.7560,W,0.18,273.43,021215,,,D*72
t209906,209491
$GPGGA,160845.000,5055.9626,N,00123.7563,W,2,8,0.99,27.7,M,47.6,M,0000,0000*75
H$GPRMC,160845.000,A,5055.9626,N,00123.7563,W,0.20,273.43,021215,,,D*78
t210916,210492
$GPGGA,160846.000,5055.9628,N,00123.7559,W,2,8,0.99,27.9,M,47.6,M,0000,0000*7F
H$GPRMC,160846.000,A,5055.9628,N,00123.7559,W,0.20,273.43,021215,,,D*7C
t211916,211492
$GPGGA,160847.000,5055.9629,N,00123.7560,W,2,8,0.99,28.0,M,47.6,M,0000,0000*73
H$GPRMC,160847.000,A,5055.9629,N,00123.7560,W,0.22,273.43,021215,,,D*74
t212900,212493
$GPGGA,160848.000,5055.9629,N,00123.7557,W,2,8,0.99,28.2,M,47.6,M,0000,0000*7A
H$GPRMC,160848.000,A,5055.9629,N,00123.7557,W,0.20,273.43,021215,,,D*7D
t213898,213493
$GPGGA,160849.000,5055.9630,N,00123.7557,W,2,8,0.99,28.3,M,47.6,M,0000,0000*72
H$GPRMC,160849.000,A,5055.9630,N,00123.7557,W,0.18,273.43,021215,,,D*7F
t214874,214494
$GPGGA,160850.000,5055.9631,N,00123.7556,W,2,8,0.99,28.4,M,47.6,M,0000,0000*7D
H$GPRMC,160850.000,A,5055.9631,N,00123.7556,W,0.21,273.43,021215,,,D*7D
t215883,215494
$GPGGA,160851.000,5055.9632,N,00123.7552,W,2,8,0.99,28.5,M,47.6,M,0000,0000*7A
G$GPRMC,160851.000,A,5055.9632,N,00123.7552,W,0.40,37.64,021215,,,D*4B
t216876,216496
$GPGGA,160852.000,5055.9633,N,00123.7549,W,2,8,0.99,28.6,M,47.6,M,0000,0000*71
G$GPRMC,160852.000,A,5055.9633,N,00123.7549,W,0.41,38.56,021215,,,D*4C
t217876,217496
$GPGGA,160853.000,5055.9634,N,00123.7547,W,2,8,0.99,28.7,M,47.6,M,0000,0000*78
G$GPRMC,160853.000,A,5055.9634,N,00123.7547,W,0.44,39.90,021215,,,D*4A
t218857,218497
$GPGGA,160854.000,5055.9635,N,00123.7546,W,2,8,0.99,28.7,M,47.6,M,0000,0000*7F
G$GPRMC,160854.000,A,5055.9635,N,00123.7546,W,0.59,41.54,021215,,,D*46
t219858,219497
$GPGGA,160855.000,5055.9636,N,00123.7541,W,2,8,0.99,28.8,M,47.6,M,0000,0000*75
G$GPRMC,160855.000,A,5055.9636,N,00123.7541,W,0.84,60.49,021215,,,D*4C
t220859,220497
$GPGGA,160856.000,5055.9638,N,00123.7536,W,2,8,0.99,28.8,M,47.6,M,0000,0000*78
G$GPRMC,160856.000,A,5055.9638,N,00123.7536,W,1.05,63.61,021215,,,D*40
t221884,221498
$GPGGA,160857.000,5055.9639,N,00123.7535,W,2,8,0.99,28.9,M,47.6,M,0000,0000*7A
G$GPRMC,160857.000,A,5055.9639,N,00123.7535,W,1.06,64.27,021215,,,D*45
t222572,222498
$GPGGA,160858.000,5055.9639,N,00123.7538,W,2,8,0.99,29.0,M,47.6,M,0000,0000*70
G$GPRMC,160858.000,A,5055.9639,N,00123.7538,W,0.57,63.38,021215,,,D*4B
t223567,223499
$GPGGA,160859.000,5055.9639,N,00123.7529,W,2,8,0.99,28.9,M,47.6,M,0000,0000*79
G$GPRMC,160859.000,A,5055.9639,N,00123.7529,W,0.55,65.97,021215,,,D*4B
t224579,224500
$GPGGA,160900.000,5055.9635,N,00123.7518,W,2,8,0.93,28.8,M,47.6,M,0000,0000*71
G$GPRMC,160900.000,A,5055.9635,N,00123.7518,W,0.74,65.97,021215,,,D*4B
t225566,225501
$GPGGA,160901.000,5055.9633,N,00123.7533,W,2,8,0.99,28.9,M,47.6,M,0000,0000*74
H$GPRMC,160901.000,A,5055.9633,N,00123.7533,W,1.99,241.82,021215,,,D*77
t226575,226501
$GPGGA,160902.000,5055.9632,N,00123.7537,W,2,8,0.93,29.0,M,47.6,M,0000,0000*70
H$GPRMC,160902.000,A,5055.9632,N,00123.7537,W,1.18,241.60,021215,,,D*74
t227581,227502
$GPGGA,160903.000,5055.9631,N,00123.7539,W,2,8,0.93,29.1,M,47.6,M,0000,0000*7D
H$GPRMC,160903.000,A,5055.9631,N,00123.7539,W,0.41,241.60,021215,,,D*75
t228589,228502
$GPGGA,160904.000,5055.9631,N,00123.7539,W,2,8,0.93,29.1,M,47.6,M,0000,0000*7A
G$GPRMC,160904.000,A,5055.9631,N,00123.7539,W,1.25,71.15,021215,,,D*42
t229576,229502
$GPGGA,160905.000,5055.9631,N,00123.7539,W,2,8,0.93,29.2,M,47.6,M,0000,0000*78
G$GPRMC,160905.000,A,5055.9631,N,00123.7539,W,1.25,69.01,021215,,,D*4F
t230578,230503
$GPGGA,160906.000,5055.9632,N,00123.7537,W,2,8,0.93,29.2,M,47.6,M,0000,0000*76
G$GPRMC,160906.000,A,5055.9632,N,00123.7537,W,1.53,66.30,021215,,,D*4D
t231577,231503
$GPGGA,160907.000,5055.9633,N,00123.7538,W,2,8,0.93,29.3,M,47.6,M,0000,0000*78
G$GPRMC,160907.000,A,5055.9633,N,00123.7538,W,1.59,63.89,021215,,,D*4F
t232582,232504
$GPGGA,160908.000,5055.9634,N,00123.7538,W,2,8,0.93,29.3,M,47.6,M,0000,0000*70
G$GPRMC,160908.000,A,5055.9634,N,00123.7538,W,1.54,62.03,021215,,,D*49
t233592,233505
$GPGGA,160909.000,5055.9634,N,00123.7539,W,2,8,0.93,29.3,M,47.6,M,0000,0000*70
G$GPRMC,160909.000,A,5055.9634,N,00123.7539,W,1.27,63.74,021215,,,D*4C
t234569,234506
$GPGGA,160910.000,5055.9635,N,00123.7538,W,2,8,0.93,29.4,M,47.6,M,0000,0000*7F
G$GPRMC,160910.000,A,5055.9635,N,00123.7538,W,1.72,67.23,021215,,,D*42
t235574,235506
$GPGGA,160911.000,5055.9635,N,00123.7535,W,2,8,0.93,29.5,M,47.6,M,0000,0000*72
G$GPRMC,160911.000,A,5055.9635,N,00123.7535,W,1.80,69.96,021215,,,D*43
t236571,236507
$GPGGA,160912.000,5055.9637,N,00123.7532,W,2,8,0.93,29.5,M,47.6,M,0000,0000*74
G$GPRMC,160912.000,A,5055.9637,N,00123.7532,W,1.18,64.94,021215,,,D*4B
t237584,237507
$GPGGA,160913.000,5055.9637,N,00123.7533,W,2,8,0.93,29.6,M,47.6,M,0000,0000*77
G$GPRMC,160913.000,A,5055.9637,N,00123.7533,W,0.53,64.94,021215,,,D*45
t238574,238508
$GPGGA,160914.000,5055.9636,N,00123.7534,W,2,8,0.93,29.7,M,47.6,M,0000,0000*77
G$GPRMC,160914.000,A,5055.9636,N,00123.7534,W,0.21,64.94,021215,,,D*41
t239579,239508
$GPGGA,160915.000,5055.9635,N,00123.7540,W,2,8,0.93,29.8,M,47.6,M,0000,0000*79
G$GPRMC,160915.000,A,5055.9635,N,00123.7540,W,0.24,64.94,021215,,,D*45
t240577,240508
$GPGGA,160916.000,5055.9635,N,00123.7542,W,2,8,0.93,29.9,M,47.6,M,0000,0000*79
G$GPRMC,160916.000,A,5055.9635,N,00123.7542,W,0.29,64.94,021215,,,D*49
t241575,241510
$GPGGA,160917.000,5055.9634,N,00123.7545,W,2,8,0.93,30.1,M,47.6,M,0000,0000*7E
G$GPRMC,160917.000,A,5055.9634,N,00123.7545,W,0.27,64.94,021215,,,D*40
t242575,242510
$GPGGA,160918.000,5055.9634,N,00123.7548,W,2,8,0.93,30.2,M,47.6,M,0000,0000*7F
G$GPRMC,160918.000,A,5055.9634,N,00123.7548,W,0.10,64.94,021215,,,D*46
t243596,243511
$GPGGA,160919.000,5055.9634,N,00123.7545,W,2,8,0.93,30.4,M,47.6,M,0000,0000*75
G$GPRMC,160919.000,A,5055.9634,N,00123.7545,W,0.07,64.94,021215,,,D*4C
t244589,244511
$GPGGA,160920.000,5055.9633,N,00123.7547,W,2,8,0.93,30.5,M,47.6,M,0000,0000*7B
G$GPRMC,160920.000,A,5055.9633,N,00123.7547,W,0.11,64.94,021215,,,D*44
t245585,245512
$GPGGA,160921.000,5055.9633,N,00123.7545,W,2,8,0.93,30.7,M,47.6,M,0000,0000*7A
G$GPRMC,160921.000,A,5055.9633,N,00123.7545,W,0.17,64.94,021215,,,D*41
t246580,246512
$GPGGA,160922.000,5055.9633,N,00123.7545,W,2,8,0.93,30.9,M,47.6,M,0000,0000*77
G$GPRMC,160922.000,A,5055.9633,N,00123.7545,W,0.18,64.94,021215,,,D*4D
t247587,247513
$GPGGA,160923.000,5055.9632,N,00123.7549,W,2,8,0.93,31.0,M,47.6,M,0000,0000*73
G$GPRMC,160923.000,A,5055.9632,N,00123.7549,W,0.68,64.34,021215,,,D*4C
t248878,248513
$GPGGA,160924.000,5055.9632,N,00123.7550,W,2,8,0.93,31.3,M,47.6,M,0000,0000*7F
G$GPRMC,160924.000,A,5055.9632,N,00123.7550,W,2.36,64.44,021215,,,D*4D
t249924,249513
$GPGGA,160925.000,5055.9632,N,00123.7549,W,2,8,0.93,31.5,M,47.6,M,0000,0000*70
G$GPRMC,160925.000,A,5055.9632,N,00123.7549,W,4.04,65.28,021215,,,D*48
t250930,250515
$GPGGA,160926.000,5055.9634,N,00123.7542,W,2,8,0.99,31.7,M,47.6,M,0000,0000*76
G$GPRMC,160926.000,A,5055.9634,N,00123.7542,W,3.00,66.50,021215,,,D*49
t251952,251515
$GPGGA,160927.000,5055.9635,N,00123.7538,W,2,8,0.93,31.9,M,47.6,M,0000,0000*7F
G$GPRMC,160927.000,A,5055.9635,N,00123.7538,W,1.71,67.30,021215,,,D*47
t252923,252516
$GPGGA,160928.000,5055.9636,N,00123.7539,W,2,8,0.93,32.1,M,47.6,M,0000,0000*79
G$GPRMC,160928.000,A,5055.9636,N,00123.7539,W,0.91,55.92,021215,,,D*4C
t253923,253516
$GPGGA,160929.000,5055.9636,N,00123.7539,W,2,8,0.93,32.3,M,47.6,M,0000,0000*7A
G$GPRMC,160929.000,A,5055.9636,N,00123.7539,W,0.64,58.57,021215,,,D*43
t254931,254517
$GPGGA,160930.000,5055.9638,N,00123.7539,W,2,8,0.93,32.4,M,47.6,M,0000,0000*7B
G$GPRMC,160930.000,A,5055.9638,N,00123.7539,W,0.40,58.57,021215,,,D*43
t255874,255517
$GPGGA,160931.000,5055.9637,N,00123.7541,W,2,8,0.93,32.6,M,47.6,M,0000,0000*78
G$GPRMC,160931.000,A,5055.9637,N,00123.7541,W,0.04,58.57,021215,,,D*42
t256877,256518
$GPGGA,160932.000,5055.9636,N,00123.7544,W,2,8,0.93,32.7,M,47.6,M,0000,0000*7E
G$GPRMC,160932.000,A,5055.9636,N,00123.7544,W,0.28,58.57,021215,,,D*4B
t257913,257518
$GPGGA,160933.000,5055.9635,N,00123.7548,W,2,8,0.93,33.0,M,47.6,M,0000,0000*76
H$GPRMC,160933.000,A,5055.9635,N,00123.7548,W,0.61,239.74,021215,,,D*7C
t258893,258520
$GPGGA,160934.000,5055.9634,N,00123.7553,W,2,8,0.93,33.1,M,47.6,M,0000,0000*7B
H$GPRMC,160934.000,A,5055.9634,N,00123.7553,W,1.06,240.53,021215,,,D*7B
t259876,259520
$GPGGA,160935.000,5055.9633,N,00123.7558,W,2,8,0.93,33.3,M,47.6,M,0000,0000*74
H$GPRMC,160935.000,A,5055.9633,N,00123.7558,W,1.30,241.33,021215,,,D*74
t260893,260520
$GPGGA,160936.000,5055.9633,N,00123.7560,W,2,8,0.93,33.4,M,47.6,M,0000,0000*7B
H$GPRMC,160936.000,A,5055.9633,N,00123.7560,W,1.30,242.03,021215,,,D*7C
t261884,261521
$GPGGA,160937.000,5055.9633,N,00123.7562,W,2,8,0.93,33.7,M,47.6,M,0000,0000*7B
H$GPRMC,160937.000,A,5055.9633,N,00123.7562,W,1.27,243.05,021215,,,D*7E
t262879,262521
$GPGGA,160938.000,5055.9634,N,00123.7562,W,2,8,0.93,33.9,M,47.6,M,0000,0000*7D
H$GPRMC,160938.000,A,5055.9634,N,00123.7562,W,0.99,244.30,021215,,,D*73
t263910,263522
$GPGGA,160939.000,5055.9633,N,00123.7560,W,2,8,0.93,34.1,M,47.6,M,0000,0000*76
H$GPRMC,160939.000,A,5055.9633,N,00123.7560,W,0.69,244.64,021215,,,D*79
t264931,264522
$GPGGA,160940.000,5055.9633,N,00123.7561,W,2,8,0.93,34.3,M,47.6,M,0000,0000*7B
H$GPRMC,160940.000,A,5055.9633,N,00123.7561,W,0.53,244.64,021215,,,D*7F
t265882,265523
$GPGGA,160941.000,5055.9633,N,00123.7562,W,2,8,0.93,34.4,M,47.6,M,0000,0000*7E
H$GPRMC,160941.000,A,5055.9633,N,00123.7562,W,0.24,244.64,021215,,,D*7D
t266885,266523
$GPGGA,160942.000,5055.9634,N,00123.7562,W,2,8,0.93,34.5,M,47.6,M,0000,0000*7B
H$GPRMC,160942.000,A,5055.9634,N,00123.7562,W,0.19,244.64,021215,,,D*77
t267904,267525
$GPGGA,160943.000,5055.9635,N,00123.7559,W,2,8,0.93,34.7,M,47.6,M,0000,0000*71
H$GPRMC,160943.000,A,5055.9635,N,00123.7559,W,0.13,244.64,021215,,,D*75
t268950,268525
$GPGGA,160944.000,5055.9635,N,00123.7557,W,2,8,0.93,34.9,M,47.6,M,0000,0000*76
H$GPRMC,160944.000,A,5055.9635,N,00123.7557,W,0.17,244.64,021215,,,D*78
t269899,269526
$GPGGA,160945.000,5055.9636,N,00123.7558,W,2,8,0.93,35.0,M,47.6,M,0000,0000*73
H$GPRMC,160945.000,A,5055.9636,N,00123.7558,W,0.20,244.64,021215,,,D*71
t270945,270526
$GPGGA,160946.000,5055.9636,N,00123.7557,W,2,8,0.93,35.0,M,47.6,M,0000,0000*7F
H$GPRMC,160946.000,A,5055.9636,N,00123.7557,W,0.34,244.64,021215,,,D*78
t271934,271526
$GPGGA,160947.000,5055.9637,N,00123.7556,W,2,8,0.93,35.0,M,47.6,M,0000,0000*7E
H$GPRMC,160947.000,A,5055.9637,N,00123.7556,W,0.16,244.64,021215,,,D*79
t272904,272527
$GPGGA,160948.000,5055.9637,N,00123.7555,W,2,8,0.93,35.0,M,47.6,M,0000,0000*72
H$GPRMC,160948.000,A,5055.9637,N,00123.7555,W,0.09,244.64,021215,,,D*7B
t273931,273527
$GPGGA,160949.000,5055.9637,N,00123.7555,W,2,8,0.99,35.0,M,47.6,M,0000,0000*79
H$GPRMC,160949.000,A,5055.9637,N,00123.7555,W,0.06,244.64,021215,,,D*75
t274933,274528
$GPGGA,160950.000,5055.9637,N,00123.7555,W,2,8,0.93,35.0,M,47.6,M,0000,0000*7B
H$GPRMC,160950.000,A,5055.9637,N,00123.7555,W,0.16,244.64,021215,,,D*7C
t275947,275529
$GPGGA,160951.000,5055.9636,N,00123.7555,W,2,8,0.93,35.0,M,47.6,M,0000,0000*7B
H$GPRMC,160951.000,A,5055.9636,N,00123.7555,W,0.02,244.64,021215,,,D*79
t276934,276530
$GPGGA,160952.000,5055.9636,N,00123.7555,W,2,8,0.93,35.1,M,47.6,M,0000,0000*79
H$GPRMC,160952.000,A,5055.9636,N,00123.7555,W,0.10,244.64,021215,,,D*79
t277885,277530
$GPGGA,160953.000,5055.9636,N,00123.7555,W,2,8,0.93,35.1,M,47.6,M,0000,0000*78
H$GPRMC,160953.000,A,5055.9636,N,00123.7555,W,0.06,244.64,021215,,,D*7F
t278896,278531
$GPGGA,160954.000,5055.9636,N,00123.7555,W,2,8,0.99,35.1,M,47.6,M,0000,0000*75
H$GPRMC,160954.000,A,5055.9636,N,00123.7555,W,0.05,244.64,021215,,,D*7B
t279895,279531
$GPGGA,160955.000,5055.9636,N,00123.7555,W,2,8,0.99,35.1,M,47.6,M,0000,0000*74
H$GPRMC,160955.000,A,5055.9636,N,00123.7555,W,0.10,244.64,021215,,,D*7E
t280886,280531
$GPGGA,160956.000,5055.9636,N,00123.7555,W,2,8,0.99,35.1,M,47.6,M,0000,0000*77
H$GPRMC,160956.000,A,5055.9636,N,00123.7555,W,0.15,244.64,021215,,,D*78
t281908,281532
$GPGGA,160957.000,5055.9636,N,00123.7555,W,2,8,0.99,35.1,M,47.6,M,0000,0000*76
H$GPRMC,160957.000,A,5055.9636,N,00123.7555,W,0.10,244.64,021215,,,D*7C
t282888,282532
$GPGGA,160958.000,5055.9636,N,00123.7555,W,2,8,0.99,35.1,M,47.6,M,0000,0000*79
H$GPRMC,160958.000,A,5055.9636,N,00123.7555,W,0.04,244.64,021215,,,D*76
t283887,283534
$GPGGA,160959.000,5055.9636,N,00123.7555,W,2,8,0.99,35.1,M,47.6,M,0000,0000*78
H$GPRMC,160959.000,A,5055.9636,N,00123.7555,W,0.04,244.64,021215,,,D*77
t284893,284534
$GPGGA,161000.000,5055.9636,N,00123.7555,W,2,8,0.99,35.1,M,47.6,M,0000,0000*7C
H$GPRMC,161000.000,A,5055.9636,N,00123.7555,W,0.03,244.64,021215,,,D*74
t285939,285535
$GPGGA,161001.000,5055.9636,N,00123.7555,W,2,8,0.99,35.1,M,47.6,M,0000,0000*7D
H$GPRMC,161001.000,A,5055.9636,N,00123.7555,W,0.02,244.64,021215,,,D*74
t286897,286535
$GPGGA,161002.000,5055.9636,N,00123.7555,W,2,8,0.99,35.1,M,47.6,M,0000,0000*7E
H$GPRMC,161002.000,A,5055.9636,N,00123.7555,W,0.02,244.64,021215,,,D*77
t287911,287536
$GPGGA,161003.000,5055.9636,N,00123.7555,W,2,8,0.99,35.1,M,47.6,M,0000,0000*7F
H$GPRMC,161003.000,A,5055.9636,N,00123.7555,W,0.01,244.64,021215,,,D*75
t288907,288536
$GPGGA,161004.000,5055.9636,N,00123.7555,W,2,8,0.99,35.1,M,47.6,M,0000,0000*78
H$GPRMC,161004.000,A,5055.9636,N,00123.7555,W,0.00,244.64,021215,,,D*73
t289929,289537
$GPGGA,161005.000,5055.9636,N,00123.7557,W,2,8,0.99,35.1,M,47.6,M,0000,0000*7B
H$GPRMC,161005.000,A,5055.9636,N,00123.7557,W,0.02,244.64,021215,,,D*72
t290876,290537
$GPGGA,161006.000,5055.9636,N,00123.7561,W,2,8,0.99,35.2,M,47.6,M,0000,0000*7E
H$GPRMC,161006.000,A,5055.9636,N,00123.7561,W,0.04,244.64,021215,,,D*72
t291946,291537
$GPGGA,161007.000,5055.9636,N,00123.7564,W,2,8,0.99,35.2,M,47.6,M,0000,0000*7A
H$GPRMC,161007.000,A,5055.9636,N,00123.7564,W,0.05,244.64,021215,,,D*77
t292955,292539
$GPGGA,161008.000,5055.9636,N,00123.7566,W,2,8,0.99,35.2,M,47.6,M,0000,0000*77
H$GPRMC,161008.000,A,5055.9636,N,00123.7566,W,0.05,244.64,021215,,,D*7A
t293911,293539
$GPGGA,161009.000,5055.9635,N,00123.7570,W,2,8,0.99,35.2,M,47.6,M,0000,0000*72
H$GPRMC,161009.000,A,5055.9635,N,00123.7570,W,0.06,244.64,021215,,,D*7C
t294956,294540
$GPGGA,161010.000,5055.9634,N,00123.7572,W,2,8,0.99,35.3,M,47.6,M,0000,0000*78
H$GPRMC,161010.000,A,5055.9634,N,00123.7572,W,0.06,244.64,021215,,,D*77
t295962,295540
$GPGGA,161011.000,5055.9634,N,00123.7575,W,2,8,0.98,35.3,M,47.6,M,0000,0000*7F
H$GPRMC,161011.000,A,5055.9634,N,00123.7575,W,0.06,244.64,021215,,,D*71
t296902,296541
$GPGGA,161012.000,5055.9634,N,00123.7577,W,2,8,0.99,35.4,M,47.6,M,0000,0000*78
H$GPRMC,161012.000,A,5055.9634,N,00123.7577,W,0.05,244.64,021215,,,D*73
t297963,297541
$GPGGA,161013.000,5055.9635,N,00123.7578,W,2,8,0.99,35.4,M,47.6,M,0000,0000*77
H$GPRMC,161013.000,A,5055.9635,N,00123.7578,W,0.05,244.64,021215,,,D*7C
t298950,298542
$GPGGA,161014.000,5055.9634,N,00123.7580,W,2,8,0.99,35.4,M,47.6,M,0000,0000*76
H$GPRMC,161014.000,A,5055.9634,N,00123.7580,W,0.04,244.64,021215,,,D*7C
t299928,299542
$GPGGA,161015.000,5055.9635,N,00123.7580,W,2,8,0.99,35.4,M,47.6,M,0000,0000*76
H$GPRMC,161015.000,A,5055.9635,N,00123.7580,W,0.03,244.64,021215,,,D*7B
t300905,300544
$GPGGA,161016.000,5055.9634,N,00123.7581,W,2,8,0.99,35.4,M,47.6,M,0000,0000*75
H$GPRMC,161016.000,A,5055.9634,N,00123.7581,W,0.03,244.64,021215,,,D*78
t301911,301544
$GPGGA,161017.000,5055.9635,N,00123.7582,W,2,8,0.99,35.4,M,47.6,M,0000,0000*76
H$GPRMC,161017.000,A,5055.9635,N,00123.7582,W,0.02,244.64,021215,,,D*7A
t302915,302544
$GPGGA,161018.000,5055.9635,N,00123.7582,W,2,8,0.99,35.4,M,47.6,M,0000,0000*79
H$GPRMC,161018.000,A,5055.9635,N,00123.7582,W,0.08,244.64,021215,,,D*7F
t303910,303545
$GPGGA,161019.000,5055.9635,N,00123.7582,W,2,8,0.99,35.4,M,47.6,M,0000,0000*78
H$GPRMC,161019.000,A,5055.9635,N,00123.7582,W,0.12,244.64,021215,,,D*75
t304920,304545
$GPGGA,161020.000,5055.9635,N,00123.7582,W,2,8,0.99,35.4,M,47.6,M,0000,0000*72
H$GPRMC,161020.000,A,5055.9635,N,00123.7582,W,0.13,244.64,021215,,,D*7E
t305936,305546
$GPGGA,161021.000,5055.9635,N,00123.7582,W,2,8,0.98,35.4,M,47.6,M,0000,0000*72
H$GPRMC,161021.000,A,5055.9635,N,00123.7582,W,0.11,244.64,021215,,,D*7D
t306962,306546
$GPGGA,161022.000,5055.9635,N,00123.7582,W,2,8,0.98,35.4,M,47.6,M,0000,0000*71
H$GPRMC,161022.000,A,5055.9635,N,00123.7582,W,0.03,244.64,021215,,,D*7D
t307916,307547
$GPGGA,161023.000,5055.9635,N,00123.7582,W,2,8,0.98,35.4,M,47.6,M,0000,0000*70
H$GPRMC,161023.000,A,5055.9635,N,00123.7582,W,0.04,244.64,021215,,,D*7B
t308919,308548
$GPGGA,161024.000,5055.9634,N,00123.7584,W,2,8,0.99,35.5,M,47.6,M,0000,0000*70
H$GPRMC,161024.000,A,5055.9634,N,00123.7584,W,0.04,244.64,021215,,,D*7B
t309913,309549
$GPGGA,161025.000,5055.9634,N,00123.7586,W,2,8,0.98,35.6,M,47.6,M,0000,0000*71
H$GPRMC,161025.000,A,5055.9634,N,00123.7586,W,0.05,244.64,021215,,,D*79
t310967,310549
$GPGGA,161026.000,5055.9633,N,00123.7588,W,2,8,0.98,35.7,M,47.6,M,0000,0000*7A
H$GPRMC,161026.000,A,5055.9633,N,00123.7588,W,0.06,244.64,021215,,,D*70
t311976,311549
$GPGGA,161027.000,5055.9633,N,00123.7588,W,2,8,0.98,35.8,M,47.6,M,0000,0000*74
H$GPRMC,161027.000,A,5055.9633,N,00123.7588,W,0.06,244.64,021215,,,D*71
t312974,312550
$GPGGA,161028.000,5055.9633,N,00123.7587,W,2,8,0.98,36.0,M,47.6,M,0000,0000*7F
H$GPRMC,161028.000,A,5055.9633,N,00123.7587,W,0.05,244.64,021215,,,D*72
t313957,313550
$GPGGA,161029.000,5055.9633,N,00123.7586,W,2,8,0.99,36.2,M,47.6,M,0000,0000*7C
H$GPRMC,161029.000,A,5055.9633,N,00123.7586,W,0.05,244.64,021215,,,D*72
t314963,314551
$GPGGA,161030.000,5055.9633,N,00123.7586,W,2,8,0.98,36.2,M,47.6,M,0000,0000*75
H$GPRMC,161030.000,A,5055.9633,N,00123.7586,W,0.04,244.64,021215,,,D*7B
t315976,315551
$GPGGA,161031.000,5055.9633,N,00123.7586,W,2,8,0.99,36.2,M,47.6,M,0000,0000*75
H$GPRMC,161031.000,A,5055.9633,N,00123.7586,W,0.02,244.64,021215,,,D*7C
t316961,316553
$GPGGA,161032.000,5055.9633,N,00123.7586,W,2,8,0.98,36.3,M,47.6,M,0000,0000*76
H$GPRMC,161032.000,A,5055.9633,N,00123.7586,W,0.03,244.64,021215,,,D*7E
t317930,317553
$GPGGA,161033.000,5055.9633,N,00123.7586,W,2,8,0.98,36.3,M,47.6,M,0000,0000*77
H$GPRMC,161033.000,A,5055.9633,N,00123.7586,W,0.01,244.64,021215,,,D*7D
t318961,318554
$GPGGA,161034.000,5055.9633,N,00123.7586,W,2,8,0.98,36.3,M,47.6,M,0000,0000*70
H$GPRMC,161034.000,A,5055.9633,N,00123.7586,W,0.01,244.64,021215,,,D*7A
t319974,319554
$GPGGA,161035.000,5055.9633,N,00123.7587,W,2,8,0.98,36.3,M,47.6,M,0000,0000*70
H$GPRMC,161035.000,A,5055.9633,N,00123.7587,W,0.01,244.64,021215,,,D*7A
t320942,320555
$GPGGA,161036.000,5055.9633,N,00123.7588,W,2,8,0.98,36.3,M,47.6,M,0000,0000*7C
H$GPRMC,161036.000,A,5055.9633,N,00123.7588,W,0.02,244.64,021215,,,D*75
t321932,321555
$GPGGA,161037.000,5055.9634,N,00123.7589,W,2,8,0.98,36.4,M,47.6,M,0000,0000*7C
H$GPRMC,161037.000,A,5055.9634,N,00123.7589,W,0.04,244.64,021215,,,D*74
t322941,322555
$GPGGA,161038.000,5055.9634,N,00123.7590,W,2,8,0.98,36.5,M,47.6,M,0000,0000*7A
H$GPRMC,161038.000,A,5055.9634,N,00123.7590,W,0.04,244.64,021215,,,D*73
t323952,323556
$GPGGA,161039.000,5055.9634,N,00123.7590,W,2,8,0.98,36.5,M,47.6,M,0000,0000*7B
H$GPRMC,161039.000,A,5055.9634,N,00123.7590,W,0.03,244.64,021215,,,D*75
t324922,324557
$GPGGA,161040.000,5055.9634,N,00123.7590,W,2,8,0.98,36.5,M,47.6,M,0000,0000*75
H$GPRMC,161040.000,A,5055.9634,N,00123.7590,W,0.05,244.64,021215,,,D*7D
t325929,325558
$GPGGA,161041.000,5055.9634,N,00123.7590,W,2,8,0.98,36.5,M,47.6,M,0000,0000*74
H$GPRMC,161041.000,A,5055.9634,N,00123.7590,W,0.05,244.64,021215,,,D*7C
t326933,326558
$GPGGA,161042.000,5055.9634,N,00123.7592,W,2,8,0.98,36.5,M,47.6,M,0000,0000*75
H$GPRMC,161042.000,A,5055.9634,N,00123.7592,W,0.05,244.64,021215,,,D*7D
t327988,327559
$GPGGA,161043.000,5055.9634,N,00123.7594,W,2,8,0.98,36.6,M,47.6,M,0000,0000*71
H$GPRMC,161043.000,A,5055.9634,N,00123.7594,W,0.04,244.64,021215,,,D*7B
t328980,328559
$GPGGA,161044.000,5055.9634,N,00123.7595,W,2,8,0.98,36.7,M,47.6,M,0000,0000*76
H$GPRMC,161044.000,A,5055.9634,N,00123.7595,W,0.03,244.64,021215,,,D*7A
t329934,329560
$GPGGA,161045.000,5055.9634,N,00123.7596,W,2,8,0.98,36.9,M,47.6,M,0000,0000*7A
H$GPRMC,161045.000,A,5055.9634,N,00123.7596,W,0.03,244.64,021215,,,D*78
t330939,330560
$GPGGA,161046.000,5055.9634,N,00123.7598,W,2,8,0.98,37.0,M,47.6,M,0000,0000*7F
H$GPRMC,161046.000,A,5055.9634,N,00123.7598,W,0.02,244.64,021215,,,D*74
t331928,331560
$GPGGA,161047.000,5055.9634,N,00123.7599,W,2,8,0.98,37.2,M,47.6,M,0000,0000*7D
H$GPRMC,161047.000,A,5055.9634,N,00123.7599,W,0.02,244.64,021215,,,D*74
t332991,332561
$GPGGA,161048.000,5055.9635,N,00123.7600,W,2,8,0.98,37.3,M,47.6,M,0000,0000*71
H$GPRMC,161048.000,A,5055.9635,N,00123.7600,W,0.02,244.64,021215,,,D*79
t333927,333562
$GPGGA,161049.000,5055.9635,N,00123.7601,W,2,8,0.98,37.3,M,47.6,M,0000,0000*71
H$GPRMC,161049.000,A,5055.9635,N,00123.7601,W,0.01,244.64,021215,,,D*7A
t334959,334563
$GPGGA,161050.000,5055.9635,N,00123.7602,W,2,8,0.98,37.3,M,47.6,M,0000,0000*7A
H$GPRMC,161050.000,A,5055.9635,N,00123.7602,W,0.01,244.64,021215,,,D*71
t335989,335563
$GPGGA,161051.000,5055.9635,N,00123.7602,W,2,8,0.98,37.3,M,47.6,M,0000,0000*7B
H$GPRMC,161051.000,A,5055.9635,N,00123.7602,W,0.02,244.64,021215,,,D*73
t336997,336564
$GPGGA,161052.000,5055.9635,N,00123.7602,W,2,8,0.98,37.3,M,47.6,M,0000,0000*78
H$GPRMC,161052.000,A,5055.9635,N,00123.7602,W,0.02,244.64,021215,,,D*70
t337985,337564
$GPGGA,161053.000,5055.9635,N,00123.7602,W,2,8,0.98,37.4,M,47.6,M,0000,0000*7E
H$GPRMC,161053.000,A,5055.9635,N,00123.7602,W,0.02,244.64,021215,,,D*71
t338924,338565
$GPGGA,161054.000,5055.9635,N,00123.7602,W,2,8,0.98,37.4,M,47.6,M,0000,0000*79
H$GPRMC,161054.000,A,5055.9635,N,00123.7602,W,0.06,244.64,021215,,,D*72
t339974,339565
$GPGGA,161055.000,5055.9635,N,00123.7602,W,2,8,0.98,37.4,M,47.6,M,0000,0000*78
H$GPRMC,161055.000,A,5055.9635,N,00123.7602,W,0.07,244.64,021215,,,D*72
t340913,340566
$GPGGA,161056.000,5055.9635,N,00123.7601,W,2,8,0.98,37.4,M,47.6,M,0000,0000*78
H$GPRMC,161056.000,A,5055.9635,N,00123.7601,W,0.04,244.64,021215,,,D*71
t341938,341567
$GPGGA,161057.000,5055.9635,N,00123.7601,W,2,8,0.98,37.3,M,47.6,M,0000,0000*7E
H$GPRMC,161057.000,A,5055.9635,N,00123.7601,W,0.03,244.64,021215,,,D*77
t342933,342567
$GPGGA,161058.000,5055.9634,N,00123.7602,W,2,8,0.98,37.4,M,47.6,M,0000,0000*74
H$GPRMC,161058.000,A,5055.9634,N,00123.7602,W,0.01,244.64,021215,,,D*78
t343926,343568
$GPGGA,161059.000,5055.9634,N,00123.7601,W,2,8,0.98,37.3,M,47.6,M,0000,0000*71
H$GPRMC,161059.000,A,5055.9634,N,00123.7601,W,0.01,244.64,021215,,,D*7A
t344942,344568
$GPGGA,161100.000,5055.9634,N,00123.7603,W,2,8,0.98,37.5,M,47.6,M,0000,0000*78
H$GPRMC,161100.000,A,5055.9634,N,00123.7603,W,0.01,244.64,021215,,,D*75
t345943,345569
$GPGGA,161101.000,5055.9633,N,00123.7605,W,2,8,0.98,37.5,M,47.6,M,0000,0000*78
H$GPRMC,161101.000,A,5055.9633,N,00123.7605,W,0.01,244.64,021215,,,D*75
t346937,346569
$GPGGA,161102.000,5055.9632,N,00123.7608,W,2,8,0.98,37.6,M,47.6,M,0000,0000*74
H$GPRMC,161102.000,A,5055.9632,N,00123.7608,W,0.02,244.64,021215,,,D*79
t347949,347570
$GPGGA,161103.000,5055.9631,N,00123.7609,W,2,8,0.98,37.7,M,47.6,M,0000,0000*76
H$GPRMC,161103.000,A,5055.9631,N,00123.7609,W,0.02,244.64,021215,,,D*7A
t349004,348570
$GPGGA,161104.000,5055.9631,N,00123.7610,W,2,8,0.98,37.8,M,47.6,M,0000,0000*76
H$GPRMC,161104.000,A,5055.9631,N,00123.7610,W,0.04,244.64,021215,,,D*73
t349992,349572
$GPGGA,161105.000,5055.9631,N,00123.7610,W,2,8,0.98,37.8,M,47.6,M,0000,0000*77
H$GPRMC,161105.000,A,5055.9631,N,00123.7610,W,0.05,244.64,021215,,,D*73
t350936,350572
$GPGGA,161106.000,5055.9631,N,00123.7610,W,2,8,0.98,37.8,M,47.6,M,0000,0000*74
H$GPRMC,161106.000,A,5055.9631,N,00123.7610,W,0.03,244.64,021215,,,D*76
t351912,351572
$GPGGA,161107.000,5055.9631,N,00123.7611,W,2,8,0.98,37.8,M,47.6,M,0000,0000*74
H$GPRMC,161107.000,A,5055.9631,N,00123.7611,W,0.01,244.64,021215,,,D*74
t352952,352573
$GPGGA,161108.000,5055.9631,N,00123.7610,W,2,8,0.98,37.9,M,47.6,M,0000,0000*7B
H$GPRMC,161108.000,A,5055.9631,N,00123.7610,W,0.01,244.64,021215,,,D*7A
t354012,353573
$GPGGA,161109.000,5055.9631,N,00123.7610,W,2,8,0.98,37.9,M,47.6,M,0000,0000*7A
H$GPRMC,161109.000,A,5055.9631,N,00123.7610,W,0.02,244.64,021215,,,D*78
t354931,354574
$GPGGA,161110.000,5055.9631,N,00123.7610,W,2,8,0.98,37.9,M,47.6,M,0000,0000*72
H$GPRMC,161110.000,A,5055.9631,N,00123.7610,W,0.04,244.64,021215,,,D*76
t356009,355574
$GPGGA,161111.000,5055.9631,N,00123.7610,W,2,8,0.98,37.9,M,47.6,M,0000,0000*73
H$GPRMC,161111.000,A,5055.9631,N,00123.7610,W,0.05,244.64,021215,,,D*76
t357010,356575
$GPGGA,161112.000,5055.9631,N,00123.7610,W,2,8,0.98,37.9,M,47.6,M,0000,0000*70
H$GPRMC,161112.000,A,5055.9631,N,00123.7610,W,0.03,244.64,021215,,,D*73
t357967,357576
$GPGGA,161113.000,5055.9631,N,00123.7610,W,2,8,0.98,37.9,M,47.6,M,0000,0000*71
H$GPRMC,161113.000,A,5055.9631,N,00123.7610,W,0.05,244.64,021215,,,D*74
t358989,358577
$GPGGA,161114.000,5055.9631,N,00123.7610,W,2,8,0.98,37.9,M,47.6,M,0000,0000*76
H$GPRMC,161114.000,A,5055.9631,N,00123.7610,W,0.02,244.64,021215,,,D*74
t359970,359577
$GPGGA,161115.000,5055.9631,N,00123.7610,W,2,8,0.98,37.9,M,47.6,M,0000,0000*77
H$GPRMC,161115.000,A,5055.9631,N,00123.7610,W,0.01,244.64,021215,,,D*76
t361009,360578
$GPGGA,161116.000,5055.9631,N,00123.7610,W,2,8,0.98,37.8,M,47.6,M,0000,0000*75
H$GPRMC,161116.000,A,5055.9631,N,00123.7610,W,0.01,244.64,021215,,,D*75
t361949,361578
$GPGGA,161117.000,5055.9631,N,00123.7610,W,2,8,0.98,37.8,M,47.6,M,0000,0000*74
H$GPRMC,161117.000,A,5055.9631,N,00123.7610,W,0.03,244.64,021215,,,D*76
t362962,362578
$GPGGA,161118.000,5055.9631,N,00123.7610,W,2,8,0.98,37.9,M,47.6,M,0000,0000*7A
H$GPRMC,161118.000,A,5055.9631,N,00123.7610,W,0.03,244.64,021215,,,D*79
t363959,363579
$GPGGA,161119.000,5055.9631,N,00123.7610,W,2,8,0.98,37.9,M,47.6,M,0000,0000*7B
H$GPRMC,161119.000,A,5055.9631,N,00123.7610,W,0.01,244.64,021215,,,D*7A
t364938,364579
$GPGGA,161120.000,5055.9631,N,00123.7610,W,2,8,0.98,37.9,M,47.6,M,0000,0000*71
H$GPRMC,161120.000,A,5055.9631,N,00123.7610,W,0.01,244.64,021215,,,D*70
t365959,365581
$GPGGA,161121.000,5055.9631,N,00123.7610,W,2,8,0.98,37.9,M,47.6,M,0000,0000*70
H$GPRMC,161121.000,A,5055.9631,N,00123.7610,W,0.02,244.64,021215,,,D*72
t366919,366581
$GPGGA,161122.000,5055.9631,N,00123.7610,W,2,8,0.98,37.8,M,47.6,M,0000,0000*72
H$GPRMC,161122.000,A,5055.9631,N,00123.7610,W,0.03,244.64,021215,,,D*70
t367945,367582
$GPGGA,161123.000,5055.9631,N,00123.7611,W,2,8,0.98,37.8,M,47.6,M,0000,0000*72
H$GPRMC,161123.000,A,5055.9631,N,00123.7611,W,0.03,244.64,021215,,,D*70
t368944,368582
$GPGGA,161124.000,5055.9631,N,00123.7611,W,2,8,0.98,37.8,M,47.6,M,0000,0000*75
H$GPRMC,161124.000,A,5055.9631,N,00123.7611,W,0.02,244.64,021215,,,D*76
t369995,369583
$GPGGA,161125.000,5055.9631,N,00123.7611,W,2,8,0.98,37.8,M,47.6,M,0000,0000*74
H$GPRMC,161125.000,A,5055.9631,N,00123.7611,W,0.03,244.64,021215,,,D*76
t371007,370583
$GPGGA,161126.000,5055.9631,N,00123.7611,W,2,8,0.98,37.8,M,47.6,M,0000,0000*77
H$GPRMC,161126.000,A,5055.9631,N,00123.7611,W,0.04,244.64,021215,,,D*72
t371959,371584
$GPGGA,161127.000,5055.9631,N,00123.7611,W,2,8,0.98,37.8,M,47.6,M,0000,0000*76
H$GPRMC,161127.000,A,5055.9631,N,00123.7611,W,0.05,244.64,021215,,,D*72
t372948,372584
$GPGGA,161128.000,5055.9631,N,00123.7611,W,2,8,0.98,37.8,M,47.6,M,0000,0000*79
H$GPRMC,161128.000,A,5055.9631,N,00123.7611,W,0.06,244.64,021215,,,D*7E
t373964,373585
$GPGGA,161129.000,5055.9631,N,00123.7611,W,2,8,0.98,37.8,M,47.6,M,0000,0000*78
H$GPRMC,161129.000,A,5055.9631,N,00123.7611,W,0.05,244.64,021215,,,D*7C
t375001,374586
$GPGGA,161130.000,5055.9631,N,00123.7611,W,2,8,0.98,37.8,M,47.6,M,0000,0000*70
