$GPRMC,194923,V,5055.9807,N,00123.7639,W,,,080216,002.9,W*6B
$GPGGA,194923,5055.9807,N,00123.7639,W,0,00,,,M,,M,,*43
t962,0
$GPRMC,194924,V,5055.9807,N,00123.7639,W,,,080216,002.9,W*6C
$GPGGA,194924,5055.9807,N,00123.7639,W,0,00,,,M,,M,,*44
t1103,0
$GPRMC,194925,V,5055.9807,N,00123.7639,W,,,080216,002.9,W*6D
$GPGGA,194925,5055.9807,N,00123.7639,W,0,00,,,M,,M,,*45
t2089,0
$GPRMC,194926,V,5055.9807,N,00123.7639,W,,,080216,002.9,W*6E
$GPGGA,194926,5055.9807,N,00123.7639,W,0,00,,,M,,M,,*46
t3089,0
$GPRMC,194927,V,5055.9807,N,00123.7639,W,,,080216,002.9,W*6F
$GPGGA,194927,5055.9807,N,00123.7639,W,0,00,,,M,,M,,*47
t4094,0
$GPRMC,194928,V,5055.9807,N,00123.7639,W,,,080216,002.9,W*60
$GPGGA,194928,5055.9807,N,00123.7639,W,0,00,,,M,,M,,*48
t5096,0
$GPRMC,194929,V,5055.9807,N,00123.7639,W,,,080216,002.9,W*61
$GPGGA,194929,5055.9807,N,00123.7639,W,0,00,,,M,,M,,*49
t6085,0
$GPRMC,194930,V,5055.9807,N,00123.7639,W,,,080216,002.9,W*69
$GPGGA,194930,5055.9807,N,00123.7639,W,0,00,,,M,,M,,*41
t7087,0
$GPRMC,194931,V,5055.9807,N,00123.7639,W,,,080216,002.9,W*68
$GPGGA,194931,5055.9807,N,00123.7639,W,0,00,,,M,,M,,*40
t8093,0
$GPRMC,194932,V,5055.9807,N,00123.7639,W,,,080216,002.9,W*6B
$GPGGA,194932,5055.9807,N,00123.7639,W,0,00,,,M,,M,,*43
t9084,0
$GPRMC,194933,V,5055.9807,N,00123.7639,W,,,080216,002.9,W*6A
$GPGGA,194933,5055.9807,N,00123.7639,W,0,00,,,M,,M,,*42
t10094,0
$GPRMC,194934,V,5055.9807,N,00123.7639,W,,,080216,002.9,W*6D
$GPGGA,194934,5055.9807,N,00123.7639,W,0,00,,,M,,M,,*45
t11084,0
$GPRMC,194935,V,5055.9807,N,00123.7639,W,,,080216,002.9,W*6C
$GPGGA,194935,5055.9807,N,00123.7639,W,0,00,,,M,,M,,*44
t12091,0
$GPRMC,194936,V,5055.9807,N,00123.7639,W,,,080216,002.9,W*6F
$GPGGA,194936,5055.9807,N,00123.7639,W,0,00,,,M,,M,,*47
t13084,0
$GPRMC,194937,V,5055.9807,N,00123.7639,W,,,080216,002.9,W*6E
$GPGGA,194937,5055.9807,N,00123.7639,W,0,00,,,M,,M,,*46
t14084,0
$GPRMC,194938,V,5055.9807,N,00123.7639,W,,,080216,002.9,W*61
$GPGGA,194938,5055.9807,N,00123.7639,W,0,00,,,M,,M,,*49
t15090,0
$GPRMC,194939,V,5055.9807,N,00123.7639,W,,,080216,002.9,W*60
$GPGGA,194939,5055.9807,N,00123.7639,W,0,00,,,M,,M,,*48
t16089,0
$GPRMC,194940,V,5055.9807,N,00123.7639,W,,,080216,002.9,W*6E
$GPGGA,194940,5055.9807,N,00123.7639,W,0,00,,,M,,M,,*46
t17090,0
$GPRMC,194941,V,5055.9807,N,00123.7639,W,,,080216,002.9,W*6F
$GPGGA,194941,5055.9807,N,00123.7639,W,0,00,,,M,,M,,*47
t18089,0
$GPRMC,194942,V,5055.9807,N,00123.7639,W,,,080216,002.9,W*6C
$GPGGA,194942,5055.9807,N,00123.7639,W,0,00,,,M,,M,,*44
t19089,0
$GPRMC,194943,V,5055.9807,N,00123.7639,W,,,080216,002.9,W*6D
$GPGGA,194943,5055.9807,N,00123.7639,W,0,00,,,M,,M,,*45
t20097,0
$GPRMC,194944,V,5055.9807,N,00123.7639,W,,,080216,002.9,W*6A
$GPGGA,194944,5055.9807,N,00123.7639,W,0,00,,,M,,M,,*42
t21088,0
$GPRMC,194945,V,5055.9807,N,00123.7639,W,,,080216,002.9,W*6B
$GPGGA,194945,5055.9807,N,00123.7639,W,0,00,,,M,,M,,*43
t22079,0
$GPRMC,194946,V,5055.9807,N,00123.7639,W,,,080216,002.9,W*68
$GPGGA,194946,5055.9807,N,00123.7639,W,0,00,,,M,,M,,*40
t23079,0
$GPRMC,194947,V,5055.9807,N,00123.7639,W,,,080216,002.9,W*69
$GPGGA,194947,5055.9807,N,00123.7639,W,0,00,,,M,,M,,*41
t24085,0
$GPRMC,194948,V,5055.9807,N,00123.7639,W,,,080216,002.9,W*66
$GPGGA,194948,5055.9807,N,00123.7639,W,0,00,,,M,,M,,*4E
t25094,0
$GPRMC,194949,V,5055.9807,N,00123.7639,W,,,080216,002.9,W*67
$GPGGA,194949,5055.9807,N,00123.7639,W,0,00,,,M,,M,,*4F
t26078,0
$GPRMC,194950,V,5055.9807,N,00123.7639,W,,,080216,002.9,W*6F
$GPGGA,194950,5055.9807,N,00123.7639,W,0,00,,,M,,M,,*47
t27083,0
$GPRMC,194951,V,5055.9807,N,00123.7639,W,,,080216,002.9,W*6E
$GPGGA,194951,5055.9807,N,00123.7639,W,0,00,,,M,,M,,*46
t28076,0
$GPRMC,194952,V,5055.9807,N,00123.7639,W,,,080216,002.9,W*6D
$GPGGA,194952,5055.9807,N,00123.7639,W,0,00,,,M,,M,,*45
t29076,0
$GPRMC,194953,V,5055.9807,N,00123.7639,W,,,080216,002.9,W*6C
$GPGGA,194953,5055.9807,N,00123.7639,W,0,00,,,M,,M,,*44
t30084,0
$GPRMC,194954,V,5055.9807,N,00123.7639,W,,,080216,002.9,W*6B
$GPGGA,194954,5055.9807,N,00123.7639,W,0,00,,,M,,M,,*43
t31203,0
$GPRMC,194955,V,5055.9807,N,00123.7639,W,,,080216,002.9,W*6A
$GPGGA,194955,5055.9807,N,00123.7639,W,0,00,,,M,,M,,*42
t32074,0
$GPRMC,194956,V,5055.9807,N,00123.7639,W,,,080216,002.9,W*69
$GPGGA,194956,5055.9807,N,00123.7639,W,0,00,,,M,,M,,*41
t33074,0
$GPRMC,194957,V,5055.9807,N,00123.7639,W,,,080216,002.9,W*68
$GPGGA,194957,5055.9807,N,00123.7639,W,0,00,,,M,,M,,*40
t34073,0
$GPRMC,194958,V,5055.9807,N,00123.7639,W,,,080216,002.9,W*67
$GPGGA,194958,5055.9807,N,00123.7639,W,0,00,,,M,,M,,*4F
t35082,0
$GPRMC,194959,V,5055.9807,N,00123.7639,W,,,080216,002.9,W*66
$GPGGA,194959,5055.9807,N,00123.7639,W,0,00,,,M,,M,,*4E
t36072,0
$GPRMC,195000,V,5055.9807,N,00123.7639,W,,,080216,002.9,W*62
$GPGGA,195000,5055.9807,N,00123.7639,W,0,00,,,M,,M,,*4A
t37072,0
$GPRMC,195001,V,5055.9807,N,00123.7639,W,,,080216,002.9,W*63
$GPGGA,195001,5055.9807,N,00123.7639,W,0,00,,,M,,M,,*4B
t38080,0
$GPRMC,195002,V,5055.9807,N,00123.7639,W,,,080216,002.9,W*60
$GPGGA,195002,5055.9807,N,00123.7639,W,0,00,,,M,,M,,*48
t39078,0
$GPRMC,195003,V,5055.9807,N,00123.7639,W,,,080216,002.9,W*61
$GPGGA,195003,5055.9807,N,00123.7639,W,0,00,,,M,,M,,*49
t40087,0
$GPRMC,195004,V,5055.9807,N,00123.7639,W,,,080216,002.9,W*66
$GPGGA,195004,5055.9807,N,00123.7639,W,0,00,,,M,,M,,*4E
t41078,0
$GPRMC,195005,V,5055.9807,N,00123.7639,W,,,080216,002.9,W*67
$GPGGA,195005,5055.9807,N,00123.7639,W,0,00,,,M,,M,,*4F
t42078,0
$GPRMC,195006,V,5055.9807,N,00123.7639,W,,,080216,002.9,W*64
$GPGGA,195006,5055.9807,N,00123.7639,W,0,00,,,M,,M,,*4C
t43069,0
$GPRMC,195007,V,5055.9807,N,00123.7639,W,,,080216,002.9,W*65
$GPGGA,195007,5055.9807,N,00123.7639,W,0,00,,,M,,M,,*4D
t44067,0
$GPRMC,195008,V,5055.9807,N,00123.7639,W,,,080216,002.9,W*6A
$GPGGA,195008,5055.9807,N,00123.7639,W,0,00,,,M,,M,,*42
t45077,0
$GPRMC,195009,V,5055.9807,N,00123.7639,W,,,080216,002.9,W*6B
$GPGGA,195009,5055.9807,N,00123.7639,W,0,00,,,M,,M,,*43
t46067,0
$GPRMC,195010,V,5055.9807,N,00123.7639,W,,,080216,002.9,W*63
$GPGGA,195010,5055.9807,N,00123.7639,W,0,00,,,M,,M,,*4B
t47067,0
$GPRMC,195011,V,5055.9807,N,00123.7639,W,,,080216,002.9,W*62
$GPGGA,195011,5055.9807,N,00123.7639,W,0,00,,,M,,M,,*4A
t48067,0
$GPRMC,195012,V,5055.9807,N,00123.7639,W,,,080216,002.9,W*61
$GPGGA,195012,5055.9807,N,00123.7639,W,0,00,,,M,,M,,*49
t49067,0
$GPRMC,195013,V,5055.9807,N,00123.7639,W,,,080216,002.9,W*60
$GPGGA,195013,5055.9807,N,00123.7639,W,0,00,,,M,,M,,*48
t50074,0
$GPRMC,195014,V,5055.9807,N,00123.7639,W,,,080216,002.9,W*67
$GPGGA,195014,5055.9807,N,00123.7639,W,0,00,,,M,,M,,*4F
t51065,0
$GPRMC,195015,V,5055.9807,N,00123.7639,W,,,080216,002.9,W*66
$GPGGA,195015,5055.9807,N,00123.7639,W,0,00,,,M,,M,,*4E
t52065,0
$GPRMC,195016,V,5055.9807,N,00123.7639,W,,,080216,002.9,W*65
$GPGGA,195016,5055.9807,N,00123.7639,W,0,00,,,M,,M,,*4D
t53065,0
$GPRMC,195017,V,5055.9807,N,00123.7639,W,,,080216,002.9,W*64
$GPGGA,195017,5055.9807,N,00123.7639,W,0,00,,,M,,M,,*4C
t54064,0
$GPRMC,195018,V,5055.9807,N,00123.7639,W,,,080216,002.9,W*6B
$GPGGA,195018,5055.9807,N,00123.7639,W,0,00,,,M,,M,,*43
t55071,0
$GPRMC,195019,V,5055.9807,N,00123.7639,W,,,080216,002.9,W*6A
$GPGGA,195019,5055.9807,N,00123.7639,W,0,00,,,M,,M,,*42
t56062,0
$GPRMC,195020,V,5055.9807,N,00123.7639,W,,,080216,002.9,W*60
$GPGGA,195020,5055.9807,N,00123.7639,W,0,00,,,M,,M,,*48
t57068,0
$GPRMC,195021,V,5055.9807,N,00123.7639,W,,,080216,002.9,W*61
$GPGGA,195021,5055.9807,N,00123.7639,W,0,00,,,M,,M,,*49
t58060,0
$GPRMC,195022,V,5055.9807,N,00123.7639,W,,,080216,002.9,W*62
$GPGGA,195022,5055.9807,N,00123.7639,W,0,00,,,M,,M,,*4A
t59069,0
$GPRMC,195023,V,5055.9807,N,00123.7639,W,,,080216,002.9,W*63
$GPGGA,195023,5055.9807,N,00123.7639,W,0,00,,,M,,M,,*4B
t60080,0
$GPRMC,195024,V,5055.9807,N,00123.7639,W,,,080216,002.9,W*64
$GPGGA,195024,5055.9807,N,00123.7639,W,0,00,,,M,,M,,*4C
t61075,0
$GPRMC,195025,V,5055.9807,N,00123.7639,W,,,080216,002.9,W*65
$GPGGA,195025,5055.9807,N,00123.7639,W,0,00,,,M,,M,,*4D
t62196,0
$GPRMC,195026,V,5055.9807,N,00123.7639,W,,,080216,002.9,W*66
$GPGGA,195026,5055.9807,N,00123.7639,W,0,00,,,M,,M,,*4E
t63067,0
$GPRMC,195027,V,5055.9807,N,00123.7639,W,,,080216,002.9,W*67
$GPGGA,195027,5055.9807,N,00123.7639,W,0,00,,,M,,M,,*4F
t64059,0
$GPRMC,195028,V,5055.9807,N,00123.7639,W,,,080216,002.9,W*68
$GPGGA,195028,5055.9807,N,00123.7639,W,0,00,,,M,,M,,*40
t65074,0
$GPRMC,195029,V,5055.9807,N,00123.7639,W,,,080216,002.9,W*69
$GPGGA,195029,5055.9807,N,00123.7639,W,0,00,,,M,,M,,*41
t66057,0
$GPRMC,195030,V,5055.9807,N,00123.7639,W,,,080216,002.9,W*61
$GPGGA,195030,5055.9807,N,00123.7639,W,0,00,,,M,,M,,*49
t67057,0
$GPRMC,195031,V,5055.9807,N,00123.7639,W,,,080216,002.9,W*60
$GPGGA,195031,5055.9807,N,00123.7639,W,0,00,,,M,,M,,*48
t68057,0
$GPRMC,195032,V,5055.9807,N,00123.7639,W,,,080216,002.9,W*63
$GPGGA,195032,5055.9807,N,00123.7639,W,0,00,,,M,,M,,*4B
t69063,0
$GPRMC,195033,V,5055.9807,N,00123.7639,W,,,080216,002.9,W*62
$GPGGA,195033,5055.9807,N,00123.7639,W,0,00,,,M,,M,,*4A
t70065,0
$GPRMC,195034,V,5055.9807,N,00123.7639,W,,,080216,002.9,W*65
$GPGGA,195034,5055.9807,N,00123.7639,W,0,00,,,M,,M,,*4D
t71055,0
$GPRMC,195035,V,5055.9807,N,00123.7639,W,,,080216,002.9,W*64
$GPGGA,195035,5055.9807,N,00123.7639,W,0,00,,,M,,M,,*4C
t72055,0
$GPRMC,195036,V,5055.9807,N,00123.7639,W,,,080216,002.9,W*67
$GPGGA,195036,5055.9807,N,00123.7639,W,0,00,,,M,,M,,*4F
t73061,0
$GPRMC,195037,V,5055.9807,N,00123.7639,W,,,080216,002.9,W*66
$GPGGA,195037,5055.9807,N,00123.7639,W,0,00,,,M,,M,,*4E
t74053,0
$GPRMC,195038,V,5055.9807,N,00123.7639,W,,,080216,002.9,W*69
$GPGGA,195038,5055.9807,N,00123.7639,W,0,00,,,M,,M,,*41
t75062,0
$GPRMC,195039,V,5055.9807,N,00123.7639,W,,,080216,002.9,W*68
$GPGGA,195039,5055.9807,N,00123.7639,W,0,00,,,M,,M,,*40
t76129,0
$GPRMC,195040,V,5055.9807,N,00123.7639,W,,,080216,002.9,W*66
$GPGGA,195040,5055.9807,N,00123.7639,W,0,00,,,M,,M,,*4E
t77058,0
$GPRMC,195041,V,5055.9807,N,00123.7639,W,,,080216,002.9,W*67
$GPGGA,195041,5055.9807,N,00123.7639,W,0,00,,,M,,M,,*4F
t78052,0
$GPRMC,195042,V,5055.9807,N,00123.7639,W,,,080216,002.9,W*64
$GPGGA,195042,5055.9807,N,00123.7639,W,0,00,,,M,,M,,*4C
t79051,0
$GPRMC,195043,V,5055.9807,N,00123.7639,W,,,080216,002.9,W*65
$GPGGA,195043,5055.9807,N,00123.7639,W,0,00,,,M,,M,,*4D
t80067,0
$GPRMC,195044,V,5055.9807,N,00123.7639,W,,,080216,002.9,W*62
$GPGGA,195044,5055.9807,N,00123.7639,W,0,00,,,M,,M,,*4A
t81065,0
$GPRMC,195045,V,5055.9807,N,00123.7639,W,,,080216,002.9,W*63
$GPGGA,195045,5055.9807,N,00123.7639,W,0,00,,,M,,M,,*4B
t82057,0
$GPRMC,195046,V,5055.9807,N,00123.7639,W,,,080216,002.9,W*60
$GPGGA,195046,5055.9807,N,00123.7639,W,0,00,,,M,,M,,*48
t83057,0
$GPRMC,195047,V,5055.9807,N,00123.7639,W,,,080216,002.9,W*61
$GPGGA,195047,5055.9807,N,00123.7639,W,0,00,,,M,,M,,*49
t84057,0
$GPRMC,195048,V,5055.9807,N,00123.7639,W,,,080216,002.9,W*6E
$GPGGA,195048,5055.9807,N,00123.7639,W,0,00,,,M,,M,,*46
t85062,0
$GPRMC,195049,V,5055.9807,N,00123.7639,W,,,080216,002.9,W*6F
$GPGGA,195049,5055.9807,N,00123.7639,W,0,00,,,M,,M,,*47
t86048,0
$GPRMC,195050,V,5055.9807,N,00123.7639,W,,,080216,002.9,W*67
$GPGGA,195050,5055.9807,N,00123.7639,W,0,00,,,M,,M,,*4F
t87048,0
$GPRMC,195051,V,5055.9807,N,00123.7639,W,,,080216,002.9,W*66
$GPGGA,195051,5055.9807,N,00123.7639,W,0,00,,,M,,M,,*4E
t88046,0
$GPRMC,195052,V,5055.9807,N,00123.7639,W,,,080216,002.9,W*65
$GPGGA,195052,5055.9807,N,00123.7639,W,0,00,,,M,,M,,*4D
t89052,0
$GPRMC,195053,V,5055.9807,N,00123.7639,W,,,080216,002.9,W*64
$GPGGA,195053,5055.9807,N,00123.7639,W,0,00,,,M,,M,,*4C
t90054,0
$GPRMC,195054,V,5055.9807,N,00123.7639,W,,,080216,002.9,W*63
$GPGGA,195054,5055.9807,N,00123.7639,W,0,00,,,M,,M,,*4B
t91053,0
$GPRMC,195055,V,5055.9807,N,00123.7639,W,,,080216,002.9,W*62
$GPGGA,195055,5055.9807,N,00123.7639,W,0,00,,,M,,M,,*4A
t92045,0
$GPRMC,195056,V,5055.9807,N,00123.7639,W,,,080216,002.9,W*61
$GPGGA,195056,5055.9807,N,00123.7639,W,0,00,,,M,,M,,*49
t93171,0
$GPRMC,195057,V,5055.9807,N,00123.7639,W,,,080216,002.9,W*60
$GPGGA,195057,5055.9807,N,00123.7639,W,0,00,,,M,,M,,*48
t94049,0
$GPRMC,195058,V,5055.9807,N,00123.7639,W,,,080216,002.9,W*6F
$GPGGA,195058,5055.9807,N,00123.7639,W,0,00,,,M,,M,,*47
t95051,0
$GPRMC,195059,V,5055.9807,N,00123.7639,W,,,080216,002.9,W*6E
$GPGGA,195059,5055.9807,N,00123.7639,W,0,00,,,M,,M,,*46
t96043,0
$GPRMC,195100,V,5055.9807,N,00123.7639,W,,,080216,002.9,W*63
$GPGGA,195100,5055.9807,N,00123.7639,W,0,00,,,M,,M,,*4B
t97048,0
$GPRMC,195101,V,5055.9807,N,00123.7639,W,,,080216,002.9,W*62
$GPGGA,195101,5055.9807,N,00123.7639,W,0,00,,,M,,M,,*4A
t98042,0
$GPRMC,195102,V,5055.9807,N,00123.7639,W,,,080216,002.9,W*61
$GPGGA,195102,5055.9807,N,00123.7639,W,0,00,,,M,,M,,*49
t99042,0
$GPRMC,195103,V,5055.9807,N,00123.7639,W,,,080216,002.9,W*60
$GPGGA,195103,5055.9807,N,00123.7639,W,0,00,,,M,,M,,*48
t100056,0
$GPRMC,195104,V,5055.9807,N,00123.7639,W,,,080216,002.9,W*67
$GPGGA,195104,5055.9807,N,00123.7639,W,0,00,,,M,,M,,*4F
t101049,0
$GPRMC,195105,V,5055.9807,N,00123.7639,W,,,080216,002.9,W*66
$GPGGA,195105,5055.9807,N,00123.7639,W,0,00,,,M,,M,,*4E
t102048,0
$GPRMC,195106,V,5055.9807,N,00123.7639,W,,,080216,002.9,W*65
$GPGGA,195106,5055.9807,N,00123.7639,W,0,00,,,M,,M,,*4D
t103046,0
$GPRMC,195107,V,5055.9807,N,00123.7639,W,,,080216,002.9,W*64
$GPGGA,195107,5055.9807,N,00123.7639,W,0,00,,,M,,M,,*4C
t104046,0
$GPRMC,195108,V,5055.9807,N,00123.7639,W,,,080216,002.9,W*6B
$GPGGA,195108,5055.9807,N,00123.7639,W,0,00,,,M,,M,,*43
t105055,0
$GPRMC,195109,V,5055.9807,N,00123.7639,W,,,080216,002.9,W*6A
$GPGGA,195109,5055.9807,N,00123.7639,W,0,00,,,M,,M,,*42
t106044,0
$GPRMC,195110,V,5055.9807,N,00123.7639,W,,,080216,002.9,W*62
$GPGGA,195110,5055.9807,N,00123.7639,W,0,00,,,M,,M,,*4A
t107044,0
$GPRMC,195111,V,5055.9807,N,00123.7639,W,,,080216,002.9,W*63
$GPGGA,195111,5055.9807,N,00123.7639,W,0,00,,,M,,M,,*4B
t108037,0
$GPRMC,195112,V,5055.9807,N,00123.7639,W,,,080216,002.9,W*60
$GPGGA,195112,5055.9807,N,00123.7639,W,0,00,,,M,,M,,*48
t109042,0
$GPRMC,195113,V,5055.9807,N,00123.7639,W,,,080216,002.9,W*61
$GPGGA,195113,5055.9807,N,00123.7639,W,0,00,,,M,,M,,*49
t110045,0
$GPRMC,195114,V,5055.9807,N,00123.7639,W,,,080216,002.9,W*66
$GPGGA,195114,5055.9807,N,00123.7639,W,0,00,,,M,,M,,*4E
t111036,0
$GPRMC,195115,V,5055.9807,N,00123.7639,W,,,080216,002.9,W*67
$GPGGA,195115,5055.9807,N,00123.7639,W,0,00,,,M,,M,,*4F
t112040,0
$GPRMC,195116,V,5055.9807,N,00123.7639,W,,,080216,002.9,W*64
$GPGGA,195116,5055.9807,N,00123.7639,W,0,00,,,M,,M,,*4C
t113035,0
$GPRMC,195117,V,5055.9807,N,00123.7639,W,,,080216,002.9,W*65
$GPGGA,195117,5055.9807,N,00123.7639,W,0,00,,,M,,M,,*4D
t114034,0
$GPRMC,195118,V,5055.9807,N,00123.7639,W,,,080216,002.9,W*6A
$GPGGA,195118,5055.9807,N,00123.7639,W,0,00,,,M,,M,,*42
t115047,0
$GPRMC,195119,V,5055.9807,N,00123.7639,W,,,080216,002.9,W*6B
$GPGGA,195119,5055.9807,N,00123.7639,W,0,00,,,M,,M,,*43
t116033,0
$GPRMC,195120,V,5055.9807,N,00123.7639,W,,,080216,002.9,W*61
$GPGGA,195120,5055.9807,N,00123.7639,W,0,00,,,M,,M,,*49
t117032,0
$GPRMC,195121,V,5055.9807,N,00123.7639,W,,,080216,002.9,W*60
$GPGGA,195121,5055.9807,N,00123.7639,W,0,00,,,M,,M,,*48
t118038,0
$GPRMC,195122,V,5055.9807,N,00123.7639,W,,,080216,002.9,W*63
$GPGGA,195122,5055.9807,N,00123.7639,W,0,00,,,M,,M,,*4B
t119031,0
$GPRMC,195123,V,5055.9807,N,00123.7639,W,,,080216,002.9,W*62
$GPGGA,195123,5055.9807,N,00123.7639,W,0,00,,,M,,M,,*4A
t120040,0
$GPRMC,195124,V,5055.9807,N,00123.7639,W,,,080216,002.9,W*65
$GPGGA,195124,5055.9807,N,00123.7639,W,0,00,,,M,,M,,*4D
t121038,0
$GPRMC,195125,V,5055.9807,N,00123.7639,W,,,080216,002.9,W*64
$GPGGA,195125,5055.9807,N,00123.7639,W,0,00,,,M,,M,,*4C
t122039,0
$GPRMC,195126,V,5055.9807,N,00123.7639,W,,,080216,002.9,W*67
$GPGGA,195126,5055.9807,N,00123.7639,W,0,00,,,M,,M,,*4F
t123036,0
$GPRMC,195127,V,5055.9807,N,00123.7639,W,,,080216,002.9,W*66
$GPGGA,195127,5055.9807,N,00123.7639,W,0,00,,,M,,M,,*4E
t124163,0
$GPRMC,195128,V,5055.9807,N,00123.7639,W,,,080216,002.9,W*69
$GPGGA,195128,5055.9807,N,00123.7639,W,0,00,,,M,,M,,*41
t125045,0
$GPRMC,195129,V,5055.9807,N,00123.7639,W,,,080216,002.9,W*68
$GPGGA,195129,5055.9807,N,00123.7639,W,0,00,,,M,,M,,*40
t126035,0
$GPRMC,195130,V,5055.9807,N,00123.7639,W,,,080216,002.9,W*60
$GPGGA,195130,5055.9807,N,00123.7639,W,0,00,,,M,,M,,*48
t127034,0
$GPRMC,195131,V,5055.9807,N,00123.7639,W,,,080216,002.9,W*61
$GPGGA,195131,5055.9807,N,00123.7639,W,0,00,,,M,,M,,*49
t128035,0
$GPRMC,195132,V,5055.9807,N,00123.7639,W,,,080216,002.9,W*62
$GPGGA,195132,5055.9807,N,00123.7639,W,0,00,,,M,,M,,*4A
t129027,0
$GPRMC,195133,V,5055.9807,N,00123.7639,W,,,080216,002.9,W*63
$GPGGA,195133,5055.9807,N,00123.7639,W,0,00,,,M,,M,,*4B
t130040,0
$GPRMC,195134,V,5055.9807,N,00123.7639,W,,,080216,002.9,W*64
$GPGGA,195134,5055.9807,N,00123.7639,W,0,00,,,M,,M,,*4C
t131024,0
$GPRMC,195135,V,5055.9807,N,00123.7639,W,,,080216,002.9,W*65
$GPGGA,195135,5055.9807,N,00123.7639,W,0,00,,,M,,M,,*4D
t132025,0
$GPRMC,195136,V,5055.9807,N,00123.7639,W,,,080216,002.9,W*66
$GPGGA,195136,5055.9807,N,00123.7639,W,0,00,,,M,,M,,*4E
t133030,0
$GPRMC,195137,V,5055.9807,N,00123.7639,W,,,080216,002.9,W*67
$GPGGA,195137,5055.9807,N,00123.7639,W,0,00,,,M,,M,,*4F
t134024,0
$GPRMC,195138,V,5055.9807,N,00123.7639,W,,,080216,002.9,W*68
$GPGGA,195138,5055.9807,N,00123.7639,W,0,00,,,M,,M,,*40
t135038,0
$GPRMC,195139,V,5055.9807,N,00123.7639,W,,,080216,002.9,W*69
$GPGGA,195139,5055.9807,N,00123.7639,W,0,00,,,M,,M,,*41
t136035,0
$GPRMC,195140,V,5055.9807,N,00123.7639,W,,,080216,002.9,W*67
$GPGGA,195140,5055.9807,N,00123.7639,W,0,00,,,M,,M,,*4F
t137023,0
$GPRMC,195141,V,5055.9807,N,00123.7639,W,,,080216,002.9,W*66
$GPGGA,195141,5055.9807,N,00123.7639,W,0,00,,,M,,M,,*4E
t138022,0
$GPRMC,195142,V,5055.9807,N,00123.7639,W,,,080216,002.9,W*65
$GPGGA,195142,5055.9807,N,00123.7639,W,0,00,,,M,,M,,*4D
t139028,0
$GPRMC,195143,V,5055.9807,N,00123.7639,W,,,080216,002.9,W*64
$GPGGA,195143,5055.9807,N,00123.7639,W,0,00,,,M,,M,,*4C
t140037,0
$GPRMC,195144,V,5055.9807,N,00123.7639,W,,,080216,002.9,W*63
$GPGGA,195144,5055.9807,N,00123.7639,W,0,00,,,M,,M,,*4B
t141027,0
$GPRMC,195145,V,5055.9807,N,00123.7639,W,,,080216,002.9,W*62
$GPGGA,195145,5055.9807,N,00123.7639,W,0,00,,,M,,M,,*4A
t142025,0
$GPRMC,195146,V,5055.9807,N,00123.7639,W,,,080216,002.9,W*61
$GPGGA,195146,5055.9807,N,00123.7639,W,0,00,,,M,,M,,*49
t143028,0
$GPRMC,195147,V,5055.9807,N,00123.7639,W,,,080216,002.9,W*60
$GPGGA,195147,5055.9807,N,00123.7639,W,0,00,,,M,,M,,*48
t144025,0
$GPRMC,195148,V,5055.9807,N,00123.7639,W,,,080216,002.9,W*6F
$GPGGA,195148,5055.9807,N,00123.7639,W,0,00,,,M,,M,,*47
t145033,0
$GPRMC,195149,V,5055.9807,N,00123.7639,W,,,080216,002.9,W*6E
$GPGGA,195149,5055.9807,N,00123.7639,W,0,00,,,M,,M,,*46
t146035,0
$GPRMC,195150,V,5055.9807,N,00123.7639,W,,,080216,002.9,W*66
$GPGGA,195150,5055.9807,N,00123.7639,W,0,00,,,M,,M,,*4E
t147023,0
$GPRMC,195151,V,5055.9807,N,00123.7639,W,,,080216,002.9,W*67
$GPGGA,195151,5055.9807,N,00123.7639,W,0,00,,,M,,M,,*4F
t148023,0
$GPRMC,195152,V,5055.9807,N,00123.7639,W,,,080216,002.9,W*64
$GPGGA,195152,5055.9807,N,00123.7639,W,0,00,,,M,,M,,*4C
t149024,0
$GPRMC,195153,V,5055.9807,N,00123.7639,W,,,080216,002.9,W*65
$GPGGA,195153,5055.9807,N,00123.7639,W,0,00,,,M,,M,,*4D
t150037,0
$GPRMC,195154,V,5055.9807,N,00123.7639,W,,,080216,002.9,W*62
$GPGGA,195154,5055.9807,N,00123.7639,W,0,00,,,M,,M,,*4A
t151022,0
$GPRMC,195155,V,5055.9807,N,00123.7639,W,,,080216,002.9,W*63
$GPGGA,195155,5055.9807,N,00123.7639,W,0,00,,,M,,M,,*4B
t152091,0
$GPRMC,195156,V,5055.9807,N,00123.7639,W,,,080216,002.9,W*60
$GPGGA,195156,5055.9807,N,00123.7639,W,0,00,,,M,,M,,*48
t153022,0
$GPRMC,195157,V,5055.9807,N,00123.7639,W,,,080216,002.9,W*61
$GPGGA,195157,5055.9807,N,00123.7639,W,0,00,,,M,,M,,*49
t154020,0
$GPRMC,195158,V,5055.9807,N,00123.7639,W,,,080216,002.9,W*6E
$GPGGA,195158,5055.9807,N,00123.7639,W,0,00,,,M,,M,,*46
t155150,0
$GPRMC,195159,V,5055.9807,N,00123.7639,W,,,080216,002.9,W*6F
$GPGGA,195159,5055.9807,N,00123.7639,W,0,00,,,M,,M,,*47
t156013,0
$GPRMC,195200,V,5055.9807,N,00123.7639,W,,,080216,002.9,W*60
$GPGGA,195200,5055.9807,N,00123.7639,W,0,00,,,M,,M,,*48
t157011,0
$GPRMC,195201,V,5055.9807,N,00123.7639,W,,,080216,002.9,W*61
$GPGGA,195201,5055.9807,N,00123.7639,W,0,00,,,M,,M,,*49
t158019,0
$GPRMC,195202,V,5055.9807,N,00123.7639,W,,,080216,002.9,W*62
$GPGGA,195202,5055.9807,N,00123.7639,W,0,00,,,M,,M,,*4A
t159011,0
$GPRMC,195203,V,5055.9807,N,00123.7639,W,,,080216,002.9,W*63
$GPGGA,195203,5055.9807,N,00123.7639,W,0,00,,,M,,M,,*4B
t160020,0
$GPRMC,195204,V,5055.9807,N,00123.7639,W,,,080216,002.9,W*64
$GPGGA,195204,5055.9807,N,00123.7639,W,0,00,,,M,,M,,*4C
t161010,0
$GPRMC,195205,V,5055.9807,N,00123.7639,W,,,080216,002.9,W*65
$GPGGA,195205,5055.9807,N,00123.7639,W,0,00,,,M,,M,,*4D
t162016,0
$GPRMC,195206,V,5055.9807,N,00123.7639,W,,,080216,002.9,W*66
$GPGGA,195206,5055.9807,N,00123.7639,W,0,00,,,M,,M,,*4E
t163010,0
$GPRMC,195207,V,5055.9807,N,00123.7639,W,,,080216,002.9,W*67
$GPGGA,195207,5055.9807,N,00123.7639,W,0,00,,,M,,M,,*4F
t164018,0
$GPRMC,195208,V,5055.9807,N,00123.7639,W,,,080216,002.9,W*68
$GPGGA,195208,5055.9807,N,00123.7639,W,0,00,,,M,,M,,*40
t165017,0
$GPRMC,195209,V,5055.9807,N,00123.7639,W,,,080216,002.9,W*69
$GPGGA,195209,5055.9807,N,00123.7639,W,0,00,,,M,,M,,*41
t166021,0
$GPRMC,195210,V,5055.9807,N,00123.7639,W,,,080216,002.9,W*61
$GPGGA,195210,5055.9807,N,00123.7639,W,0,00,,,M,,M,,*49
t167016,0
$GPRMC,195211,V,5055.9807,N,00123.7639,W,,,080216,002.9,W*60
$GPGGA,195211,5055.9807,N,00123.7639,W,0,00,,,M,,M,,*48
t168010,0
$GPRMC,195212,V,5055.9807,N,00123.7639,W,,,080216,002.9,W*63
$GPGGA,195212,5055.9807,N,00123.7639,W,0,00,,,M,,M,,*4B
t169007,0
$GPRMC,195213,V,5055.9807,N,00123.7639,W,,,080216,002.9,W*62
$GPGGA,195213,5055.9807,N,00123.7639,W,0,00,,,M,,M,,*4A
t170030,0
$GPRMC,195214,V,5055.9807,N,00123.7639,W,,,080216,002.9,W*65
$GPGGA,195214,5055.9807,N,00123.7639,W,0,00,,,M,,M,,*4D
t171004,0
$GPRMC,195215,V,5055.9807,N,00123.7639,W,,,080216,002.9,W*64
$GPGGA,195215,5055.9807,N,00123.7639,W,0,00,,,M,,M,,*4C
t172004,0
$GPRMC,195216,V,5055.9807,N,00123.7639,W,,,080216,002.9,W*67
$GPGGA,195216,5055.9807,N,00123.7639,W,0,00,,,M,,M,,*4F
t173012,0
$GPRMC,195217,V,5055.9807,N,00123.7639,W,,,080216,002.9,W*66
$GPGGA,195217,5055.9807,N,00123.7639,W,0,00,,,M,,M,,*4E
t174019,0
$GPRMC,195218,V,5055.9807,N,00123.7639,W,,,080216,002.9,W*69
$GPGGA,195218,5055.9807,N,00123.7639,W,0,00,,,M,,M,,*41
t175011,0
$GPRMC,195219,V,5055.9807,N,00123.7639,W,,,080216,002.9,W*68
$GPGGA,195219,5055.9807,N,00123.7639,W,0,00,,,M,,M,,*40
t176004,0
$GPRMC,195220,V,5055.9807,N,00123.7639,W,,,080216,002.9,W*62
$GPGGA,195220,5055.9807,N,00123.7639,W,0,00,,,M,,M,,*4A
t177003,0
$GPRMC,195221,V,5055.9807,N,00123.7639,W,,,080216,002.9,W*63
$GPGGA,195221,5055.9807,N,00123.7639,W,0,00,,,M,,M,,*4B
t178009,0
$GPRMC,195222,V,5055.9807,N,00123.7639,W,,,080216,002.9,W*60
$GPGGA,195222,5055.9807,N,00123.7639,W,0,00,,,M,,M,,*48
t179002,0
$GPRMC,195223,V,5055.9807,N,00123.7639,W,,,080216,002.9,W*61
$GPGGA,195223,5055.9807,N,00123.7639,W,0,00,,,M,,M,,*49
t180002,0
$GPRMC,195224,V,5055.9807,N,00123.7639,W,,,080216,002.9,W*66
$GPGGA,195224,5055.9807,N,00123.7639,W,0,00,,,M,,M,,*4E
t181001,0
$GPRMC,195225,V,5055.9807,N,00123.7639,W,,,080216,002.9,W*67
$GPGGA,195225,5055.9807,N,00123.7639,W,0,00,,,M,,M,,*4F
t182008,0
$GPRMC,195226,V,5055.9807,N,00123.7639,W,,,080216,002.9,W*64
$GPGGA,195226,5055.9807,N,00123.7639,W,0,00,,,M,,M,,*4C
t182999,0
$GPRMC,195227,V,5055.9807,N,00123.7639,W,,,080216,002.9,W*65
$GPGGA,195227,5055.9807,N,00123.7639,W,0,00,,,M,,M,,*4D
t183999,0
$GPRMC,195228,V,5055.9807,N,00123.7639,W,,,080216,002.9,W*6A
$GPGGA,195228,5055.9807,N,00123.7639,W,0,00,,,M,,M,,*42
t185016,0
$GPRMC,195229,V,5055.9807,N,00123.7639,W,,,080216,002.9,W*6B
$GPGGA,195229,5055.9807,N,00123.7639,W,0,00,,,M,,M,,*43
t186133,0
$GPRMC,195230,V,5055.9807,N,00123.7639,W,,,080216,002.9,W*63
$GPGGA,195230,5055.9807,N,00123.7639,W,0,00,,,M,,M,,*4B
t186998,0
$GPRMC,195231,V,5055.9807,N,00123.7639,W,,,080216,002.9,W*62
$GPGGA,195231,5055.9807,N,00123.7639,W,0,00,,,M,,M,,*4A
t188005,0
$GPRMC,195232,V,5055.9807,N,00123.7639,W,,,080216,002.9,W*61
$GPGGA,195232,5055.9807,N,00123.7639,W,0,00,,,M,,M,,*49
t188997,0
$GPRMC,195233,V,5055.9807,N,00123.7639,W,,,080216,002.9,W*60
$GPGGA,195233,5055.9807,N,00123.7639,W,0,00,,,M,,M,,*48
t190011,0
$GPRMC,195234,V,5055.9807,N,00123.7639,W,,,080216,002.9,W*67
$GPGGA,195234,5055.9807,N,00123.7639,W,0,00,,,M,,M,,*4F
t191003,0
$GPRMC,195235,V,5055.9807,N,00123.7639,W,,,080216,002.9,W*66
$GPGGA,195235,5055.9807,N,00123.7639,W,0,00,,,M,,M,,*4E
t191995,0
$GPRMC,195236,V,5055.9807,N,00123.7639,W,,,080216,002.9,W*65
$GPGGA,195236,5055.9807,N,00123.7639,W,0,00,,,M,,M,,*4D
t192995,0
$GPRMC,195237,V,5055.9807,N,00123.7639,W,,,080216,002.9,W*64
$GPGGA,195237,5055.9807,N,00123.7639,W,0,00,,,M,,M,,*4C
t194008,0
$GPRMC,195238,V,5055.9807,N,00123.7639,W,,,080216,002.9,W*6B
$GPGGA,195238,5055.9807,N,00123.7639,W,0,00,,,M,,M,,*43
t195013,0
$GPRMC,195239,V,5055.9807,N,00123.7639,W,,,080216,002.9,W*6A
$GPGGA,195239,5055.9807,N,00123.7639,W,0,00,,,M,,M,,*42
t195993,0
$GPRMC,195240,V,5055.9807,N,00123.7639,W,,,080216,002.9,W*64
$GPGGA,195240,5055.9807,N,00123.7639,W,0,00,,,M,,M,,*4C
t196993,0
$GPRMC,195241,V,5055.9807,N,00123.7639,W,,,080216,002.9,W*65
$GPGGA,195241,5055.9807,N,00123.7639,W,0,00,,,M,,M,,*4D
t197999,0
$GPRMC,195242,V,5055.9807,N,00123.7639,W,,,080216,002.9,W*66
$GPGGA,195242,5055.9807,N,00123.7639,W,0,00,,,M,,M,,*4E
t198990,0
$GPRMC,195243,V,5055.9807,N,00123.7639,W,,,080216,002.9,W*67
$GPGGA,195243,5055.9807,N,00123.7639,W,0,00,,,M,,M,,*4F
t199999,0
$GPRMC,195244,V,5055.9807,N,00123.7639,W,,,080216,002.9,W*60
$GPGGA,195244,5055.9807,N,00123.7639,W,0,00,,,M,,M,,*48
t200996,0
$GPRMC,195245,V,5055.9807,N,00123.7639,W,,,080216,002.9,W*61
$GPGGA,195245,5055.9807,N,00123.7639,W,0,00,,,M,,M,,*49
t202018,0
$GPRMC,195246,V,5055.9807,N,00123.7639,W,,,080216,002.9,W*62
$GPGGA,195246,5055.9807,N,00123.7639,W,0,00,,,M,,M,,*4A
t202991,0
$GPRMC,195247,V,5055.9807,N,00123.7639,W,,,080216,002.9,W*63
$GPGGA,195247,5055.9807,N,00123.7639,W,0,00,,,M,,M,,*4B
t204010,0
$GPRMC,195248,V,5055.9807,N,00123.7639,W,,,080216,002.9,W*6C
$GPGGA,195248,5055.9807,N,00123.7639,W,0,00,,,M,,M,,*44
t204998,0
$GPRMC,195249,V,5055.9807,N,00123.7639,W,,,080216,002.9,W*6D
$GPGGA,195249,5055.9807,N,00123.7639,W,0,00,,,M,,M,,*45
t206004,0
$GPRMC,195250,V,5055.9807,N,00123.7639,W,,,080216,002.9,W*65
$GPGGA,195250,5055.9807,N,00123.7639,W,0,00,,,M,,M,,*4D
t206989,0
$GPRMC,195251,V,5055.9807,N,00123.7639,W,,,080216,002.9,W*64
$GPGGA,195251,5055.9807,N,00123.7639,W,0,00,,,M,,M,,*4C
t207988,0
$GPRMC,195252,V,5055.9807,N,00123.7639,W,,,080216,002.9,W*67
$GPGGA,195252,5055.9807,N,00123.7639,W,0,00,,,M,,M,,*4F
t209016,0
$GPRMC,195253,V,5055.9807,N,00123.7639,W,,,080216,002.9,W*66
$GPGGA,195253,5055.9807,N,00123.7639,W,0,00,,,M,,M,,*4E
t210018,0
$GPRMC,195254,V,5055.9807,N,00123.7639,W,,,080216,002.9,W*61
$GPGGA,195254,5055.9807,N,00123.7639,W,0,00,,,M,,M,,*49
t211010,0
$GPRMC,195255,V,5055.9807,N,00123.7639,W,,,080216,002.9,W*60
$GPGGA,195255,5055.9807,N,00123.7639,W,0,00,,,M,,M,,*48
t212018,0
$GPRMC,195256,V,5055.9807,N,00123.7639,W,,,080216,002.9,W*63
$GPGGA,195256,5055.9807,N,00123.7639,W,0,00,,,M,,M,,*4B
t213009,0
$GPRMC,195257,V,5055.9807,N,00123.7639,W,,,080216,002.9,W*62
$GPGGA,195257,5055.9807,N,00123.7639,W,0,00,,,M,,M,,*4A
t214008,0
$GPRMC,195258,V,5055.9807,N,00123.7639,W,,,080216,002.9,W*6D
$GPGGA,195258,5055.9807,N,00123.7639,W,0,00,,,M,,M,,*45
t215029,0
$GPRMC,195259,V,5055.9807,N,00123.7639,W,,,080216,002.9,W*6C
$GPGGA,195259,5055.9807,N,00123.7639,W,0,00,,,M,,M,,*44
t216014,0
$GPRMC,195300,V,5055.9807,N,00123.7639,W,,,080216,002.9,W*61
$GPGGA,195300,5055.9807,N,00123.7639,W,0,00,,,M,,M,,*49
t217134,0
$GPRMC,195301,V,5055.9807,N,00123.7639,W,,,080216,002.9,W*60
$GPGGA,195301,5055.9807,N,00123.7639,W,0,00,,,M,,M,,*48
t218007,0
$GPRMC,195302,V,5055.9807,N,00123.7639,W,,,080216,002.9,W*63
$GPGGA,195302,5055.9807,N,00123.7639,W,0,00,,,M,,M,,*4B
t219005,0
$GPRMC,195303,V,5055.9807,N,00123.7639,W,,,080216,002.9,W*62
$GPGGA,195303,5055.9807,N,00123.7639,W,0,00,,,M,,M,,*4A
t220027,0
$GPRMC,195304,V,5055.9807,N,00123.7639,W,,,080216,002.9,W*65
$GPGGA,195304,5055.9807,N,00123.7639,W,0,00,,,M,,M,,*4D
t221016,0
$GPRMC,195305,V,5055.9807,N,00123.7639,W,,,080216,002.9,W*64
$GPGGA,195305,5055.9807,N,00123.7639,W,0,00,,,M,,M,,*4C
t222016,0
$GPRMC,195306,V,5055.9807,N,00123.7639,W,,,080216,002.9,W*67
$GPGGA,195306,5055.9807,N,00123.7639,W,0,00,,,M,,M,,*4F
t223014,0
$GPRMC,195307,V,5055.9807,N,00123.7639,W,,,080216,002.9,W*66
$GPGGA,195307,5055.9807,N,00123.7639,W,0,00,,,M,,M,,*4E
t223992,0
$GPRMC,195308,V,5055.9807,N,00123.7639,W,,,080216,002.9,W*69
$GPGGA,195308,5055.9807,N,00123.7639,W,0,00,,,M,,M,,*41
t224999,0
$GPRMC,195309,V,5055.9807,N,00123.7639,W,,,080216,002.9,W*68
$GPGGA,195309,5055.9807,N,00123.7639,W,0,00,,,M,,M,,*40
t226026,0
$GPRMC,195310,V,5055.9807,N,00123.7639,W,,,080216,002.9,W*60
$GPGGA,195310,5055.9807,N,00123.7639,W,0,00,,,M,,M,,*48
t227005,0
$GPRMC,195311,V,5055.9807,N,00123.7639,W,,,080216,002.9,W*61
$GPGGA,195311,5055.9807,N,00123.7639,W,0,00,,,M,,M,,*49
t228132,0
$GPRMC,195312,V,5055.9807,N,00123.7639,W,,,080216,002.9,W*62
$GPGGA,195312,5055.9807,N,00123.7639,W,0,00,,,M,,M,,*4A
t229022,0
$GPRMC,195313,V,5055.9807,N,00123.7639,W,,,080216,002.9,W*63
$GPGGA,195313,5055.9807,N,00123.7639,W,0,00,,,M,,M,,*4B
t230014,0
$GPRMC,195314,V,5055.9807,N,00123.7639,W,,,080216,002.9,W*64
$GPGGA,195314,5055.9807,N,00123.7639,W,0,00,,,M,,M,,*4C
t231023,0
$GPRMC,195315,V,5055.9807,N,00123.7639,W,,,080216,002.9,W*65
$GPGGA,195315,5055.9807,N,00123.7639,W,0,00,,,M,,M,,*4D
t231997,0
$GPRMC,195316,V,5055.9807,N,00123.7639,W,,,080216,002.9,W*66
$GPGGA,195316,5055.9807,N,00123.7639,W,0,00,,,M,,M,,*4E
t233030,0
$GPRMC,195317,V,5055.9807,N,00123.7639,W,,,080216,002.9,W*67
$GPGGA,195317,5055.9807,N,00123.7639,W,0,00,,,M,,M,,*4F
t233996,0
$GPRMC,195318,V,5055.9807,N,00123.7639,W,,,080216,002.9,W*68
$GPGGA,195318,5055.9807,N,00123.7639,W,0,00,,,M,,M,,*40
t235031,0
$GPRMC,195319,V,5055.9807,N,00123.7639,W,,,080216,002.9,W*69
$GPGGA,195319,5055.9807,N,00123.7639,W,0,00,,,M,,M,,*41
t236032,0
$GPRMC,195320,V,5055.9807,N,00123.7639,W,,,080216,002.9,W*63
$GPGGA,195320,5055.9807,N,00123.7639,W,0,00,,,M,,M,,*4B
t237002,0
$GPRMC,195321,V,5055.9807,N,00123.7639,W,,,080216,002.9,W*62
$GPGGA,195321,5055.9807,N,00123.7639,W,0,00,,,M,,M,,*4A
t237996,0
$GPRMC,195322,V,5055.9807,N,00123.7639,W,,,080216,002.9,W*61
$GPGGA,195322,5055.9807,N,00123.7639,W,0,00,,,M,,M,,*49
t238994,0
$GPRMC,195323,V,5055.9807,N,00123.7639,W,,,080216,002.9,W*60
$GPGGA,195323,5055.9807,N,00123.7639,W,0,00,,,M,,M,,*48
t240005,0
$GPRMC,195324,V,5055.9807,N,00123.7639,W,,,080216,002.9,W*67
$GPGGA,195324,5055.9807,N,00123.7639,W,0,00,,,M,,M,,*4F
t240993,0
$GPRMC,195325,V,5055.9807,N,00123.7639,W,,,080216,002.9,W*66
$GPGGA,195325,5055.9807,N,00123.7639,W,0,00,,,M,,M,,*4E
t242000,0
$GPRMC,195326,V,5055.9807,N,00123.7639,W,,,080216,002.9,W*65
$GPGGA,195326,5055.9807,N,00123.7639,W,0,00,,,M,,M,,*4D
t242995,0
$GPRMC,195327,V,5055.9807,N,00123.7639,W,,,080216,002.9,W*64
$GPGGA,195327,5055.9807,N,00123.7639,W,0,00,,,M,,M,,*4C
t244019,0
$GPRMC,195328,V,5055.9807,N,00123.7639,W,,,080216,002.9,W*6B
$GPGGA,195328,5055.9807,N,00123.7639,W,0,00,,,M,,M,,*43
t245011,0
$GPRMC,195329,V,5055.9807,N,00123.7639,W,,,080216,002.9,W*6A
$GPGGA,195329,5055.9807,N,00123.7639,W,0,00,,,M,,M,,*42
t245990,0
$GPRMC,195330,V,5055.9807,N,00123.7639,W,,,080216,002.9,W*62
$GPGGA,195330,5055.9807,N,00123.7639,W,0,00,,,M,,M,,*4A
t246991,0
$GPRMC,195331,V,5055.9807,N,00123.7639,W,,,080216,002.9,W*63
$GPGGA,195331,5055.9807,N,00123.7639,W,0,00,,,M,,M,,*4B
t248127,0
$GPRMC,195332,V,5055.9807,N,00123.7639,W,,,080216,002.9,W*60
$GPGGA,195332,5055.9807,N,00123.7639,W,0,00,,,M,,M,,*48
t248997,0
$GPRMC,195333,V,5055.9807,N,00123.7639,W,,,080216,002.9,W*61
$GPGGA,195333,5055.9807,N,00123.7639,W,0,00,,,M,,M,,*49
t250071,0
$GPRMC,195335,V,5055.9807,N,00123.7639,W,,,080216,002.9,W*67
$GPGGA,195335,5055.9807,N,00123.7639,W,0,00,,,M,,M,,*4F
t251889,0
$GPRMC,195336,A,5055.9818,N,00123.7339,W,002.2,334.5,080216,002.9,W*79
$GPGGA,195336,5055.9818,N,00123.7339,W,1,01,1.9,96.0,M,46.9,M,,*65
t252930,0
$GPRMC,195337,A,5055.9828,N,00123.7352,W,002.5,340.4,080216,002.9,W*73
$GPGGA,195337,5055.9828,N,00123.7352,W,1,02,1.0,,M,46.9,M,,*71
t253975,253526
$GPRMC,195338,A,5055.9784,N,00123.7384,W,002.4,329.0,080216,002.9,W*74
$GPGGA,195338,5055.9784,N,00123.7384,W,1,02,1.0,88.2,M,46.9,M,,*60
t255004,253526
$GPRMC,195339,A,5055.9820,N,00123.7412,W,002.1,340.5,080216,002.9,W*73
$GPGGA,195339,5055.9820,N,00123.7412,W,1,01,1.0,84.8,M,46.9,M,,*6D
t255978,255524
$GPRMC,195340,A,5055.9857,N,00123.7426,W,002.3,340.0,080216,002.9,W*7D
$GPGGA,195340,5055.9857,N,00123.7426,W,1,01,1.0,,M,46.9,M,,*7E
t256959,256524
$GPRMC,195341,A,5055.9885,N,00123.7438,W,002.4,337.7,080216,002.9,W*7C
$GPGGA,195341,5055.9885,N,00123.7438,W,1,01,1.0,83.2,M,46.9,M,,*68
t257970,256524
$GPRMC,195342,A,5055.9968,N,00123.7580,W,002.5,337.1,080216,002.9,W*78
$GPGGA,195342,5055.9968,N,00123.7580,W,1,02,1.0,21.6,M,46.9,M,,*64
t259017,258523
$GPRMC,195343,A,5055.9960,N,00123.7574,W,002.3,339.0,080216,002.9,W*73
$GPGGA,195343,5055.9960,N,00123.7574,W,1,02,1.0,22.1,M,46.9,M,,*62
t259979,259522
$GPRMC,195344,A,5055.9971,N,00123.7568,W,002.2,340.8,080216,002.9,W*7E
$GPGGA,195344,5055.9971,N,00123.7568,W,1,02,1.0,22.5,M,46.9,M,,*6C
t260984,260521
$GPRMC,195345,A,5055.9972,N,00123.7571,W,002.4,338.3,080216,002.9,W*76
$GPGGA,195345,5055.9972,N,00123.7571,W,1,02,1.0,22.6,M,46.9,M,,*65
t261982,261521
$GPRMC,195346,A,5055.9981,N,00123.7571,W,002.4,332.7,080216,002.9,W*77
$GPGGA,195346,5055.9981,N,00123.7571,W,1,02,1.0,22.5,M,46.9,M,,*69
t262977,262520
$GPRMC,195347,A,5056.0011,N,00123.7563,W,002.6,340.1,080216,002.9,W*7E
$GPGGA,195347,5056.0011,N,00123.7563,W,1,02,1.0,20.6,M,46.9,M,,*60
t263970,263521
$GPRMC,195348,A,5056.0062,N,00123.7545,W,003.0,343.5,080216,002.9,W*71
$GPGGA,195348,5056.0062,N,00123.7545,W,1,02,1.0,16.6,M,46.9,M,,*6A
t264968,264520
$GPRMC,195349,A,5056.0086,N,00123.7541,W,003.3,331.3,080216,002.9,W*7E
$GPGGA,195349,5056.0086,N,00123.7541,W,1,02,1.0,15.3,M,46.9,M,,*63
t265985,265520
$GPRMC,195350,A,5056.0105,N,00123.7540,W,002.4,314.6,080216,002.9,W*79
$GPGGA,195350,5056.0105,N,00123.7540,W,1,02,1.0,13.7,M,46.9,M,,*62
t266970,266519
$GPRMC,195351,A,5056.0115,N,00123.7541,W,001.7,314.6,080216,002.9,W*78
$GPGGA,195351,5056.0115,N,00123.7541,W,1,02,1.0,13.1,M,46.9,M,,*65
t267975,267518
$GPRMC,195352,A,5056.0124,N,00123.7539,W,001.7,314.6,080216,002.9,W*76
$GPGGA,195352,5056.0124,N,00123.7539,W,1,02,1.0,12.5,M,46.9,M,,*6E
t268975,268518
$GPRMC,195353,A,5056.0141,N,00123.7540,W,003.1,338.3,080216,002.9,W*75
$GPGGA,195353,5056.0141,N,00123.7540,W,1,02,1.0,13.9,M,46.9,M,,*6F
t269973,269517
$GPRMC,195354,A,5056.0158,N,00123.7545,W,003.7,338.4,080216,002.9,W*7E
$GPGGA,195354,5056.0158,N,00123.7545,W,1,02,1.0,14.4,M,46.9,M,,*6F
t270976,270517
$GPRMC,195355,A,5056.0167,N,00123.7547,W,003.1,335.4,080216,002.9,W*7A
$GPGGA,195355,5056.0167,N,00123.7547,W,1,02,1.0,14.4,M,46.9,M,,*60
t271982,271516
$GPRMC,195356,A,5056.0178,N,00123.7550,W,002.6,335.4,080216,002.9,W*77
$GPGGA,195356,5056.0178,N,00123.7550,W,1,02,1.0,14.1,M,46.9,M,,*6E
t272968,272516
$GPRMC,195357,A,5056.0188,N,00123.7552,W,002.9,342.8,080216,002.9,W*78
$GPGGA,195357,5056.0188,N,00123.7552,W,1,02,1.0,13.9,M,46.9,M,,*6D
t273974,273515
$GPRMC,195358,A,5056.0191,N,00123.7560,W,002.6,334.8,080216,002.9,W*70
$GPGGA,195358,5056.0191,N,00123.7560,W,1,02,1.0,14.4,M,46.9,M,,*61
t274972,274514
$GPRMC,195359,A,5056.0202,N,00123.7563,W,003.0,322.8,080216,002.9,W*7B
$GPGGA,195359,5056.0202,N,00123.7563,W,1,02,1.0,14.3,M,46.9,M,,*6D
t275981,275514
$GPRMC,195400,A,5056.0215,N,00123.7572,W,002.4,331.4,080216,002.9,W*7D
$GPGGA,195400,5056.0215,N,00123.7572,W,1,02,1.0,15.4,M,46.9,M,,*66
t276962,276514
$GPRMC,195401,A,5056.0224,N,00123.7583,W,003.0,334.1,080216,002.9,W*75
$GPGGA,195401,5056.0224,N,00123.7583,W,1,02,1.0,15.5,M,46.9,M,,*6A
t277969,277514
$GPRMC,195402,A,5056.0231,N,00123.7590,W,002.4,333.1,080216,002.9,W*72
$GPGGA,195402,5056.0231,N,00123.7590,W,1,02,1.0,15.8,M,46.9,M,,*62
t279068,278513
$GPRMC,195403,A,5056.0236,N,00123.7594,W,001.8,318.7,080216,002.9,W*70
$GPGGA,195403,5056.0236,N,00123.7594,W,1,02,1.0,16.0,M,46.9,M,,*6B
t279971,279513
$GPRMC,195404,A,5056.0233,N,00123.7597,W,002.9,347.2,080216,002.9,W*7C
$GPGGA,195404,5056.0233,N,00123.7597,W,1,02,1.0,16.6,M,46.9,M,,*6C
t280978,280512
$GPRMC,195405,A,5056.0235,N,00123.7603,W,002.4,329.0,080216,002.9,W*72
$GPGGA,195405,5056.0235,N,00123.7603,W,1,02,1.0,16.6,M,46.9,M,,*65
t281971,281511
$GPRMC,195406,A,5056.0258,N,00123.7615,W,003.1,329.8,080216,002.9,W*71
$GPGGA,195406,5056.0258,N,00123.7615,W,1,02,1.0,16.0,M,46.9,M,,*6C
t282966,282511
$GPRMC,195407,A,5056.0262,N,00123.7621,W,003.1,337.8,080216,002.9,W*71
$GPGGA,195407,5056.0262,N,00123.7621,W,1,02,1.0,16.4,M,46.9,M,,*67
t283974,283510
$GPRMC,195408,A,5056.0267,N,00123.7622,W,002.8,342.1,080216,002.9,W*7B
$GPGGA,195408,5056.0267,N,00123.7622,W,1,02,1.0,16.9,M,46.9,M,,*63
t284966,284510
$GPRMC,195409,A,5056.0273,N,00123.7628,W,002.9,334.0,080216,002.9,W*74
$GPGGA,195409,5056.0273,N,00123.7628,W,1,02,1.0,17.1,M,46.9,M,,*64
t285970,285509
$GPRMC,195410,A,5056.0281,N,00123.7627,W,002.3,319.5,080216,002.9,W*7E
$GPGGA,195410,5056.0281,N,00123.7627,W,1,02,1.0,19.9,M,46.9,M,,*68
t286971,286509
$GPRMC,195411,A,5056.0289,N,00123.7634,W,002.2,329.5,080216,002.9,W*77
$GPGGA,195411,5056.0289,N,00123.7634,W,1,02,1.0,21.4,M,46.9,M,,*65
t287961,287508
$GPRMC,195412,A,5056.0294,N,00123.7634,W,002.2,344.3,080216,002.9,W*75
$GPGGA,195412,5056.0294,N,00123.7634,W,1,02,1.0,21.5,M,46.9,M,,*6B
t288951,288507
$GPRMC,195413,A,5056.0297,N,00123.7640,W,002.4,327.9,080216,002.9,W*7D
$GPGGA,195413,5056.0297,N,00123.7640,W,1,02,1.0,21.1,M,46.9,M,,*6E
t289958,289508
$GPRMC,195414,A,5056.0301,N,00123.7644,W,002.8,341.1,080216,002.9,W*74
$GPGGA,195414,5056.0301,N,00123.7644,W,1,02,1.0,20.9,M,46.9,M,,*6A
t290970,290507
$GPRMC,195415,A,5056.0310,N,00123.7654,W,003.0,322.9,080216,002.9,W*70
$GPGGA,195415,5056.0310,N,00123.7654,W,1,02,1.0,21.0,M,46.9,M,,*62
t291966,291507
$GPRMC,195416,A,5056.0309,N,00123.7658,W,002.2,312.9,080216,002.9,W*77
$GPGGA,195416,5056.0309,N,00123.7658,W,1,02,1.0,21.5,M,46.9,M,,*60
t292964,292506
$GPRMC,195417,A,5056.0314,N,00123.7662,W,002.9,317.5,080216,002.9,W*71
$GPGGA,195417,5056.0314,N,00123.7662,W,1,02,1.0,22.1,M,46.9,M,,*63
t293959,293506
$GPRMC,195418,A,5056.0318,N,00123.7672,W,002.4,325.8,080216,002.9,W*72
$GPGGA,195418,5056.0318,N,00123.7672,W,1,02,1.0,22.4,M,46.9,M,,*64
t294976,294505
$GPRMC,195419,A,5056.0321,N,00123.7675,W,002.2,332.1,080216,002.9,W*77
$GPGGA,195419,5056.0321,N,00123.7675,W,1,02,1.0,22.7,M,46.9,M,,*6B
t295976,295504
$GPRMC,195420,A,5056.0334,N,00123.7675,W,002.8,344.5,080216,002.9,W*76
$GPGGA,195420,5056.0334,N,00123.7675,W,1,02,1.0,23.1,M,46.9,M,,*62
t296970,296504
$GPRMC,195421,A,5056.0345,N,00123.7685,W,002.8,330.8,080216,002.9,W*70
$GPGGA,195421,5056.0345,N,00123.7685,W,1,02,1.0,23.1,M,46.9,M,,*6A
t297965,297503
$GPRMC,195422,A,5056.0354,N,00123.7691,W,003.2,331.1,080216,002.9,W*75
$GPGGA,195422,5056.0354,N,00123.7691,W,1,02,1.0,23.6,M,46.9,M,,*6B
t298963,298503
$GPRMC,195423,A,5056.0360,N,00123.7695,W,002.4,339.4,080216,002.9,W*7D
$GPGGA,195423,5056.0360,N,00123.7695,W,1,02,1.0,24.0,M,46.9,M,,*68
t299963,299502
$GPRMC,195424,A,5056.0366,N,00123.7696,W,002.6,325.4,080216,002.9,W*70
$GPGGA,195424,5056.0366,N,00123.7696,W,1,02,1.0,24.2,M,46.9,M,,*68
t300972,300502
$GPRMC,195425,A,5056.0375,N,00123.7698,W,003.0,332.0,080216,002.9,W*78
$GPGGA,195425,5056.0375,N,00123.7698,W,1,02,1.0,24.5,M,46.9,M,,*62
t301972,301501
$GPRMC,195426,A,5056.0393,N,00123.7699,W,003.4,335.7,080216,002.9,W*76
$GPGGA,195426,5056.0393,N,00123.7699,W,1,02,1.0,25.6,M,46.9,M,,*6A
t302967,302501
$GPRMC,195427,A,5056.0390,N,00123.7714,W,003.2,324.4,080216,002.9,W*75
$GPGGA,195427,5056.0390,N,00123.7714,W,1,02,1.0,27.2,M,46.9,M,,*6A
t304013,303501
$GPRMC,195428,A,5056.0388,N,00123.7724,W,003.4,331.8,080216,002.9,W*7E
$GPGGA,195428,5056.0388,N,00123.7724,W,1,02,1.0,28.3,M,46.9,M,,*61
t304954,304500
$GPRMC,195429,A,5056.0395,N,00123.7731,W,003.1,342.9,080216,002.9,W*77
$GPGGA,195429,5056.0395,N,00123.7731,W,1,02,1.0,28.5,M,46.9,M,,*6E
t305960,305500
$GPRMC,195430,A,5056.0401,N,00123.7732,W,002.1,332.5,080216,002.9,W*7C
$GPGGA,195430,5056.0401,N,00123.7732,W,1,02,1.0,29.2,M,46.9,M,,*69
t306951,306499
$GPRMC,195431,A,5056.0410,N,00123.7740,W,001.7,329.4,080216,002.9,W*76
$GPGGA,195431,5056.0410,N,00123.7740,W,1,02,1.0,30.2,M,46.9,M,,*65
t307951,307499
$GPRMC,195432,A,5056.0421,N,00123.7743,W,002.6,331.3,080216,002.9,W*78
$GPGGA,195432,5056.0421,N,00123.7743,W,1,02,1.0,31.0,M,46.9,M,,*64
t308951,308498
$GPRMC,195433,A,5056.0430,N,00123.7749,W,003.8,342.7,080216,002.9,W*7C
$GPGGA,195433,5056.0430,N,00123.7749,W,1,02,1.0,31.7,M,46.9,M,,*68
t310050,309497
$GPRMC,195434,A,5056.0438,N,00123.7757,W,003.6,351.5,080216,002.9,W*72
$GPGGA,195434,5056.0438,N,00123.7757,W,1,02,1.0,32.3,M,46.9,M,,*6F
t310959,310497
$GPRMC,195435,A,5056.0437,N,00123.7765,W,003.3,343.7,080216,002.9,W*79
$GPGGA,195435,5056.0437,N,00123.7765,W,1,02,1.0,33.3,M,46.9,M,,*61
t311966,311496
$GPRMC,195436,A,5056.0443,N,00123.7769,W,003.7,347.6,080216,002.9,W*74
$GPGGA,195436,5056.0443,N,00123.7769,W,1,02,1.0,33.9,M,46.9,M,,*67
t312949,312496
$GPRMC,195437,A,5056.0447,N,00123.7779,W,002.2,328.4,080216,002.9,W*7F
$GPGGA,195437,5056.0447,N,00123.7779,W,1,02,1.0,35.0,M,46.9,M,,*6C
t313946,313495
$GPRMC,195438,A,5056.0460,N,00123.7781,W,002.5,347.2,080216,002.9,W*7A
$GPGGA,195438,5056.0460,N,00123.7781,W,1,02,1.0,34.7,M,46.9,M,,*67
t314951,314494
$GPRMC,195439,A,5056.0466,N,00123.7783,W,002.3,347.0,080216,002.9,W*7B
$GPGGA,195439,5056.0466,N,00123.7783,W,1,02,1.0,34.1,M,46.9,M,,*64
t315953,315495
$GPRMC,195440,A,5056.0471,N,00123.7787,W,002.7,342.2,080216,002.9,W*74
$GPGGA,195440,5056.0471,N,00123.7787,W,1,02,1.0,34.1,M,46.9,M,,*68
t316949,316494
$GPRMC,195441,A,5056.0479,N,00123.7803,W,002.6,336.1,080216,002.9,W*7F
$GPGGA,195441,5056.0479,N,00123.7803,W,1,02,1.0,33.6,M,46.9,M,,*62
t317954,317494
$GPRMC,195442,A,5056.0487,N,00123.7809,W,003.2,332.8,080216,002.9,W*7F
$GPGGA,195442,5056.0487,N,00123.7809,W,1,02,1.0,33.4,M,46.9,M,,*68
t318955,318493
$GPRMC,195443,A,5056.0493,N,00123.7817,W,003.1,342.2,080216,002.9,W*7A
$GPGGA,195443,5056.0493,N,00123.7817,W,1,02,1.0,34.2,M,46.9,M,,*62
t319942,319493
$GPRMC,195444,A,5056.0503,N,00123.7822,W,003.3,333.8,080216,002.9,W*7D
$GPGGA,195444,5056.0503,N,00123.7822,W,1,02,1.0,34.2,M,46.9,M,,*6B
t320966,320492
$GPRMC,195445,A,5056.0504,N,00123.7836,W,002.7,320.1,080216,002.9,W*70
$GPGGA,195445,5056.0504,N,00123.7836,W,1,02,1.0,34.0,M,46.9,M,,*6A
t321954,321491
$GPRMC,195446,A,5056.0508,N,00123.7843,W,002.0,306.5,080216,002.9,W*7A
$GPGGA,195446,5056.0508,N,00123.7843,W,1,02,1.0,33.8,M,46.9,M,,*68
t322946,322491
$GPRMC,195447,A,5056.0509,N,00123.7850,W,001.9,260.2,080216,002.9,W*74
$GPGGA,195447,5056.0509,N,00123.7850,W,1,02,1.0,33.8,M,46.9,M,,*6A
t323954,323490
$GPRMC,195448,A,5056.0503,N,00123.7854,W,001.9,238.5,080216,002.9,W*7F
$GPGGA,195448,5056.0503,N,00123.7854,W,1,02,1.0,33.9,M,46.9,M,,*6A
t324954,324490
$GPRMC,195449,A,5056.0500,N,00123.7864,W,002.8,259.8,080216,002.9,W*76
$GPGGA,195449,5056.0500,N,00123.7864,W,1,02,1.0,33.8,M,46.9,M,,*6A
t325955,325489
$GPRMC,195450,A,5056.0497,N,00123.7884,W,003.0,263.5,080216,002.9,W*72
$GPGGA,195450,5056.0497,N,00123.7884,W,1,02,1.0,34.6,M,46.9,M,,*6A
t326947,326489
$GPRMC,195451,A,5056.0495,N,00123.7895,W,002.3,250.5,080216,002.9,W*73
$GPGGA,195451,5056.0495,N,00123.7895,W,1,02,1.0,34.4,M,46.9,M,,*6B
t327945,327488
$GPRMC,195452,A,5056.0493,N,00123.7906,W,002.8,251.1,080216,002.9,W*73
$GPGGA,195452,5056.0493,N,00123.7906,W,1,02,1.0,34.3,M,46.9,M,,*62
t328956,328488
$GPRMC,195453,A,5056.0492,N,00123.7918,W,002.3,268.5,080216,002.9,W*79
$GPGGA,195453,5056.0492,N,00123.7918,W,1,02,1.0,33.3,M,46.9,M,,*6A
t329943,329488
$GPRMC,195454,A,5056.0495,N,00123.7917,W,001.9,267.4,080216,002.9,W*71
$GPGGA,195454,5056.0495,N,00123.7917,W,1,02,1.0,33.8,M,46.9,M,,*6E
t330940,330487
$GPRMC,195455,A,5056.0491,N,00123.7937,W,002.6,263.9,080216,002.9,W*73
$GPGGA,195455,5056.0491,N,00123.7937,W,1,02,1.0,33.1,M,46.9,M,,*60
t331951,331487
$GPRMC,195456,A,5056.0491,N,00123.7950,W,002.1,280.1,080216,002.9,W*73
$GPGGA,195456,5056.0491,N,00123.7950,W,1,02,1.0,33.0,M,46.9,M,,*63
t332943,332486
$GPRMC,195457,A,5056.0491,N,00123.7960,W,002.2,265.2,080216,002.9,W*7A
$GPGGA,195457,5056.0491,N,00123.7960,W,1,02,1.0,33.0,M,46.9,M,,*61
t333931,333486
$GPRMC,195458,A,5056.0491,N,00123.7970,W,001.8,269.1,080216,002.9,W*72
$GPGGA,195458,5056.0491,N,00123.7970,W,1,02,1.0,32.9,M,46.9,M,,*67
t334932,334485
$GPRMC,195459,A,5056.0489,N,00123.7984,W,002.0,261.6,080216,002.9,W*75
$GPGGA,195459,5056.0489,N,00123.7984,W,1,02,1.0,32.6,M,46.9,M,,*6B
t335937,335484
$GPRMC,195500,A,5056.0486,N,00123.7993,W,002.1,249.4,080216,002.9,W*78
$GPGGA,195500,5056.0486,N,00123.7993,W,1,02,1.0,32.4,M,46.9,M,,*6D
t336932,336484
$GPRMC,195501,A,5056.0483,N,00123.8003,W,002.3,236.1,080216,002.9,W*7C
$GPGGA,195501,5056.0483,N,00123.8003,W,1,02,1.0,32.3,M,46.9,M,,*61
t337926,337483
$GPRMC,195502,A,5056.0475,N,00123.8010,W,002.9,218.3,080216,002.9,W*70
$GPGGA,195502,5056.0475,N,00123.8010,W,1,02,1.0,32.1,M,46.9,M,,*6B
t338953,338483
$GPRMC,195503,A,5056.0473,N,00123.8015,W,001.9,212.0,080216,002.9,W*78
$GPGGA,195503,5056.0473,N,00123.8015,W,1,02,1.1,,M,46.9,M,,*76
t339907,339482
$GPRMC,195504,A,5056.0469,N,00123.8020,W,001.7,212.0,080216,002.9,W*7C
$GPGGA,195504,5056.0469,N,00123.8020,W,1,02,1.0,31.5,M,46.9,M,,*64
t341033,339482
$GPRMC,195505,A,5056.0467,N,00123.8022,W,000.8,212.0,080216,002.9,W*7F
$GPGGA,195505,5056.0467,N,00123.8022,W,1,02,1.1,,M,46.9,M,,*71
t341913,341482
$GPRMC,195506,A,5056.0463,N,00123.8028,W,001.9,225.0,080216,002.9,W*76
$GPGGA,195506,5056.0463,N,00123.8028,W,1,02,1.1,31.2,M,46.9,M,,*62
t342924,341482
$GPRMC,195507,A,5056.0458,N,00123.8035,W,002.2,222.5,080216,002.9,W*79
$GPGGA,195507,5056.0458,N,00123.8035,W,1,02,1.0,,M,46.9,M,,*78
t343906,343481
$GPRMC,195508,A,5056.0454,N,00123.8040,W,001.5,222.5,080216,002.9,W*7C
$GPGGA,195508,5056.0454,N,00123.8040,W,1,02,1.1,,M,46.9,M,,*78
t344914,343481
$GPRMC,195509,A,5056.0444,N,00123.8043,W,002.7,183.3,080216,002.9,W*70
$GPGGA,195509,5056.0444,N,00123.8043,W,1,02,1.0,30.5,M,46.9,M,,*62
t345939,343481
$GPRMC,195510,A,5056.0436,N,00123.8042,W,003.0,184.3,080216,002.9,W*7D
$GPGGA,195510,5056.0436,N,00123.8042,W,1,02,1.0,30.3,M,46.9,M,,*68
t346916,346479
$GPRMC,195511,A,5056.0427,N,00123.8045,W,003.0,186.5,080216,002.9,W*7F
$GPGGA,195511,5056.0427,N,00123.8045,W,1,02,1.0,29.9,M,46.9,M,,*6C
t347922,347479
$GPRMC,195512,A,5056.0426,N,00123.8044,W,002.7,180.9,080216,002.9,W*70
$GPGGA,195512,5056.0426,N,00123.8044,W,1,02,1.0,29.7,M,46.9,M,,*61
t348933,348478
$GPRMC,195513,A,5056.0418,N,00123.8048,W,002.8,201.9,080216,002.9,W*75
$GPGGA,195513,5056.0418,N,00123.8048,W,1,02,1.1,,M,46.9,M,,*72
t349898,349477
$GPRMC,195514,A,5056.0412,N,00123.8055,W,002.6,221.5,080216,002.9,W*74
$GPGGA,195514,5056.0412,N,00123.8055,W,1,02,1.1,29.0,M,46.9,M,,*66
t350939,349477
$GPRMC,195515,A,5056.0406,N,00123.8069,W,002.2,232.4,080216,002.9,W*78
$GPGGA,195515,5056.0406,N,00123.8069,W,1,02,1.1,,M,46.9,M,,*78
t351897,351476
$GPRMC,195516,A,5056.0401,N,00123.8080,W,002.0,237.6,080216,002.9,W*7E
$GPGGA,195516,5056.0401,N,00123.8080,W,1,02,1.0,28.4,M,46.9,M,,*6A
t352924,351476
$GPRMC,195517,A,5056.0398,N,00123.8088,W,002.0,243.1,080216,002.9,W*74
$GPGGA,195517,5056.0398,N,00123.8088,W,1,02,1.0,28.1,M,46.9,M,,*61
t353931,353475
$GPRMC,195518,A,5056.0394,N,00123.8101,W,002.3,248.5,080216,002.9,W*7B
$GPGGA,195518,5056.0394,N,00123.8101,W,1,02,1.0,,M,46.9,M,,*77
t354897,354475
$GPRMC,195519,A,5056.0393,N,00123.8107,W,001.4,248.5,080216,002.9,W*7F
$GPGGA,195519,5056.0393,N,00123.8107,W,1,02,1.0,27.5,M,46.9,M,,*69
t355943,354475
$GPRMC,195520,A,5056.0390,N,00123.8114,W,001.6,248.5,080216,002.9,W*76
$GPGGA,195520,5056.0390,N,00123.8114,W,1,02,1.0,27.2,M,46.9,M,,*65
t356924,356474
$GPRMC,195521,A,5056.0382,N,00123.8123,W,002.3,214.6,080216,002.9,W*7C
$GPGGA,195521,5056.0382,N,00123.8123,W,1,02,1.0,26.9,M,46.9,M,,*69
t357920,357474
$GPRMC,195522,A,5056.0378,N,00123.8127,W,001.5,214.6,080216,002.9,W*7B
$GPGGA,195522,5056.0378,N,00123.8127,W,1,02,1.0,26.7,M,46.9,M,,*65
t358930,358473
$GPRMC,195523,A,5056.0374,N,00123.8127,W,001.5,214.6,080216,002.9,W*76
$GPGGA,195523,5056.0374,N,00123.8127,W,1,02,1.0,26.4,M,46.9,M,,*6B
t359924,359473
$GPRMC,195524,A,5056.0370,N,00123.8128,W,001.2,214.6,080216,002.9,W*7D
$GPGGA,195524,5056.0370,N,00123.8128,W,1,02,1.0,26.1,M,46.9,M,,*62
t360926,360472
$GPRMC,195525,A,5056.0367,N,00123.8128,W,001.1,214.6,080216,002.9,W*79
$GPGGA,195525,5056.0367,N,00123.8128,W,1,02,1.0,25.9,M,46.9,M,,*6E
t361918,361472
$GPRMC,195526,A,5056.0363,N,00123.8130,W,001.3,214.6,080216,002.9,W*75
$GPGGA,195526,5056.0363,N,00123.8130,W,1,02,1.0,25.6,M,46.9,M,,*6F
t362943,362471
$GPRMC,195527,A,5056.0359,N,00123.8134,W,001.4,214.6,080216,002.9,W*7E
$GPGGA,195527,5056.0359,N,00123.8134,W,1,02,1.0,25.3,M,46.9,M,,*66
t363917,363470
$GPRMC,195528,A,5056.0352,N,00123.8135,W,002.0,172.6,080216,002.9,W*7F
$GPGGA,195528,5056.0352,N,00123.8135,W,1,02,1.2,25.1,M,46.9,M,,*63
t364900,364470
$GPRMC,195529,A,5056.0344,N,00123.8139,W,001.9,171.7,080216,002.9,W*7D
$GPGGA,195529,5056.0344,N,00123.8139,W,1,02,1.2,24.7,M,46.9,M,,*6E
t365936,365469
$GPRMC,195530,A,5056.0339,N,00123.8137,W,001.8,170.5,080216,002.9,W*73
$GPGGA,195530,5056.0339,N,00123.8137,W,1,02,1.4,,M,46.9,M,,*7B
t366886,366469
$GPRMC,195531,A,5056.0334,N,00123.8140,W,001.9,190.7,080216,002.9,W*72
$GPGGA,195531,5056.0334,N,00123.8140,W,1,02,1.2,24.2,M,46.9,M,,*6B
t367899,366469
$GPRMC,195532,A,5056.0329,N,00123.8142,W,001.7,190.7,080216,002.9,W*71
$GPGGA,195532,5056.0329,N,00123.8142,W,1,02,1.0,,M,46.9,M,,*7E
t368904,368468
$GPRMC,195533,A,5056.0326,N,00123.8141,W,001.2,190.7,080216,002.9,W*79
$GPGGA,195533,5056.0326,N,00123.8141,W,1,02,1.0,,M,46.9,M,,*73
t369884,368468
$GPRMC,195534,A,5056.0326,N,00123.8139,W,000.6,190.7,080216,002.9,W*74
$GPGGA,195534,5056.0326,N,00123.8139,W,1,03,0.9,,M,46.9,M,,*72
t370904,368468
$GPRMC,195535,A,5056.0328,N,00123.8137,W,000.4,190.7,080216,002.9,W*77
$GPGGA,195535,5056.0328,N,00123.8137,W,1,02,1.0,23.2,M,46.9,M,,*67
t372015,368468
$GPRMC,195536,A,5056.0333,N,00123.8131,W,001.8,038.5,080216,002.9,W*74
$GPGGA,195536,5056.0333,N,00123.8131,W,1,02,1.0,,M,46.9,M,,*75
t372890,372466
$GPRMC,195537,V,5056.0337,N,00123.8126,W,001.8,038.5,080216,002.9,W*60
$GPGGA,195537,5056.0337,N,00123.8126,W,0,02,1.0,,M,46.9,M,,*77
t373869,372466
$GPRMC,195538,A,5056.0331,N,00123.8123,W,000.9,038.5,080216,002.9,W*7B
$GPGGA,195538,5056.0331,N,00123.8123,W,1,02,1.1,,M,46.9,M,,*7B
t374893,372466
$GPRMC,195539,A,5056.0329,N,00123.8123,W,000.5,038.5,080216,002.9,W*7F
$GPGGA,195539,5056.0329,N,00123.8123,W,1,02,1.1,,M,46.9,M,,*73
t375901,372466
$GPRMC,195540,A,5056.0329,N,00123.8123,W,000.2,038.5,080216,002.9,W*76
$GPGGA,195540,5056.0329,N,00123.8123,W,1,02,1.0,22.6,M,46.9,M,,*64
t376910,372466
$GPRMC,195541,A,5056.0327,N,00123.8123,W,000.4,038.5,080216,002.9,W*7F
$GPGGA,195541,5056.0327,N,00123.8123,W,1,02,1.0,22.6,M,46.9,M,,*6B
t377911,377463
$GPRMC,195542,A,5056.0327,N,00123.8119,W,000.6,038.5,080216,002.9,W*77
$GPGGA,195542,5056.0327,N,00123.8119,W,1,02,1.0,22.6,M,46.9,M,,*61
t378902,378463
$GPRMC,195543,A,5056.0324,N,00123.8118,W,000.9,038.5,080216,002.9,W*7B
$GPGGA,195543,5056.0324,N,00123.8118,W,1,02,1.0,,M,46.9,M,,*7A
t379984,379462
$GPRMC,195544,A,5056.0321,N,00123.8116,W,000.9,038.5,080216,002.9,W*77
$GPGGA,195544,5056.0321,N,00123.8116,W,1,02,1.0,,M,46.9,M,,*76
t380907,379462
$GPRMC,195545,A,5056.0321,N,00123.8113,W,000.2,038.5,080216,002.9,W*78
$GPGGA,195545,5056.0321,N,00123.8113,W,1,02,1.0,22.5,M,46.9,M,,*69
t381908,379462
$GPRMC,195546,A,5056.0321,N,00123.8106,W,000.8,038.5,080216,002.9,W*75
$GPGGA,195546,5056.0321,N,00123.8106,W,1,02,1.2,,M,46.9,M,,*77
t382878,382461
$GPRMC,195547,A,5056.0321,N,00123.8103,W,000.7,038.5,080216,002.9,W*7E
$GPGGA,195547,5056.0321,N,00123.8103,W,1,02,1.4,,M,46.9,M,,*75
t383882,382461
$GPRMC,195548,V,5056.0322,N,00123.8100,W,000.7,038.5,080216,002.9,W*66
$GPGGA,195548,5056.0322,N,00123.8100,W,0,02,1.4,,M,46.9,M,,*7B
t384872,382461
$GPRMC,195549,A,5056.0327,N,00123.8099,W,000.9,038.5,080216,002.9,W*7A
$GPGGA,195549,5056.0327,N,00123.8099,W,1,02,1.0,,M,46.9,M,,*7B
t385895,382461
$GPRMC,195550,A,5056.0330,N,00123.8099,W,001.2,038.5,080216,002.9,W*7E
$GPGGA,195550,5056.0330,N,00123.8099,W,1,02,1.0,,M,46.9,M,,*75
t386894,382461
$GPRMC,195551,V,5056.0334,N,00123.8098,W,001.2,038.5,080216,002.9,W*6D
$GPGGA,195551,5056.0334,N,00123.8098,W,0,02,1.0,,M,46.9,M,,*70
t387886,382461
$GPRMC,195552,A,5056.0335,N,00123.8113,W,002.4,306.1,080216,002.9,W*75
$GPGGA,195552,5056.0335,N,00123.8113,W,1,02,1.2,22.1,M,46.9,M,,*6C
t388888,382461
$GPRMC,195553,A,5056.0336,N,00123.8123,W,002.5,289.8,080216,002.9,W*7A
$GPGGA,195553,5056.0336,N,00123.8123,W,1,02,1.0,22.0,M,46.9,M,,*6E
t389905,389457
$GPRMC,195554,A,5056.0333,N,00123.8130,W,002.3,271.1,080216,002.9,W*72
$GPGGA,195554,5056.0333,N,00123.8130,W,1,02,2.1,,M,46.9,M,,*72
t390879,390457
$GPRMC,195555,V,5056.0334,N,00123.8140,W,002.3,271.1,080216,002.9,W*64
$GPGGA,195555,5056.0334,N,00123.8140,W,0,02,2.1,,M,46.9,M,,*72
t391855,390457
$GPRMC,195556,A,5056.0333,N,00123.8129,W,002.3,318.1,080216,002.9,W*76
$GPGGA,195556,5056.0333,N,00123.8129,W,1,02,1.0,21.0,M,46.9,M,,*67
t392926,390457
$GPRMC,195557,A,5056.0336,N,00123.8140,W,001.9,321.7,080216,002.9,W*78
$GPGGA,195557,5056.0336,N,00123.8140,W,1,02,1.0,21.1,M,46.9,M,,*6D
t393906,393455
$GPRMC,195558,A,5056.0340,N,00123.8142,W,002.1,331.9,080216,002.9,W*70
$GPGGA,195558,5056.0340,N,00123.8142,W,1,02,1.1,,M,46.9,M,,*7C
t394873,394456
$GPRMC,195559,A,5056.0344,N,00123.8146,W,001.4,331.9,080216,002.9,W*77
$GPGGA,195559,5056.0344,N,00123.8146,W,1,02,1.1,,M,46.9,M,,*7D
t395897,394456
$GPRMC,195600,A,5056.0339,N,00123.8156,W,001.3,331.9,080216,002.9,W*74
$GPGGA,195600,5056.0339,N,00123.8156,W,1,02,1.1,,M,46.9,M,,*79
t396880,394456
$GPRMC,195601,A,5056.0339,N,00123.8155,W,001.3,331.9,080216,002.9,W*76
$GPGGA,195601,5056.0339,N,00123.8155,W,1,02,1.1,,M,46.9,M,,*7B
t397872,394456
$GPRMC,195602,A,5056.0336,N,00123.8171,W,002.1,302.8,080216,002.9,W*7C
$GPGGA,195602,5056.0336,N,00123.8171,W,1,02,1.1,,M,46.9,M,,*71
t398891,394456
$GPRMC,195603,A,5056.0337,N,00123.8174,W,001.2,302.8,080216,002.9,W*79
$GPGGA,195603,5056.0337,N,00123.8174,W,1,02,1.1,,M,46.9,M,,*74
t399883,394456
$GPRMC,195604,A,5056.0337,N,00123.8183,W,001.4,302.8,080216,002.9,W*70
$GPGGA,195604,5056.0337,N,00123.8183,W,1,02,1.0,20.1,M,46.9,M,,*67
t400906,394456
$GPRMC,195605,A,5056.0340,N,00123.8187,W,002.2,324.4,080216,002.9,W*78
$GPGGA,195605,5056.0340,N,00123.8187,W,1,02,1.0,20.0,M,46.9,M,,*63
t401905,401452
$GPRMC,195606,A,5056.0346,N,00123.8197,W,001.9,311.5,080216,002.9,W*73
$GPGGA,195606,5056.0346,N,00123.8197,W,1,02,1.1,,M,46.9,M,,*7A
t402975,402451
$GPRMC,195607,A,5056.0345,N,00123.8206,W,001.2,311.5,080216,002.9,W*71
$GPGGA,195607,5056.0345,N,00123.8206,W,1,02,1.0,20.0,M,46.9,M,,*6E
t403889,402451
$GPRMC,195608,A,5056.0347,N,00123.8210,W,001.6,311.5,080216,002.9,W*7F
$GPGGA,195608,5056.0347,N,00123.8210,W,1,02,1.1,,M,46.9,M,,*79
t404887,404450
$GPRMC,195609,A,5056.0347,N,00123.8216,W,001.0,311.5,080216,002.9,W*7E
$GPGGA,195609,5056.0347,N,00123.8216,W,1,02,1.0,20.0,M,46.9,M,,*63
t405912,404450
$GPRMC,195610,V,5056.0349,N,00123.8215,W,001.0,311.5,080216,002.9,W*6C
$GPGGA,195610,5056.0349,N,00123.8215,W,0,02,1.0,20.0,M,46.9,M,,*67
t406874,406449
$GPRMC,195611,A,5056.0348,N,00123.8222,W,000.6,311.5,080216,002.9,W*78
$GPGGA,195611,5056.0348,N,00123.8222,W,1,02,1.1,,M,46.9,M,,*7F
t407881,406449
$GPRMC,195612,A,5056.0418,N,00123.8357,W,000.5,311.5,080216,002.9,W*79
$GPGGA,195612,5056.0418,N,00123.8357,W,1,02,1.0,21.0,M,46.9,M,,*61
t408900,406449
$GPRMC,195613,A,5056.0418,N,00123.8360,W,000.9,311.5,080216,002.9,W*70
$GPGGA,195613,5056.0418,N,00123.8360,W,1,02,1.4,,M,46.9,M,,*7D
t409883,409448
$GPRMC,195614,V,5056.0420,N,00123.8364,W,000.9,311.5,080216,002.9,W*6F
$GPGGA,195614,5056.0420,N,00123.8364,W,0,02,1.4,,M,46.9,M,,*74
t410873,409448
$GPRMC,195615,A,5056.0418,N,00123.8373,W,001.4,311.5,080216,002.9,W*78
$GPGGA,195615,5056.0418,N,00123.8373,W,1,02,1.0,,M,46.9,M,,*7D
t411872,409448
$GPRMC,195616,A,5056.0416,N,00123.8378,W,001.1,311.5,080216,002.9,W*7B
$GPGGA,195616,5056.0416,N,00123.8378,W,1,02,1.0,,M,46.9,M,,*7B
t412869,409448
$GPRMC,195617,A,5056.0412,N,00123.8376,W,001.0,311.5,080216,002.9,W*71
$GPGGA,195617,5056.0412,N,00123.8376,W,1,02,1.0,,M,46.9,M,,*70
t413876,409448
$GPRMC,195618,A,5056.0411,N,00123.8377,W,000.4,311.5,080216,002.9,W*79
$GPGGA,195618,5056.0411,N,00123.8377,W,1,02,1.0,,M,46.9,M,,*7D
t414867,409448
$GPRMC,195619,A,5056.0409,N,00123.8381,W,000.9,311.5,080216,002.9,W*75
$GPGGA,195619,5056.0409,N,00123.8381,W,1,02,1.0,,M,46.9,M,,*7C
t415880,409448
$GPRMC,195620,A,5056.0407,N,00123.8390,W,001.7,243.2,080216,002.9,W*7F
$GPGGA,195620,5056.0407,N,00123.8390,W,1,02,1.0,,M,46.9,M,,*78
t416886,409448
$GPRMC,195621,A,5056.0405,N,00123.8401,W,002.0,253.7,080216,002.9,W*73
$GPGGA,195621,5056.0405,N,00123.8401,W,1,02,1.0,21.3,M,46.9,M,,*6A
t417896,409448
$GPRMC,195622,A,5056.0406,N,00123.8412,W,002.5,285.8,080216,002.9,W*70
$GPGGA,195622,5056.0406,N,00123.8412,W,1,02,1.0,,M,46.9,M,,*76
t418865,418443
$GPRMC,195623,A,5056.0409,N,00123.8422,W,002.8,296.9,080216,002.9,W*73
$GPGGA,195623,5056.0409,N,00123.8422,W,1,02,1.0,21.3,M,46.9,M,,*65
t419886,418443
$GPRMC,195624,A,5056.0404,N,00123.8444,W,002.2,268.4,080216,002.9,W*7F
$GPGGA,195624,5056.0404,N,00123.8444,W,1,02,1.0,21.3,M,46.9,M,,*6F
t420898,420442
$GPRMC,195625,A,5056.0403,N,00123.8460,W,002.3,281.6,080216,002.9,W*7B
$GPGGA,195625,5056.0403,N,00123.8460,W,1,02,1.2,21.3,M,46.9,M,,*6D
t421875,421442
$GPRMC,195626,A,5056.0399,N,00123.8481,W,002.7,282.7,080216,002.9,W*75
$GPGGA,195626,5056.0399,N,00123.8481,W,1,02,1.0,21.3,M,46.9,M,,*67
t422904,422441
$GPRMC,195627,A,5056.0398,N,00123.8494,W,001.4,282.7,080216,002.9,W*71
$GPGGA,195627,5056.0398,N,00123.8494,W,1,02,1.0,21.3,M,46.9,M,,*63
t423892,423441
$GPRMC,195628,A,5056.0393,N,00123.8520,W,001.9,281.6,080216,002.9,W*74
$GPGGA,195628,5056.0393,N,00123.8520,W,1,02,1.0,21.2,M,46.9,M,,*68
t424884,424440
$GPRMC,195629,A,5056.0384,N,00123.8544,W,002.1,280.5,080216,002.9,W*78
$GPGGA,195629,5056.0384,N,00123.8544,W,1,02,1.0,,M,46.9,M,,*72
t425879,425440
$GPRMC,195630,A,5056.0383,N,00123.8558,W,001.7,291.7,080216,002.9,W*7D
$GPGGA,195630,5056.0383,N,00123.8558,W,1,02,1.0,21.3,M,46.9,M,,*6E
t426906,425440
$GPRMC,195631,A,5056.0352,N,00123.8629,W,001.9,275.5,080216,002.9,W*73
$GPGGA,195631,5056.0352,N,00123.8629,W,1,02,1.0,20.9,M,46.9,M,,*6D
t427885,427439
$GPRMC,195632,A,5056.0338,N,00123.8664,W,002.4,279.7,080216,002.9,W*75
$GPGGA,195632,5056.0338,N,00123.8664,W,1,02,1.0,20.6,M,46.9,M,,*64
t428893,428438
$GPRMC,195633,A,5056.0344,N,00123.8665,W,002.2,293.5,080216,002.9,W*7E
$GPGGA,195633,5056.0344,N,00123.8665,W,1,02,1.0,20.8,M,46.9,M,,*61
t429887,429437
$GPRMC,195634,A,5056.0335,N,00123.8697,W,002.6,290.5,080216,002.9,W*75
$GPGGA,195634,5056.0335,N,00123.8697,W,1,02,1.0,20.9,M,46.9,M,,*6C
t430898,430437
$GPRMC,195635,A,5056.0367,N,00123.8791,W,002.0,266.8,080216,002.9,W*76
$GPGGA,195635,5056.0367,N,00123.8791,W,1,02,1.0,22.6,M,46.9,M,,*60
t431906,431436
$GPRMC,195636,A,5056.0368,N,00123.8866,W,002.7,278.1,080216,002.9,W*7C
$GPGGA,195636,5056.0368,N,00123.8866,W,1,02,1.0,23.2,M,46.9,M,,*6E
t432890,432436
$GPRMC,195637,A,5056.0380,N,00123.8907,W,002.3,269.9,080216,002.9,W*71
$GPGGA,195637,5056.0380,N,00123.8907,W,1,02,1.0,23.4,M,46.9,M,,*69
t433982,433435
$GPRMC,195638,A,5056.0371,N,00123.8918,W,001.7,289.4,080216,002.9,W*7A
$GPGGA,195638,5056.0371,N,00123.8918,W,1,02,1.0,23.0,M,46.9,M,,*62
t434899,434436
$GPRMC,195639,A,5056.0390,N,00123.8936,W,002.2,281.1,080216,002.9,W*73
$GPGGA,195639,5056.0390,N,00123.8936,W,1,02,1.0,23.5,M,46.9,M,,*65
t435896,435435
$GPRMC,195640,A,5056.0393,N,00123.8951,W,001.9,283.4,080216,002.9,W*70
$GPGGA,195640,5056.0393,N,00123.8951,W,1,02,1.0,23.3,M,46.9,M,,*6F
