$GPRMC,155947,A,5055.9586,N,00123.7510,W,000.0,077.0,120216,002.9,W*74
$GPGGA,155947,5055.9586,N,00123.7510,W,1,01,0.9,38.3,M,46.9,M,,*64
t2270,1884
$GPRMC,155948,A,5055.9586,N,00123.7510,W,000.0,077.0,120216,002.9,W*7B
$GPGGA,155948,5055.9586,N,00123.7510,W,1,01,0.9,38.3,M,46.9,M,,*6B
t3274,2883
$GPRMC,155949,A,5055.9585,N,00123.7510,W,000.0,077.0,120216,002.9,W*79
$GPGGA,155949,5055.9585,N,00123.7510,W,1,01,0.9,38.3,M,46.9,M,,*69
t4268,3883
$GPRMC,155950,A,5055.9586,N,00123.7510,W,000.0,077.0,120216,002.9,W*72
$GPGGA,155950,5055.9586,N,00123.7510,W,1,01,0.9,38.3,M,46.9,M,,*62
t5279,4882
$GPRMC,155951,A,5055.9586,N,00123.7510,W,000.0,077.0,120216,002.9,W*73
$GPGGA,155951,5055.9586,N,00123.7510,W,1,01,0.9,38.3,M,46.9,M,,*63
t6256,5881
$GPRMC,155952,A,5055.9586,N,00123.7510,W,000.0,077.0,120216,002.9,W*70
$GPGGA,155952,5055.9586,N,00123.7510,W,1,01,0.9,38.3,M,46.9,M,,*60
t7267,6881
$GPRMC,155953,A,5055.9586,N,00123.7510,W,000.0,077.0,120216,002.9,W*71
$GPGGA,155953,5055.9586,N,00123.7510,W,1,01,0.9,38.3,M,46.9,M,,*61
t8271,7880
$GPRMC,155954,A,5055.9586,N,00123.7510,W,000.0,077.0,120216,002.9,W*76
$GPGGA,155954,5055.9586,N,00123.7510,W,1,01,1.0,38.3,M,46.9,M,,*6E
t9260,8881
$GPRMC,155955,A,5055.9586,N,00123.7510,W,000.0,077.0,120216,002.9,W*77
$GPGGA,155955,5055.9586,N,00123.7510,W,1,01,0.9,38.3,M,46.9,M,,*67
t10265,9880
$GPRMC,155956,A,5055.9586,N,00123.7510,W,000.0,077.0,120216,002.9,W*74
$GPGGA,155956,5055.9586,N,00123.7510,W,1,01,0.9,38.3,M,46.9,M,,*64
t11271,10880
$GPRMC,155957,A,5055.9586,N,00123.7509,W,000.0,077.0,120216,002.9,W*7D
$GPGGA,155957,5055.9586,N,00123.7509,W,1,01,0.9,38.3,M,46.9,M,,*6D
t12256,11879
$GPRMC,155958,A,5055.9586,N,00123.7509,W,000.0,077.0,120216,002.9,W*72
$GPGGA,155958,5055.9586,N,00123.7509,W,1,01,1.0,38.3,M,46.9,M,,*6A
t13272,12878
$GPRMC,155959,A,5055.9586,N,00123.7509,W,000.0,077.0,120216,002.9,W*73
$GPGGA,155959,5055.9586,N,00123.7509,W,1,01,0.9,38.3,M,46.9,M,,*63
t14352,13878
$GPRMC,160000,A,5055.9586,N,00123.7509,W,000.0,077.0,120216,002.9,W*70
$GPGGA,160000,5055.9586,N,00123.7509,W,1,01,0.9,38.3,M,46.9,M,,*60
t15253,14877
$GPRMC,160001,A,5055.9586,N,00123.7509,W,000.0,077.0,120216,002.9,W*71
$GPGGA,160001,5055.9586,N,00123.7509,W,1,01,0.9,38.3,M,46.9,M,,*61
t16354,15877
$GPRMC,160002,A,5055.9586,N,00123.7509,W,000.0,077.0,120216,002.9,W*72
$GPGGA,160002,5055.9586,N,00123.7509,W,1,01,0.9,38.3,M,46.9,M,,*62
t17259,16876
$GPRMC,160003,A,5055.9586,N,00123.7509,W,000.0,077.0,120216,002.9,W*73
$GPGGA,160003,5055.9586,N,00123.7509,W,1,01,0.9,38.3,M,46.9,M,,*63
t18266,17875
$GPRMC,160004,A,5055.9586,N,00123.7509,W,000.0,077.0,120216,002.9,W*74
$GPGGA,160004,5055.9586,N,00123.7509,W,1,01,0.9,38.3,M,46.9,M,,*64
t19260,18875
$GPRMC,160005,A,5055.9586,N,00123.7509,W,000.0,077.0,120216,002.9,W*75
$GPGGA,160005,5055.9586,N,00123.7509,W,1,01,0.9,38.3,M,46.9,M,,*65
t20257,19874
$GPRMC,160006,A,5055.9586,N,00123.7509,W,000.0,077.0,120216,002.9,W*76
$GPGGA,160006,5055.9586,N,00123.7509,W,1,01,0.9,38.3,M,46.9,M,,*66
t21249,20874
$GPRMC,160007,A,5055.9586,N,00123.7509,W,000.0,077.0,120216,002.9,W*77
$GPGGA,160007,5055.9586,N,00123.7509,W,1,01,0.9,38.3,M,46.9,M,,*67
t22256,21873
$GPRMC,160008,A,5055.9586,N,00123.7509,W,000.0,077.0,120216,002.9,W*78
$GPGGA,160008,5055.9586,N,00123.7509,W,1,01,0.9,38.3,M,46.9,M,,*68
t23271,22874
$GPRMC,160009,A,5055.9586,N,00123.7509,W,000.0,077.0,120216,002.9,W*79
$GPGGA,160009,5055.9586,N,00123.7509,W,1,01,0.9,38.3,M,46.9,M,,*69
t24249,23873
$GPRMC,160010,A,5055.9586,N,00123.7509,W,000.0,077.0,120216,002.9,W*71
$GPGGA,160010,5055.9586,N,00123.7509,W,1,01,0.9,38.3,M,46.9,M,,*61
t25254,24872
$GPRMC,160011,A,5055.9586,N,00123.7509,W,000.0,077.0,120216,002.9,W*70
$GPGGA,160011,5055.9586,N,00123.7509,W,1,01,0.9,38.3,M,46.9,M,,*60
t26249,25872
$GPRMC,160012,A,5055.9586,N,00123.7509,W,000.0,077.0,120216,002.9,W*73
$GPGGA,160012,5055.9586,N,00123.7509,W,1,01,0.9,38.3,M,46.9,M,,*63
t27247,26871
$GPRMC,160013,A,5055.9586,N,00123.7509,W,000.0,077.0,120216,002.9,W*72
$GPGGA,160013,5055.9586,N,00123.7509,W,1,01,0.9,38.3,M,46.9,M,,*62
t28265,27871
$GPRMC,160014,A,5055.9586,N,00123.7508,W,000.0,077.0,120216,002.9,W*74
$GPGGA,160014,5055.9586,N,00123.7508,W,1,01,0.9,38.3,M,46.9,M,,*64
t29267,28870
$GPRMC,160015,A,5055.9586,N,00123.7509,W,000.0,077.0,120216,002.9,W*74
$GPGGA,160015,5055.9586,N,00123.7509,W,1,01,0.9,38.3,M,46.9,M,,*64
t30246,29870
$GPRMC,160016,A,5055.9586,N,00123.7508,W,000.0,077.0,120216,002.9,W*76
$GPGGA,160016,5055.9586,N,00123.7508,W,1,01,0.9,38.3,M,46.9,M,,*66
t31253,30869
$GPRMC,160017,A,5055.9586,N,00123.7508,W,000.0,077.0,120216,002.9,W*77
$GPGGA,160017,5055.9586,N,00123.7508,W,1,01,0.9,38.2,M,46.9,M,,*66
t32253,31868
$GPRMC,160018,A,5055.9586,N,00123.7508,W,000.0,077.0,120216,002.9,W*78
$GPGGA,160018,5055.9586,N,00123.7508,W,1,01,1.0,38.2,M,46.9,M,,*61
t33254,32868
$GPRMC,160019,A,5055.9586,N,00123.7508,W,000.0,077.0,120216,002.9,W*79
$GPGGA,160019,5055.9586,N,00123.7508,W,1,01,0.9,38.2,M,46.9,M,,*68
t34252,33867
$GPRMC,160020,A,5055.9586,N,00123.7508,W,000.0,077.0,120216,002.9,W*73
$GPGGA,160020,5055.9586,N,00123.7508,W,1,01,0.9,38.2,M,46.9,M,,*62
t35262,34867
$GPRMC,160021,A,5055.9586,N,00123.7508,W,000.0,077.0,120216,002.9,W*72
$GPGGA,160021,5055.9586,N,00123.7508,W,1,01,1.0,38.2,M,46.9,M,,*6B
t36249,35867
$GPRMC,160022,A,5055.9586,N,00123.7508,W,000.0,077.0,120216,002.9,W*71
$GPGGA,160022,5055.9586,N,00123.7508,W,1,01,1.0,38.2,M,46.9,M,,*68
t37242,36867
$GPRMC,160023,A,5055.9586,N,00123.7508,W,000.0,077.0,120216,002.9,W*70
$GPGGA,160023,5055.9586,N,00123.7508,W,1,01,0.9,38.2,M,46.9,M,,*61
t38261,37866
$GPRMC,160024,A,5055.9586,N,00123.7508,W,000.0,077.0,120216,002.9,W*77
$GPGGA,160024,5055.9586,N,00123.7508,W,1,01,1.0,38.2,M,46.9,M,,*6E
t39250,38865
$GPRMC,160025,A,5055.9586,N,00123.7508,W,000.0,077.0,120216,002.9,W*76
$GPGGA,160025,5055.9586,N,00123.7508,W,1,01,0.9,38.2,M,46.9,M,,*67
t40252,39865
$GPRMC,160026,A,5055.9586,N,00123.7508,W,000.0,077.0,120216,002.9,W*75
$GPGGA,160026,5055.9586,N,00123.7508,W,1,01,0.9,38.2,M,46.9,M,,*64
t41256,40864
$GPRMC,160027,A,5055.9586,N,00123.7508,W,000.0,077.0,120216,002.9,W*74
$GPGGA,160027,5055.9586,N,00123.7508,W,1,01,1.0,38.2,M,46.9,M,,*6D
t42241,41864
$GPRMC,160028,A,5055.9586,N,00123.7509,W,000.0,077.0,120216,002.9,W*7A
$GPGGA,160028,5055.9586,N,00123.7509,W,1,01,1.0,38.2,M,46.9,M,,*63
t43254,42863
$GPRMC,160029,A,5055.9586,N,00123.7509,W,000.0,077.0,120216,002.9,W*7B
$GPGGA,160029,5055.9586,N,00123.7509,W,1,01,0.9,38.2,M,46.9,M,,*6A
t44250,43863
$GPRMC,160030,A,5055.9586,N,00123.7509,W,000.0,077.0,120216,002.9,W*73
$GPGGA,160030,5055.9586,N,00123.7509,W,1,01,1.0,38.2,M,46.9,M,,*6A
t45239,44862
$GPRMC,160031,A,5055.9586,N,00123.7509,W,000.0,077.0,120216,002.9,W*72
$GPGGA,160031,5055.9586,N,00123.7509,W,1,01,1.0,38.2,M,46.9,M,,*6B
t46244,45861
$GPRMC,160032,A,5055.9586,N,00123.7509,W,000.0,077.0,120216,002.9,W*71
$GPGGA,160032,5055.9586,N,00123.7509,W,1,01,1.0,38.2,M,46.9,M,,*68
t47367,46861
$GPRMC,160033,A,5055.9586,N,00123.7509,W,000.0,077.0,120216,002.9,W*70
$GPGGA,160033,5055.9586,N,00123.7509,W,1,01,0.9,38.2,M,46.9,M,,*61
t48260,47860
$GPRMC,160034,A,5055.9586,N,00123.7509,W,000.0,077.0,120216,002.9,W*77
$GPGGA,160034,5055.9586,N,00123.7509,W,1,01,0.9,38.2,M,46.9,M,,*66
t49258,48860
$GPRMC,160035,A,5055.9586,N,00123.7509,W,000.0,077.0,120216,002.9,W*76
$GPGGA,160035,5055.9586,N,00123.7509,W,1,01,0.9,38.2,M,46.9,M,,*67
t50259,49860
$GPRMC,160036,A,5055.9586,N,00123.7509,W,000.0,077.0,120216,002.9,W*75
$GPGGA,160036,5055.9586,N,00123.7509,W,1,01,1.0,38.2,M,46.9,M,,*6C
t51235,50860
$GPRMC,160037,A,5055.9586,N,00123.7510,W,000.0,077.0,120216,002.9,W*7C
$GPGGA,160037,5055.9586,N,00123.7510,W,1,01,0.9,38.2,M,46.9,M,,*6D
t52260,51859
$GPRMC,160038,A,5055.9587,N,00123.7510,W,000.0,077.0,120216,002.9,W*72
$GPGGA,160038,5055.9587,N,00123.7510,W,1,01,1.0,38.2,M,46.9,M,,*6B
t53256,52858
$GPRMC,160039,A,5055.9587,N,00123.7510,W,000.0,077.0,120216,002.9,W*73
$GPGGA,160039,5055.9587,N,00123.7510,W,1,01,1.0,38.2,M,46.9,M,,*6A
t54232,53858
$GPRMC,160040,A,5055.9587,N,00123.7510,W,000.0,077.0,120216,002.9,W*7D
$GPGGA,160040,5055.9587,N,00123.7510,W,1,01,1.0,38.2,M,46.9,M,,*64
t55240,54857
$GPRMC,160041,A,5055.9587,N,00123.7510,W,000.0,077.0,120216,002.9,W*7C
$GPGGA,160041,5055.9587,N,00123.7510,W,1,01,1.0,38.2,M,46.9,M,,*65
t56239,55857
$GPRMC,160042,A,5055.9587,N,00123.7510,W,000.0,077.0,120216,002.9,W*7F
$GPGGA,160042,5055.9587,N,00123.7510,W,1,01,1.0,38.2,M,46.9,M,,*66
t57229,56856
$GPRMC,160043,A,5055.9587,N,00123.7510,W,000.0,077.0,120216,002.9,W*7E
$GPGGA,160043,5055.9587,N,00123.7510,W,1,01,1.0,38.2,M,46.9,M,,*67
t58241,57856
$GPRMC,160044,A,5055.9587,N,00123.7510,W,000.0,077.0,120216,002.9,W*79
$GPGGA,160044,5055.9587,N,00123.7510,W,1,01,1.0,38.2,M,46.9,M,,*60
t59248,58855
$GPRMC,160045,A,5055.9587,N,00123.7510,W,000.0,077.0,120216,002.9,W*78
$GPGGA,160045,5055.9587,N,00123.7510,W,1,01,1.0,38.2,M,46.9,M,,*61
t60229,59854
$GPRMC,160046,A,5055.9587,N,00123.7510,W,000.0,077.0,120216,002.9,W*7B
$GPGGA,160046,5055.9587,N,00123.7510,W,1,01,1.0,38.2,M,46.9,M,,*62
t61236,60854
$GPRMC,160047,A,5055.9587,N,00123.7510,W,000.0,077.0,120216,002.9,W*7A
$GPGGA,160047,5055.9587,N,00123.7510,W,1,01,1.0,38.2,M,46.9,M,,*63
t62236,61853
$GPRMC,160048,A,5055.9587,N,00123.7511,W,000.0,077.0,120216,002.9,W*74
$GPGGA,160048,5055.9587,N,00123.7511,W,1,01,1.0,38.2,M,46.9,M,,*6D
t63235,62854
$GPRMC,160049,A,5055.9587,N,00123.7511,W,000.0,077.0,120216,002.9,W*75
$GPGGA,160049,5055.9587,N,00123.7511,W,1,01,1.0,38.2,M,46.9,M,,*6C
t64234,63853
$GPRMC,160050,A,5055.9587,N,00123.7511,W,000.0,077.0,120216,002.9,W*7D
$GPGGA,160050,5055.9587,N,00123.7511,W,1,01,1.0,38.2,M,46.9,M,,*64
t65244,64852
$GPRMC,160051,A,5055.9587,N,00123.7511,W,000.0,077.0,120216,002.9,W*7C
$GPGGA,160051,5055.9587,N,00123.7511,W,1,01,1.0,38.2,M,46.9,M,,*65
t66227,65852
$GPRMC,160052,A,5055.9587,N,00123.7511,W,000.0,077.0,120216,002.9,W*7F
$GPGGA,160052,5055.9587,N,00123.7511,W,1,01,1.0,38.2,M,46.9,M,,*66
t67245,66851
$GPRMC,160053,A,5055.9587,N,00123.7511,W,000.0,077.0,120216,002.9,W*7E
$GPGGA,160053,5055.9587,N,00123.7511,W,1,01,1.0,38.2,M,46.9,M,,*67
t68244,67851
$GPRMC,160054,A,5055.9587,N,00123.7511,W,000.0,077.0,120216,002.9,W*79
$GPGGA,160054,5055.9587,N,00123.7511,W,1,01,1.0,38.2,M,46.9,M,,*60
t69225,68850
$GPRMC,160055,A,5055.9587,N,00123.7511,W,000.0,077.0,120216,002.9,W*78
$GPGGA,160055,5055.9587,N,00123.7511,W,1,01,1.0,38.2,M,46.9,M,,*61
t70234,69850
$GPRMC,160056,A,5055.9587,N,00123.7511,W,000.0,077.0,120216,002.9,W*7B
$GPGGA,160056,5055.9587,N,00123.7511,W,1,01,1.0,38.2,M,46.9,M,,*62
t71245,70849
$GPRMC,160057,A,5055.9587,N,00123.7511,W,000.0,077.0,120216,002.9,W*7A
$GPGGA,160057,5055.9587,N,00123.7511,W,1,01,1.0,38.2,M,46.9,M,,*63
t72224,71848
$GPRMC,160058,A,5055.9587,N,00123.7512,W,000.0,077.0,120216,002.9,W*76
$GPGGA,160058,5055.9587,N,00123.7512,W,1,01,1.0,38.2,M,46.9,M,,*6F
t73240,72848
$GPRMC,160059,A,5055.9587,N,00123.7512,W,000.0,077.0,120216,002.9,W*77
$GPGGA,160059,5055.9587,N,00123.7512,W,1,01,1.0,38.2,M,46.9,M,,*6E
t74232,73847
$GPRMC,160100,A,5055.9587,N,00123.7512,W,000.0,077.0,120216,002.9,W*7A
$GPGGA,160100,5055.9587,N,00123.7512,W,1,01,1.0,38.2,M,46.9,M,,*63
t75224,74847
$GPRMC,160101,A,5055.9587,N,00123.7512,W,000.0,077.0,120216,002.9,W*7B
$GPGGA,160101,5055.9587,N,00123.7512,W,1,01,1.0,38.2,M,46.9,M,,*62
t76233,75846
$GPRMC,160102,A,5055.9587,N,00123.7512,W,000.0,077.0,120216,002.9,W*78
$GPGGA,160102,5055.9587,N,00123.7512,W,1,01,1.0,38.2,M,46.9,M,,*61
t77242,76847
$GPRMC,160103,A,5055.9587,N,00123.7512,W,000.0,077.0,120216,002.9,W*79
$GPGGA,160103,5055.9587,N,00123.7512,W,1,01,1.0,38.2,M,46.9,M,,*60
t78329,77846
$GPRMC,160104,A,5055.9587,N,00123.7512,W,000.0,077.0,120216,002.9,W*7E
$GPGGA,160104,5055.9587,N,00123.7512,W,1,01,1.0,38.2,M,46.9,M,,*67
t79222,78845
$GPRMC,160105,A,5055.9587,N,00123.7512,W,000.0,077.0,120216,002.9,W*7F
$GPGGA,160105,5055.9587,N,00123.7512,W,1,01,1.0,38.2,M,46.9,M,,*66
t80221,79845
$GPRMC,160106,A,5055.9587,N,00123.7512,W,000.0,077.0,120216,002.9,W*7C
$GPGGA,160106,5055.9587,N,00123.7512,W,1,01,1.0,38.2,M,46.9,M,,*65
t81221,80844
$GPRMC,160107,A,5055.9587,N,00123.7512,W,000.0,077.0,120216,002.9,W*7D
$GPGGA,160107,5055.9587,N,00123.7512,W,1,01,1.0,38.2,M,46.9,M,,*64
t82230,81844
$GPRMC,160108,A,5055.9587,N,00123.7512,W,000.0,077.0,120216,002.9,W*72
$GPGGA,160108,5055.9587,N,00123.7512,W,1,01,1.0,38.2,M,46.9,M,,*6B
t83240,82843
$GPRMC,160109,A,5055.9587,N,00123.7513,W,000.0,077.0,120216,002.9,W*72
$GPGGA,160109,5055.9587,N,00123.7513,W,1,01,1.0,38.2,M,46.9,M,,*6B
t84217,83843
$GPRMC,160110,A,5055.9587,N,00123.7513,W,000.0,077.0,120216,002.9,W*7A
$GPGGA,160110,5055.9587,N,00123.7513,W,1,01,1.0,38.2,M,46.9,M,,*63
t85226,84842
$GPRMC,160111,A,5055.9587,N,00123.7513,W,000.0,077.0,120216,002.9,W*7B
$GPGGA,160111,5055.9587,N,00123.7513,W,1,01,1.0,38.2,M,46.9,M,,*62
t86227,85841
$GPRMC,160112,A,5055.9587,N,00123.7513,W,000.0,077.0,120216,002.9,W*78
$GPGGA,160112,5055.9587,N,00123.7513,W,1,01,1.0,38.2,M,46.9,M,,*61
t87216,86841
$GPRMC,160113,A,5055.9587,N,00123.7513,W,000.0,077.0,120216,002.9,W*79
$GPGGA,160113,5055.9587,N,00123.7513,W,1,01,1.0,38.3,M,46.9,M,,*61
t88235,87840
$GPRMC,160114,A,5055.9587,N,00123.7513,W,000.0,077.0,120216,002.9,W*7E
$GPGGA,160114,5055.9587,N,00123.7513,W,1,01,1.0,38.3,M,46.9,M,,*66
t89230,88840
$GPRMC,160115,A,5055.9587,N,00123.7513,W,000.0,077.0,120216,002.9,W*7F
$GPGGA,160115,5055.9587,N,00123.7513,W,1,01,1.0,38.3,M,46.9,M,,*67
t90331,89840
$GPRMC,160116,A,5055.9587,N,00123.7513,W,000.0,077.0,120216,002.9,W*7C
$GPGGA,160116,5055.9587,N,00123.7513,W,1,01,1.0,38.3,M,46.9,M,,*64
t91225,90840
$GPRMC,160117,A,5055.9588,N,00123.7513,W,000.0,077.0,120216,002.9,W*72
$GPGGA,160117,5055.9588,N,00123.7513,W,1,01,1.0,38.3,M,46.9,M,,*6A
t92223,91839
$GPRMC,160118,A,5055.9588,N,00123.7513,W,000.0,077.0,120216,002.9,W*7D
$GPGGA,160118,5055.9588,N,00123.7513,W,1,01,1.0,38.3,M,46.9,M,,*65
t93224,92838
$GPRMC,160119,A,5055.9588,N,00123.7513,W,000.0,077.0,120216,002.9,W*7C
$GPGGA,160119,5055.9588,N,00123.7513,W,1,01,1.0,38.3,M,46.9,M,,*64
t94224,93838
$GPRMC,160120,A,5055.9588,N,00123.7513,W,000.0,077.0,120216,002.9,W*76
$GPGGA,160120,5055.9588,N,00123.7513,W,1,01,1.0,38.3,M,46.9,M,,*6E
t95237,94837
$GPRMC,160121,A,5055.9588,N,00123.7513,W,000.0,077.0,120216,002.9,W*77
$GPGGA,160121,5055.9588,N,00123.7513,W,1,01,1.0,38.3,M,46.9,M,,*6F
t96217,95837
$GPRMC,160122,A,5055.9588,N,00123.7513,W,000.0,077.0,120216,002.9,W*74
$GPGGA,160122,5055.9588,N,00123.7513,W,1,01,1.0,38.3,M,46.9,M,,*6C
t97229,96836
$GPRMC,160123,A,5055.9588,N,00123.7514,W,000.0,077.0,120216,002.9,W*72
$GPGGA,160123,5055.9588,N,00123.7514,W,1,01,1.0,38.3,M,46.9,M,,*6A
t98230,97836
$GPRMC,160124,A,5055.9588,N,00123.7514,W,000.0,077.0,120216,002.9,W*75
$GPGGA,160124,5055.9588,N,00123.7514,W,1,01,1.0,38.3,M,46.9,M,,*6D
t99215,98835
$GPRMC,160125,A,5055.9588,N,00123.7514,W,000.0,077.0,120216,002.9,W*74
$GPGGA,160125,5055.9588,N,00123.7514,W,1,01,1.0,38.3,M,46.9,M,,*6C
t100211,99834
$GPRMC,160126,A,5055.9588,N,00123.7514,W,000.0,077.0,120216,002.9,W*77
$GPGGA,160126,5055.9588,N,00123.7514,W,1,01,1.0,38.3,M,46.9,M,,*6F
t101221,100834
$GPRMC,160127,A,5055.9588,N,00123.7514,W,000.0,077.0,120216,002.9,W*76
$GPGGA,160127,5055.9588,N,00123.7514,W,1,01,1.0,38.3,M,46.9,M,,*6E
t102212,101833
$GPRMC,160128,A,5055.9588,N,00123.7514,W,000.0,077.0,120216,002.9,W*79
$GPGGA,160128,5055.9588,N,00123.7514,W,1,01,1.0,38.4,M,46.9,M,,*66
t103229,102834
$GPRMC,160129,A,5055.9588,N,00123.7514,W,000.0,077.0,120216,002.9,W*78
$GPGGA,160129,5055.9588,N,00123.7514,W,1,01,0.9,38.4,M,46.9,M,,*6F
t104219,103833
$GPRMC,160130,A,5055.9588,N,00123.7514,W,000.0,077.0,120216,002.9,W*70
$GPGGA,160130,5055.9588,N,00123.7514,W,1,01,1.0,38.4,M,46.9,M,,*6F
t105211,104833
$GPRMC,160131,A,5055.9588,N,00123.7514,W,000.0,077.0,120216,002.9,W*71
$GPGGA,160131,5055.9588,N,00123.7514,W,1,01,1.0,38.4,M,46.9,M,,*6E
t106217,105832
$GPRMC,160132,A,5055.9588,N,00123.7514,W,000.0,077.0,120216,002.9,W*72
$GPGGA,160132,5055.9588,N,00123.7514,W,1,01,1.0,38.4,M,46.9,M,,*6D
t107230,106831
$GPRMC,160133,A,5055.9588,N,00123.7514,W,000.0,077.0,120216,002.9,W*73
$GPGGA,160133,5055.9588,N,00123.7514,W,1,01,1.0,38.4,M,46.9,M,,*6C
t108224,107831
$GPRMC,160134,A,5055.9588,N,00123.7514,W,000.0,077.0,120216,002.9,W*74
$GPGGA,160134,5055.9588,N,00123.7514,W,1,01,1.0,38.4,M,46.9,M,,*6B
t109314,108830
$GPRMC,160135,A,5055.9588,N,00123.7514,W,000.0,077.0,120216,002.9,W*75
$GPGGA,160135,5055.9588,N,00123.7514,W,1,01,1.0,38.4,M,46.9,M,,*6A
t110208,109830
$GPRMC,160136,A,5055.9588,N,00123.7514,W,000.0,077.0,120216,002.9,W*76
$GPGGA,160136,5055.9588,N,00123.7514,W,1,01,1.1,38.4,M,46.9,M,,*68
t111220,110829
$GPRMC,160137,A,5055.9588,N,00123.7514,W,000.0,077.0,120216,002.9,W*77
$GPGGA,160137,5055.9588,N,00123.7514,W,1,01,1.0,38.5,M,46.9,M,,*69
t112216,111828
$GPRMC,160138,A,5055.9588,N,00123.7514,W,000.0,077.0,120216,002.9,W*78
$GPGGA,160138,5055.9588,N,00123.7514,W,1,01,1.0,38.5,M,46.9,M,,*66
t113225,112828
$GPRMC,160139,A,5055.9589,N,00123.7514,W,000.0,077.0,120216,002.9,W*78
$GPGGA,160139,5055.9589,N,00123.7514,W,1,01,1.0,38.5,M,46.9,M,,*66
t114211,113827
$GPRMC,160140,A,5055.9589,N,00123.7514,W,000.0,077.0,120216,002.9,W*76
$GPGGA,160140,5055.9589,N,00123.7514,W,1,01,1.0,38.5,M,46.9,M,,*68
t115209,114827
$GPRMC,160141,A,5055.9589,N,00123.7515,W,000.0,077.0,120216,002.9,W*76
$GPGGA,160141,5055.9589,N,00123.7515,W,1,01,1.0,38.5,M,46.9,M,,*68
t116212,115826
$GPRMC,160142,A,5055.9589,N,00123.7515,W,000.0,077.0,120216,002.9,W*75
$GPGGA,160142,5055.9589,N,00123.7515,W,1,01,1.0,38.5,M,46.9,M,,*6B
t117209,116827
$GPRMC,160143,A,5055.9589,N,00123.7515,W,000.0,077.0,120216,002.9,W*74
$GPGGA,160143,5055.9589,N,00123.7515,W,1,01,1.0,38.5,M,46.9,M,,*6A
t118218,117826
$GPRMC,160144,A,5055.9589,N,00123.7515,W,000.0,077.0,120216,002.9,W*73
$GPGGA,160144,5055.9589,N,00123.7515,W,1,01,1.0,38.5,M,46.9,M,,*6D
t119222,118825
$GPRMC,160145,A,5055.9589,N,00123.7515,W,000.0,077.0,120216,002.9,W*72
$GPGGA,160145,5055.9589,N,00123.7515,W,1,01,1.0,38.5,M,46.9,M,,*6C
t120208,119825
$GPRMC,160146,A,5055.9589,N,00123.7515,W,000.0,077.0,120216,002.9,W*71
$GPGGA,160146,5055.9589,N,00123.7515,W,1,01,1.0,38.5,M,46.9,M,,*6F
t121206,120824
$GPRMC,160147,A,5055.9589,N,00123.7514,W,000.0,077.0,120216,002.9,W*71
$GPGGA,160147,5055.9589,N,00123.7514,W,1,01,1.0,38.5,M,46.9,M,,*6F
t122209,121824
$GPRMC,160148,A,5055.9589,N,00123.7514,W,000.0,077.0,120216,002.9,W*7E
$GPGGA,160148,5055.9589,N,00123.7514,W,1,01,1.0,38.5,M,46.9,M,,*60
t123202,122823
$GPRMC,160149,A,5055.9589,N,00123.7514,W,000.0,077.0,120216,002.9,W*7F
$GPGGA,160149,5055.9589,N,00123.7514,W,1,01,1.0,38.6,M,46.9,M,,*62
t124207,123823
$GPRMC,160150,A,5055.9589,N,00123.7514,W,000.0,077.0,120216,002.9,W*77
$GPGGA,160150,5055.9589,N,00123.7514,W,1,01,1.0,38.6,M,46.9,M,,*6A
t125211,124822
$GPRMC,160151,A,5055.9589,N,00123.7514,W,000.0,077.0,120216,002.9,W*76
$GPGGA,160151,5055.9589,N,00123.7514,W,1,01,1.0,38.6,M,46.9,M,,*6B
t126204,125821
$GPRMC,160152,A,5055.9589,N,00123.7514,W,000.0,077.0,120216,002.9,W*75
$GPGGA,160152,5055.9589,N,00123.7514,W,1,01,1.0,38.6,M,46.9,M,,*68
t127204,126821
$GPRMC,160153,A,5055.9589,N,00123.7514,W,000.0,077.0,120216,002.9,W*74
$GPGGA,160153,5055.9589,N,00123.7514,W,1,01,1.0,38.6,M,46.9,M,,*69
t128211,127820
$GPRMC,160154,A,5055.9589,N,00123.7514,W,000.0,077.0,120216,002.9,W*73
$GPGGA,160154,5055.9589,N,00123.7514,W,1,01,1.0,38.6,M,46.9,M,,*6E
t129204,128820
$GPRMC,160155,A,5055.9589,N,00123.7514,W,000.0,077.0,120216,002.9,W*72
$GPGGA,160155,5055.9589,N,00123.7514,W,1,01,0.9,38.6,M,46.9,M,,*67
t130221,129820
$GPRMC,160156,A,5055.9589,N,00123.7514,W,000.0,077.0,120216,002.9,W*71
$GPGGA,160156,5055.9589,N,00123.7514,W,1,01,0.9,38.6,M,46.9,M,,*64
t131219,130820
$GPRMC,160157,A,5055.9589,N,00123.7514,W,000.0,077.0,120216,002.9,W*70
$GPGGA,160157,5055.9589,N,00123.7514,W,1,01,0.9,38.6,M,46.9,M,,*65
t132208,131819
$GPRMC,160158,A,5055.9589,N,00123.7514,W,000.0,077.0,120216,002.9,W*7F
$GPGGA,160158,5055.9589,N,00123.7514,W,1,01,0.9,38.6,M,46.9,M,,*6A
t133226,132818
$GPRMC,160159,A,5055.9589,N,00123.7514,W,000.0,077.0,120216,002.9,W*7E
$GPGGA,160159,5055.9589,N,00123.7514,W,1,01,0.9,38.6,M,46.9,M,,*6B
t134216,133818
$GPRMC,160200,A,5055.9589,N,00123.7514,W,000.0,077.0,120216,002.9,W*71
$GPGGA,160200,5055.9589,N,00123.7514,W,1,01,0.9,38.6,M,46.9,M,,*64
t135211,134817
$GPRMC,160201,A,5055.9589,N,00123.7514,W,000.0,077.0,120216,002.9,W*70
$GPGGA,160201,5055.9589,N,00123.7514,W,1,01,0.9,38.6,M,46.9,M,,*65
t136215,135817
$GPRMC,160202,A,5055.9589,N,00123.7514,W,000.0,077.0,120216,002.9,W*73
$GPGGA,160202,5055.9589,N,00123.7514,W,1,01,0.9,38.6,M,46.9,M,,*66
t137228,136816
$GPRMC,160203,A,5055.9589,N,00123.7514,W,000.0,077.0,120216,002.9,W*72
$GPGGA,160203,5055.9589,N,00123.7514,W,1,01,0.9,38.6,M,46.9,M,,*67
t138209,137816
$GPRMC,160204,A,5055.9589,N,00123.7514,W,000.0,077.0,120216,002.9,W*75
$GPGGA,160204,5055.9589,N,00123.7514,W,1,01,0.9,38.6,M,46.9,M,,*60
t139206,138815
$GPRMC,160205,A,5055.9589,N,00123.7514,W,000.0,077.0,120216,002.9,W*74
$GPGGA,160205,5055.9589,N,00123.7514,W,1,01,0.9,38.6,M,46.9,M,,*61
t140308,139814
$GPRMC,160206,A,5055.9589,N,00123.7514,W,000.0,077.0,120216,002.9,W*77
$GPGGA,160206,5055.9589,N,00123.7514,W,1,01,0.9,38.6,M,46.9,M,,*62
t141214,140814
$GPRMC,160207,A,5055.9589,N,00123.7514,W,000.0,077.0,120216,002.9,W*76
$GPGGA,160207,5055.9589,N,00123.7514,W,1,01,0.9,38.6,M,46.9,M,,*63
t142196,141813
$GPRMC,160208,A,5055.9589,N,00123.7514,W,000.0,077.0,120216,002.9,W*79
$GPGGA,160208,5055.9589,N,00123.7514,W,1,01,0.9,38.6,M,46.9,M,,*6C
t143232,142813
$GPRMC,160209,A,5055.9589,N,00123.7514,W,000.0,077.0,120216,002.9,W*78
$GPGGA,160209,5055.9589,N,00123.7514,W,1,01,0.9,38.5,M,46.9,M,,*6E
t144197,143813
$GPRMC,160210,A,5055.9589,N,00123.7514,W,000.0,077.0,120216,002.9,W*70
$GPGGA,160210,5055.9589,N,00123.7514,W,1,01,0.9,38.5,M,46.9,M,,*66
t145197,144813
$GPRMC,160211,A,5055.9589,N,00123.7514,W,000.0,077.0,120216,002.9,W*71
$GPGGA,160211,5055.9589,N,00123.7514,W,1,01,0.9,38.5,M,46.9,M,,*67
t146201,145812
$GPRMC,160212,A,5055.9589,N,00123.7514,W,000.0,077.0,120216,002.9,W*72
$GPGGA,160212,5055.9589,N,00123.7514,W,1,01,0.9,38.5,M,46.9,M,,*64
t147195,146811
$GPRMC,160213,A,5055.9589,N,00123.7514,W,000.0,077.0,120216,002.9,W*73
$GPGGA,160213,5055.9589,N,00123.7514,W,1,01,0.9,38.5,M,46.9,M,,*65
t148203,147811
$GPRMC,160214,A,5055.9589,N,00123.7514,W,000.0,077.0,120216,002.9,W*74
$GPGGA,160214,5055.9589,N,00123.7514,W,1,01,0.9,38.5,M,46.9,M,,*62
t149210,148810
$GPRMC,160215,A,5055.9589,N,00123.7513,W,000.0,077.0,120216,002.9,W*72
$GPGGA,160215,5055.9589,N,00123.7513,W,1,01,0.9,38.5,M,46.9,M,,*64
t150195,149810
$GPRMC,160216,A,5055.9589,N,00123.7513,W,000.0,077.0,120216,002.9,W*71
$GPGGA,160216,5055.9589,N,00123.7513,W,1,01,0.9,38.5,M,46.9,M,,*67
t151193,150809
$GPRMC,160217,A,5055.9589,N,00123.7513,W,000.0,077.0,120216,002.9,W*70
$GPGGA,160217,5055.9589,N,00123.7513,W,1,01,0.9,38.5,M,46.9,M,,*66
t152195,151809
$GPRMC,160218,A,5055.9589,N,00123.7513,W,000.0,077.0,120216,002.9,W*7F
$GPGGA,160218,5055.9589,N,00123.7513,W,1,01,0.9,38.5,M,46.9,M,,*69
t153199,152808
$GPRMC,160219,A,5055.9589,N,00123.7514,W,000.0,077.0,120216,002.9,W*79
$GPGGA,160219,5055.9589,N,00123.7514,W,1,01,0.9,38.6,M,46.9,M,,*6C
t154193,153807
$GPRMC,160220,A,5055.9589,N,00123.7513,W,000.0,077.0,120216,002.9,W*74
$GPGGA,160220,5055.9589,N,00123.7513,W,1,01,0.9,38.6,M,46.9,M,,*61
t155203,154807
$GPRMC,160221,A,5055.9589,N,00123.7513,W,000.0,077.0,120216,002.9,W*75
$GPGGA,160221,5055.9589,N,00123.7513,W,1,01,0.9,38.6,M,46.9,M,,*60
t156193,155806
$GPRMC,160222,A,5055.9589,N,00123.7513,W,000.0,077.0,120216,002.9,W*76
$GPGGA,160222,5055.9589,N,00123.7513,W,1,01,0.9,38.6,M,46.9,M,,*63
t157181,156807
$GPRMC,160223,A,5055.9589,N,00123.7513,W,000.0,077.0,120216,002.9,W*77
$GPGGA,160223,5055.9589,N,00123.7513,W,1,01,0.9,38.6,M,46.9,M,,*62
t158199,157806
$GPRMC,160224,A,5055.9589,N,00123.7513,W,000.0,077.0,120216,002.9,W*70
$GPGGA,160224,5055.9589,N,00123.7513,W,1,01,0.9,38.6,M,46.9,M,,*65
t159192,158806
$GPRMC,160225,A,5055.9589,N,00123.7513,W,000.0,077.0,120216,002.9,W*71
$GPGGA,160225,5055.9589,N,00123.7513,W,1,01,0.9,38.6,M,46.9,M,,*64
t160181,159805
$GPRMC,160226,A,5055.9589,N,00123.7513,W,000.0,077.0,120216,002.9,W*72
$GPGGA,160226,5055.9589,N,00123.7513,W,1,01,0.9,38.6,M,46.9,M,,*67
t161205,160804
$GPRMC,160227,A,5055.9589,N,00123.7513,W,000.0,077.0,120216,002.9,W*73
$GPGGA,160227,5055.9589,N,00123.7513,W,1,01,0.9,38.6,M,46.9,M,,*66
t162190,161804
$GPRMC,160228,A,5055.9589,N,00123.7513,W,000.0,077.0,120216,002.9,W*7C
$GPGGA,160228,5055.9589,N,00123.7513,W,1,01,0.9,38.6,M,46.9,M,,*69
t163190,162803
$GPRMC,160229,A,5055.9589,N,00123.7513,W,000.0,077.0,120216,002.9,W*7D
$GPGGA,160229,5055.9589,N,00123.7513,W,1,01,0.9,38.6,M,46.9,M,,*68
t164182,163803
$GPRMC,160230,A,5055.9590,N,00123.7513,W,000.0,077.0,120216,002.9,W*7D
$GPGGA,160230,5055.9590,N,00123.7513,W,1,01,0.9,38.6,M,46.9,M,,*68
t165196,164802
$GPRMC,160231,A,5055.9590,N,00123.7513,W,000.0,077.0,120216,002.9,W*7C
$GPGGA,160231,5055.9590,N,00123.7513,W,1,01,0.9,38.6,M,46.9,M,,*69
t166279,165801
$GPRMC,160232,A,5055.9590,N,00123.7513,W,000.0,077.0,120216,002.9,W*7F
$GPGGA,160232,5055.9590,N,00123.7513,W,1,01,0.9,38.6,M,46.9,M,,*6A
t167198,166801
$GPRMC,160233,A,5055.9590,N,00123.7513,W,000.0,077.0,120216,002.9,W*7E
$GPGGA,160233,5055.9590,N,00123.7513,W,1,01,0.9,38.6,M,46.9,M,,*6B
t168201,167800
$GPRMC,160234,A,5055.9590,N,00123.7513,W,000.0,077.0,120216,002.9,W*79
$GPGGA,160234,5055.9590,N,00123.7513,W,1,01,0.9,38.6,M,46.9,M,,*6C
t169178,168800
$GPRMC,160235,A,5055.9590,N,00123.7513,W,000.0,077.0,120216,002.9,W*78
$GPGGA,160235,5055.9590,N,00123.7513,W,1,01,0.9,38.6,M,46.9,M,,*6D
t170202,169799
$GPRMC,160236,A,5055.9590,N,00123.7512,W,000.0,077.0,120216,002.9,W*7A
$GPGGA,160236,5055.9590,N,00123.7512,W,1,01,0.9,38.6,M,46.9,M,,*6F
t171292,170800
$GPRMC,160237,A,5055.9590,N,00123.7512,W,000.0,077.0,120216,002.9,W*7B
$GPGGA,160237,5055.9590,N,00123.7512,W,1,01,0.8,38.6,M,46.9,M,,*6F
t172211,171799
$GPRMC,160238,A,5055.9590,N,00123.7512,W,000.0,077.0,120216,002.9,W*74
$GPGGA,160238,5055.9590,N,00123.7512,W,1,01,0.8,38.6,M,46.9,M,,*60
t173229,172798
$GPRMC,160239,A,5055.9590,N,00123.7513,W,000.0,077.0,120216,002.9,W*74
$GPGGA,160239,5055.9590,N,00123.7513,W,1,01,0.9,38.6,M,46.9,M,,*61
t174183,173798
$GPRMC,160240,A,5055.9590,N,00123.7513,W,000.0,077.0,120216,002.9,W*7A
$GPGGA,160240,5055.9590,N,00123.7513,W,1,01,0.9,38.6,M,46.9,M,,*6F
t175183,174797
$GPRMC,160241,A,5055.9590,N,00123.7513,W,000.0,077.0,120216,002.9,W*7B
$GPGGA,160241,5055.9590,N,00123.7513,W,1,01,0.9,38.6,M,46.9,M,,*6E
t176199,175797
$GPRMC,160242,A,5055.9590,N,00123.7513,W,000.0,077.0,120216,002.9,W*78
$GPGGA,160242,5055.9590,N,00123.7513,W,1,01,0.8,38.6,M,46.9,M,,*6C
t177216,176796
$GPRMC,160243,A,5055.9590,N,00123.7513,W,000.0,077.0,120216,002.9,W*79
$GPGGA,160243,5055.9590,N,00123.7513,W,1,01,0.9,38.7,M,46.9,M,,*6D
t178199,177796
$GPRMC,160244,A,5055.9590,N,00123.7513,W,000.0,077.0,120216,002.9,W*7E
$GPGGA,160244,5055.9590,N,00123.7513,W,1,01,0.9,38.7,M,46.9,M,,*6A
t179214,178795
$GPRMC,160245,A,5055.9590,N,00123.7513,W,000.0,077.0,120216,002.9,W*7F
$GPGGA,160245,5055.9590,N,00123.7513,W,1,01,0.9,38.7,M,46.9,M,,*6B
t180209,179794
$GPRMC,160246,A,5055.9590,N,00123.7513,W,000.0,077.0,120216,002.9,W*7C
$GPGGA,160246,5055.9590,N,00123.7513,W,1,01,0.9,38.7,M,46.9,M,,*68
t181188,180794
$GPRMC,160247,A,5055.9590,N,00123.7513,W,000.0,077.0,120216,002.9,W*7D
$GPGGA,160247,5055.9590,N,00123.7513,W,1,01,0.9,38.7,M,46.9,M,,*69
t182197,181793
$GPRMC,160248,A,5055.9590,N,00123.7513,W,000.0,077.0,120216,002.9,W*72
$GPGGA,160248,5055.9590,N,00123.7513,W,1,01,0.9,38.7,M,46.9,M,,*66
t183205,182793
$GPRMC,160249,A,5055.9590,N,00123.7513,W,000.0,077.0,120216,002.9,W*73
$GPGGA,160249,5055.9590,N,00123.7513,W,1,01,0.9,38.8,M,46.9,M,,*68
t184188,183793
$GPRMC,160250,A,5055.9591,N,00123.7513,W,000.0,077.0,120216,002.9,W*7A
$GPGGA,160250,5055.9591,N,00123.7513,W,1,01,0.8,38.8,M,46.9,M,,*60
t185219,184793
$GPRMC,160251,A,5055.9591,N,00123.7513,W,000.0,077.0,120216,002.9,W*7B
$GPGGA,160251,5055.9591,N,00123.7513,W,1,01,0.8,38.8,M,46.9,M,,*61
t186201,185792
$GPRMC,160252,A,5055.9591,N,00123.7513,W,000.0,077.0,120216,002.9,W*78
$GPGGA,160252,5055.9591,N,00123.7513,W,1,01,0.9,38.8,M,46.9,M,,*63
t187188,186791
$GPRMC,160253,A,5055.9591,N,00123.7514,W,000.0,077.0,120216,002.9,W*7E
$GPGGA,160253,5055.9591,N,00123.7514,W,1,01,0.8,38.8,M,46.9,M,,*64
t188209,187791
$GPRMC,160254,A,5055.9591,N,00123.7514,W,000.0,077.0,120216,002.9,W*79
$GPGGA,160254,5055.9591,N,00123.7514,W,1,01,0.8,38.8,M,46.9,M,,*63
t189205,188790
$GPRMC,160255,A,5055.9591,N,00123.7514,W,000.0,077.0,120216,002.9,W*78
$GPGGA,160255,5055.9591,N,00123.7514,W,1,01,0.9,38.8,M,46.9,M,,*63
t190184,189790
$GPRMC,160256,A,5055.9591,N,00123.7514,W,000.0,077.0,120216,002.9,W*7B
$GPGGA,160256,5055.9591,N,00123.7514,W,1,01,0.8,38.9,M,46.9,M,,*60
t191229,190789
$GPRMC,160257,A,5055.9591,N,00123.7514,W,000.0,077.0,120216,002.9,W*7A
$GPGGA,160257,5055.9591,N,00123.7514,W,1,01,0.8,38.9,M,46.9,M,,*61
t192205,191789
$GPRMC,160258,A,5055.9591,N,00123.7514,W,000.0,077.0,120216,002.9,W*75
$GPGGA,160258,5055.9591,N,00123.7514,W,1,01,0.8,38.9,M,46.9,M,,*6E
t193205,192788
$GPRMC,160259,A,5055.9591,N,00123.7514,W,000.0,077.0,120216,002.9,W*74
$GPGGA,160259,5055.9591,N,00123.7514,W,1,01,0.8,38.9,M,46.9,M,,*6F
t194204,193787
$GPRMC,160300,A,5055.9591,N,00123.7513,W,000.0,077.0,120216,002.9,W*7E
$GPGGA,160300,5055.9591,N,00123.7513,W,1,01,0.8,38.9,M,46.9,M,,*65
t195195,194787
$GPRMC,160301,A,5055.9591,N,00123.7513,W,000.0,077.0,120216,002.9,W*7F
$GPGGA,160301,5055.9591,N,00123.7513,W,1,01,0.8,38.9,M,46.9,M,,*64
t196203,195786
$GPRMC,160302,A,5055.9591,N,00123.7513,W,000.0,077.0,120216,002.9,W*7C
$GPGGA,160302,5055.9591,N,00123.7513,W,1,01,0.8,38.9,M,46.9,M,,*67
t197216,196787
$GPRMC,160303,A,5055.9591,N,00123.7513,W,000.0,077.0,120216,002.9,W*7D
$GPGGA,160303,5055.9591,N,00123.7513,W,1,01,0.8,39.0,M,46.9,M,,*6E
t198216,197786
$GPRMC,160304,A,5055.9591,N,00123.7513,W,000.0,077.0,120216,002.9,W*7A
$GPGGA,160304,5055.9591,N,00123.7513,W,1,01,0.8,39.0,M,46.9,M,,*69
t199191,198786
$GPRMC,160305,A,5055.9591,N,00123.7513,W,000.0,077.0,120216,002.9,W*7B
$GPGGA,160305,5055.9591,N,00123.7513,W,1,01,0.8,39.0,M,46.9,M,,*68
t200202,199785
$GPRMC,160306,A,5055.9591,N,00123.7513,W,000.0,077.0,120216,002.9,W*78
$GPGGA,160306,5055.9591,N,00123.7513,W,1,01,0.8,39.0,M,46.9,M,,*6B
t201200,200784
$GPRMC,160307,A,5055.9591,N,00123.7513,W,000.0,077.0,120216,002.9,W*79
$GPGGA,160307,5055.9591,N,00123.7513,W,1,01,0.8,39.0,M,46.9,M,,*6A
t202286,201784
$GPRMC,160308,A,5055.9592,N,00123.7513,W,000.0,077.0,120216,002.9,W*75
$GPGGA,160308,5055.9592,N,00123.7513,W,1,01,0.9,39.0,M,46.9,M,,*67
t203208,202783
$GPRMC,160309,A,5055.9592,N,00123.7513,W,000.0,077.0,120216,002.9,W*74
$GPGGA,160309,5055.9592,N,00123.7513,W,1,01,0.9,39.0,M,46.9,M,,*66
t204185,203783
$GPRMC,160310,A,5055.9592,N,00123.7513,W,000.0,077.0,120216,002.9,W*7C
$GPGGA,160310,5055.9592,N,00123.7513,W,1,01,0.9,39.0,M,46.9,M,,*6E
t205178,204782
$GPRMC,160311,A,5055.9592,N,00123.7512,W,000.0,077.0,120216,002.9,W*7C
$GPGGA,160311,5055.9592,N,00123.7512,W,1,01,0.9,39.0,M,46.9,M,,*6E
t206182,205782
$GPRMC,160312,A,5055.9592,N,00123.7512,W,000.0,077.0,120216,002.9,W*7F
$GPGGA,160312,5055.9592,N,00123.7512,W,1,01,0.9,39.0,M,46.9,M,,*6D
t207174,206781
$GPRMC,160313,A,5055.9592,N,00123.7512,W,000.0,077.0,120216,002.9,W*7E
$GPGGA,160313,5055.9592,N,00123.7512,W,1,01,0.9,39.1,M,46.9,M,,*6D
t208184,207780
$GPRMC,160314,A,5055.9592,N,00123.7512,W,000.0,077.0,120216,002.9,W*79
$GPGGA,160314,5055.9592,N,00123.7512,W,1,01,0.9,39.1,M,46.9,M,,*6A
t209193,208780
$GPRMC,160315,A,5055.9592,N,00123.7512,W,000.0,077.0,120216,002.9,W*78
$GPGGA,160315,5055.9592,N,00123.7512,W,1,01,0.9,39.1,M,46.9,M,,*6B
t210182,209779
$GPRMC,160316,A,5055.9592,N,00123.7512,W,000.0,077.0,120216,002.9,W*7B
$GPGGA,160316,5055.9592,N,00123.7512,W,1,01,0.9,39.1,M,46.9,M,,*68
t211175,210780
$GPRMC,160317,A,5055.9592,N,00123.7512,W,000.0,077.0,120216,002.9,W*7A
$GPGGA,160317,5055.9592,N,00123.7512,W,1,01,0.9,39.1,M,46.9,M,,*69
t212184,211779
$GPRMC,160318,A,5055.9592,N,00123.7512,W,000.0,077.0,120216,002.9,W*75
$GPGGA,160318,5055.9592,N,00123.7512,W,1,01,0.9,39.1,M,46.9,M,,*66
t213186,212779
$GPRMC,160319,A,5055.9592,N,00123.7512,W,000.0,077.0,120216,002.9,W*74
$GPGGA,160319,5055.9592,N,00123.7512,W,1,01,0.9,39.1,M,46.9,M,,*67
t214172,213778
$GPRMC,160320,A,5055.9592,N,00123.7511,W,000.0,077.0,120216,002.9,W*7D
$GPGGA,160320,5055.9592,N,00123.7511,W,1,01,0.9,39.1,M,46.9,M,,*6E
t215196,214777
$GPRMC,160321,A,5055.9592,N,00123.7511,W,000.0,077.0,120216,002.9,W*7C
$GPGGA,160321,5055.9592,N,00123.7511,W,1,01,0.9,39.1,M,46.9,M,,*6F
t216170,215777
$GPRMC,160322,A,5055.9592,N,00123.7511,W,000.0,077.0,120216,002.9,W*7F
$GPGGA,160322,5055.9592,N,00123.7511,W,1,01,0.9,39.1,M,46.9,M,,*6C
t217176,216776
$GPRMC,160323,A,5055.9592,N,00123.7511,W,000.0,077.0,120216,002.9,W*7E
$GPGGA,160323,5055.9592,N,00123.7511,W,1,01,0.9,39.1,M,46.9,M,,*6D
t218185,217776
$GPRMC,160324,A,5055.9592,N,00123.7511,W,000.0,077.0,120216,002.9,W*79
$GPGGA,160324,5055.9592,N,00123.7511,W,1,01,0.9,39.1,M,46.9,M,,*6A
t219179,218775
$GPRMC,160325,A,5055.9592,N,00123.7511,W,000.0,077.0,120216,002.9,W*78
$GPGGA,160325,5055.9592,N,00123.7511,W,1,01,0.8,39.1,M,46.9,M,,*6A
t220192,219774
$GPRMC,160326,A,5055.9592,N,00123.7511,W,000.0,077.0,120216,002.9,W*7B
$GPGGA,160326,5055.9592,N,00123.7511,W,1,01,0.9,39.1,M,46.9,M,,*68
t221187,220774
$GPRMC,160327,A,5055.9592,N,00123.7511,W,000.0,077.0,120216,002.9,W*7A
$GPGGA,160327,5055.9592,N,00123.7511,W,1,01,0.9,39.1,M,46.9,M,,*69
t222177,221773
$GPRMC,160328,A,5055.9592,N,00123.7512,W,000.0,077.0,120216,002.9,W*76
$GPGGA,160328,5055.9592,N,00123.7512,W,1,01,0.8,39.1,M,46.9,M,,*64
t223200,222773
$GPRMC,160329,A,5055.9592,N,00123.7512,W,000.0,077.0,120216,002.9,W*77
$GPGGA,160329,5055.9592,N,00123.7512,W,1,01,0.9,39.1,M,46.9,M,,*64
t224177,223773
$GPRMC,160330,A,5055.9592,N,00123.7512,W,000.0,077.0,120216,002.9,W*7F
$GPGGA,160330,5055.9592,N,00123.7512,W,1,01,0.9,39.1,M,46.9,M,,*6C
t225176,224773
$GPRMC,160331,A,5055.9592,N,00123.7511,W,000.0,077.0,120216,002.9,W*7D
$GPGGA,160331,5055.9592,N,00123.7511,W,1,01,0.9,39.1,M,46.9,M,,*6E
t226165,225772
$GPRMC,160332,A,5055.9592,N,00123.7511,W,000.0,077.0,120216,002.9,W*7E
$GPGGA,160332,5055.9592,N,00123.7511,W,1,01,0.9,39.2,M,46.9,M,,*6E
t227175,226771
$GPRMC,160333,A,5055.9592,N,00123.7511,W,000.0,077.0,120216,002.9,W*7F
$GPGGA,160333,5055.9592,N,00123.7511,W,1,01,0.9,39.2,M,46.9,M,,*6F
t228174,227771
$GPRMC,160334,A,5055.9592,N,00123.7511,W,000.0,077.0,120216,002.9,W*78
$GPGGA,160334,5055.9592,N,00123.7511,W,1,01,0.9,39.2,M,46.9,M,,*68
t229150,228770
$GPRMC,160335,A,5055.9592,N,00123.7511,W,000.0,077.0,120216,002.9,W*79
$GPGGA,160335,5055.9592,N,00123.7511,W,1,01,0.9,39.2,M,46.9,M,,*69
t230148,229770
$GPRMC,160336,A,5055.9592,N,00123.7511,W,000.0,077.0,120216,002.9,W*7A
$GPGGA,160336,5055.9592,N,00123.7511,W,1,01,0.9,39.2,M,46.9,M,,*6A
t231156,230769
$GPRMC,160337,A,5055.9592,N,00123.7511,W,000.0,077.0,120216,002.9,W*7B
$GPGGA,160337,5055.9592,N,00123.7511,W,1,01,0.9,39.2,M,46.9,M,,*6B
t232148,231769
$GPRMC,160338,A,5055.9592,N,00123.7511,W,000.0,077.0,120216,002.9,W*74
$GPGGA,160338,5055.9592,N,00123.7511,W,1,01,0.9,39.2,M,46.9,M,,*64
t233277,232768
$GPRMC,160339,A,5055.9592,N,00123.7511,W,000.0,077.0,120216,002.9,W*75
$GPGGA,160339,5055.9592,N,00123.7511,W,1,01,0.9,39.2,M,46.9,M,,*65
t234172,233767
$GPRMC,160340,A,5055.9592,N,00123.7511,W,000.0,077.0,120216,002.9,W*7B
$GPGGA,160340,5055.9592,N,00123.7511,W,1,01,0.9,39.2,M,46.9,M,,*6B
t235162,234767
$GPRMC,160341,A,5055.9592,N,00123.7511,W,000.0,077.0,120216,002.9,W*7A
$GPGGA,160341,5055.9592,N,00123.7511,W,1,01,0.9,39.2,M,46.9,M,,*6A
t236156,235766
$GPRMC,160342,A,5055.9593,N,00123.7511,W,000.0,077.0,120216,002.9,W*78
$GPGGA,160342,5055.9593,N,00123.7511,W,1,01,0.9,39.2,M,46.9,M,,*68
t237146,236766
$GPRMC,160343,A,5055.9593,N,00123.7511,W,000.0,077.0,120216,002.9,W*79
$GPGGA,160343,5055.9593,N,00123.7511,W,1,01,0.9,39.2,M,46.9,M,,*69
t238159,237766
$GPRMC,160344,A,5055.9593,N,00123.7511,W,000.0,077.0,120216,002.9,W*7E
$GPGGA,160344,5055.9593,N,00123.7511,W,1,01,0.9,39.2,M,46.9,M,,*6E
t239173,238766
$GPRMC,160345,A,5055.9593,N,00123.7511,W,000.0,077.0,120216,002.9,W*7F
$GPGGA,160345,5055.9593,N,00123.7511,W,1,01,0.9,39.3,M,46.9,M,,*6E
t240171,239765
$GPRMC,160346,A,5055.9593,N,00123.7511,W,000.0,077.0,120216,002.9,W*7C
$GPGGA,160346,5055.9593,N,00123.7511,W,1,01,0.9,39.3,M,46.9,M,,*6D
t241167,240764
$GPRMC,160347,A,5055.9593,N,00123.7511,W,000.0,077.0,120216,002.9,W*7D
$GPGGA,160347,5055.9593,N,00123.7511,W,1,01,0.9,39.3,M,46.9,M,,*6C
t242252,241764
$GPRMC,160348,A,5055.9593,N,00123.7511,W,000.0,077.0,120216,002.9,W*72
$GPGGA,160348,5055.9593,N,00123.7511,W,1,01,0.9,39.3,M,46.9,M,,*63
t243160,242763
$GPRMC,160349,A,5055.9593,N,00123.7511,W,000.0,077.0,120216,002.9,W*73
$GPGGA,160349,5055.9593,N,00123.7511,W,1,01,0.9,39.3,M,46.9,M,,*62
t244148,243763
$GPRMC,160350,A,5055.9593,N,00123.7511,W,000.0,077.0,120216,002.9,W*7B
$GPGGA,160350,5055.9593,N,00123.7511,W,1,01,0.9,39.3,M,46.9,M,,*6A
t245163,244762
$GPRMC,160351,A,5055.9593,N,00123.7510,W,000.0,077.0,120216,002.9,W*7B
$GPGGA,160351,5055.9593,N,00123.7510,W,1,01,0.9,39.3,M,46.9,M,,*6A
t246150,245762
$GPRMC,160352,A,5055.9593,N,00123.7510,W,000.0,077.0,120216,002.9,W*78
$GPGGA,160352,5055.9593,N,00123.7510,W,1,01,0.9,39.3,M,46.9,M,,*69
t247143,246761
$GPRMC,160353,A,5055.9593,N,00123.7510,W,000.0,077.0,120216,002.9,W*79
$GPGGA,160353,5055.9593,N,00123.7510,W,1,01,0.9,39.3,M,46.9,M,,*68
t248151,247760
$GPRMC,160354,A,5055.9593,N,00123.7510,W,000.0,077.0,120216,002.9,W*7E
$GPGGA,160354,5055.9593,N,00123.7510,W,1,01,0.9,39.3,M,46.9,M,,*6F
t249148,248760
$GPRMC,160355,A,5055.9593,N,00123.7510,W,000.0,077.0,120216,002.9,W*7F
$GPGGA,160355,5055.9593,N,00123.7510,W,1,01,0.9,39.3,M,46.9,M,,*6E
t250149,249759
$GPRMC,160356,A,5055.9592,N,00123.7510,W,000.0,077.0,120216,002.9,W*7D
$GPGGA,160356,5055.9592,N,00123.7510,W,1,01,0.9,39.3,M,46.9,M,,*6C
t251164,250760
$GPRMC,160357,A,5055.9592,N,00123.7510,W,000.0,077.0,120216,002.9,W*7C
$GPGGA,160357,5055.9592,N,00123.7510,W,1,01,0.9,39.3,M,46.9,M,,*6D
t252152,251759
$GPRMC,160358,A,5055.9593,N,00123.7510,W,000.0,077.0,120216,002.9,W*72
$GPGGA,160358,5055.9593,N,00123.7510,W,1,01,0.9,39.3,M,46.9,M,,*63
t253149,252759
$GPRMC,160359,A,5055.9593,N,00123.7510,W,000.0,077.0,120216,002.9,W*73
$GPGGA,160359,5055.9593,N,00123.7510,W,1,01,0.9,39.4,M,46.9,M,,*65
t254148,253758
$GPRMC,160400,A,5055.9592,N,00123.7510,W,000.0,077.0,120216,002.9,W*79
$GPGGA,160400,5055.9592,N,00123.7510,W,1,01,0.9,39.4,M,46.9,M,,*6F
t255151,254757
$GPRMC,160401,A,5055.9592,N,00123.7510,W,000.0,077.0,120216,002.9,W*78
$GPGGA,160401,5055.9592,N,00123.7510,W,1,01,0.9,39.4,M,46.9,M,,*6E
t256138,255757
$GPRMC,160402,A,5055.9592,N,00123.7510,W,000.0,077.0,120216,002.9,W*7B
$GPGGA,160402,5055.9592,N,00123.7510,W,1,01,0.9,39.4,M,46.9,M,,*6D
t257158,256756
$GPRMC,160403,A,5055.9592,N,00123.7509,W,000.0,077.0,120216,002.9,W*72
$GPGGA,160403,5055.9592,N,00123.7509,W,1,01,0.9,39.4,M,46.9,M,,*64
t258146,257756
$GPRMC,160404,A,5055.9592,N,00123.7509,W,000.0,077.0,120216,002.9,W*75
$GPGGA,160404,5055.9592,N,00123.7509,W,1,01,0.9,39.4,M,46.9,M,,*63
t259137,258755
$GPRMC,160405,A,5055.9592,N,00123.7509,W,000.0,077.0,120216,002.9,W*74
$GPGGA,160405,5055.9592,N,00123.7509,W,1,01,0.9,39.4,M,46.9,M,,*62
t260146,259755
$GPRMC,160406,A,5055.9592,N,00123.7509,W,000.0,077.0,120216,002.9,W*77
$GPGGA,160406,5055.9592,N,00123.7509,W,1,01,0.9,39.4,M,46.9,M,,*61
t261144,260754
$GPRMC,160407,A,5055.9592,N,00123.7509,W,000.0,077.0,120216,002.9,W*76
$GPGGA,160407,5055.9592,N,00123.7509,W,1,01,0.9,39.4,M,46.9,M,,*60
t262144,261753
$GPRMC,160408,A,5055.9592,N,00123.7509,W,000.0,077.0,120216,002.9,W*79
$GPGGA,160408,5055.9592,N,00123.7509,W,1,01,0.9,39.4,M,46.9,M,,*6F
t263162,262753
$GPRMC,160409,A,5055.9592,N,00123.7509,W,000.0,077.0,120216,002.9,W*78
$GPGGA,160409,5055.9592,N,00123.7509,W,1,01,0.9,39.4,M,46.9,M,,*6E
t264242,263753
$GPRMC,160410,A,5055.9592,N,00123.7509,W,000.0,077.0,120216,002.9,W*70
$GPGGA,160410,5055.9592,N,00123.7509,W,1,01,0.9,39.4,M,46.9,M,,*66
t265139,264753
$GPRMC,160411,A,5055.9592,N,00123.7509,W,000.0,077.0,120216,002.9,W*71
$GPGGA,160411,5055.9592,N,00123.7509,W,1,01,0.9,39.4,M,46.9,M,,*67
t266141,265752
$GPRMC,160412,A,5055.9592,N,00123.7509,W,000.0,077.0,120216,002.9,W*72
$GPGGA,160412,5055.9592,N,00123.7509,W,1,01,0.9,39.4,M,46.9,M,,*64
t267141,266752
$GPRMC,160413,A,5055.9592,N,00123.7509,W,000.0,077.0,120216,002.9,W*73
$GPGGA,160413,5055.9592,N,00123.7509,W,1,01,0.9,39.4,M,46.9,M,,*65
t268149,267751
$GPRMC,160414,A,5055.9592,N,00123.7509,W,000.0,077.0,120216,002.9,W*74
$GPGGA,160414,5055.9592,N,00123.7509,W,1,01,1.0,39.4,M,46.9,M,,*6A
t269135,268750
$GPRMC,160415,A,5055.9592,N,00123.7509,W,000.0,077.0,120216,002.9,W*75
$GPGGA,160415,5055.9592,N,00123.7509,W,1,01,0.8,39.4,M,46.9,M,,*62
t270155,269750
$GPRMC,160416,A,5055.9592,N,00123.7509,W,000.0,077.0,120216,002.9,W*76
$GPGGA,160416,5055.9592,N,00123.7509,W,1,01,0.8,39.4,M,46.9,M,,*61
t271145,270749
$GPRMC,160417,A,5055.9592,N,00123.7509,W,000.0,077.0,120216,002.9,W*77
$GPGGA,160417,5055.9592,N,00123.7509,W,1,01,0.8,39.4,M,46.9,M,,*60
t272158,271749
$GPRMC,160418,A,5055.9592,N,00123.7509,W,000.0,077.0,120216,002.9,W*78
$GPGGA,160418,5055.9592,N,00123.7509,W,1,01,0.9,39.4,M,46.9,M,,*6E
t273146,272748
$GPRMC,160419,A,5055.9592,N,00123.7509,W,000.0,077.0,120216,002.9,W*79
$GPGGA,160419,5055.9592,N,00123.7509,W,1,01,1.0,39.4,M,46.9,M,,*67
t274117,273747
$GPRMC,160420,A,5055.9592,N,00123.7509,W,000.0,077.0,120216,002.9,W*73
$GPGGA,160420,5055.9592,N,00123.7509,W,1,01,0.9,39.4,M,46.9,M,,*65
t275143,274747
$GPRMC,160421,A,5055.9592,N,00123.7509,W,000.0,077.0,120216,002.9,W*72
$GPGGA,160421,5055.9592,N,00123.7509,W,1,01,0.9,39.4,M,46.9,M,,*64
t276132,275746
$GPRMC,160422,A,5055.9592,N,00123.7509,W,000.0,077.0,120216,002.9,W*71
$GPGGA,160422,5055.9592,N,00123.7509,W,1,01,0.9,39.4,M,46.9,M,,*67
t277130,276746
$GPRMC,160423,A,5055.9592,N,00123.7509,W,000.0,077.0,120216,002.9,W*70
$GPGGA,160423,5055.9592,N,00123.7509,W,1,01,0.9,39.4,M,46.9,M,,*66
t278148,277746
$GPRMC,160424,A,5055.9592,N,00123.7509,W,000.0,077.0,120216,002.9,W*77
$GPGGA,160424,5055.9592,N,00123.7509,W,1,01,0.9,39.4,M,46.9,M,,*61
t279129,278746
$GPRMC,160425,A,5055.9592,N,00123.7509,W,000.0,077.0,120216,002.9,W*76
$GPGGA,160425,5055.9592,N,00123.7509,W,1,01,0.9,39.4,M,46.9,M,,*60
t280133,279745
$GPRMC,160426,A,5055.9592,N,00123.7509,W,000.0,077.0,120216,002.9,W*75
$GPGGA,160426,5055.9592,N,00123.7509,W,1,01,1.0,39.4,M,46.9,M,,*6B
t281139,280744
$GPRMC,160427,A,5055.9592,N,00123.7509,W,000.0,077.0,120216,002.9,W*74
$GPGGA,160427,5055.9592,N,00123.7509,W,1,01,1.0,39.5,M,46.9,M,,*6B
t282130,281744
$GPRMC,160428,A,5055.9592,N,00123.7509,W,000.0,077.0,120216,002.9,W*7B
$GPGGA,160428,5055.9592,N,00123.7509,W,1,01,1.0,39.5,M,46.9,M,,*64
t283124,282743
$GPRMC,160429,A,5055.9592,N,00123.7509,W,000.0,077.0,120216,002.9,W*7A
$GPGGA,160429,5055.9592,N,00123.7509,W,1,01,1.0,39.5,M,46.9,M,,*65
t284122,283743
$GPRMC,160430,A,5055.9592,N,00123.7509,W,000.0,077.0,120216,002.9,W*72
$GPGGA,160430,5055.9592,N,00123.7509,W,1,01,1.1,39.5,M,46.9,M,,*6C
t285119,284742
$GPRMC,160431,A,5055.9592,N,00123.7509,W,000.0,077.0,120216,002.9,W*73
$GPGGA,160431,5055.9592,N,00123.7509,W,1,01,1.0,39.5,M,46.9,M,,*6C
t286110,285742
$GPRMC,160432,A,5055.9592,N,00123.7509,W,000.0,077.0,120216,002.9,W*70
$GPGGA,160432,5055.9592,N,00123.7509,W,1,01,1.0,39.5,M,46.9,M,,*6F
t287132,286741
$GPRMC,160433,A,5055.9592,N,00123.7509,W,000.0,077.0,120216,002.9,W*71
$GPGGA,160433,5055.9592,N,00123.7509,W,1,01,0.9,39.5,M,46.9,M,,*66
t288128,287740
$GPRMC,160434,A,5055.9592,N,00123.7509,W,000.0,077.0,120216,002.9,W*76
$GPGGA,160434,5055.9592,N,00123.7509,W,1,01,1.0,39.5,M,46.9,M,,*69
t289116,288740
$GPRMC,160435,A,5055.9592,N,00123.7509,W,000.0,077.0,120216,002.9,W*77
$GPGGA,160435,5055.9592,N,00123.7509,W,1,01,0.9,39.5,M,46.9,M,,*60
t290112,289739
$GPRMC,160436,A,5055.9592,N,00123.7509,W,000.0,077.0,120216,002.9,W*74
$GPGGA,160436,5055.9592,N,00123.7509,W,1,01,0.9,39.5,M,46.9,M,,*63
t291115,290740
$GPRMC,160437,A,5055.9592,N,00123.7509,W,000.0,077.0,120216,002.9,W*75
$GPGGA,160437,5055.9592,N,00123.7509,W,1,01,0.9,39.5,M,46.9,M,,*62
t292114,291739
$GPRMC,160438,A,5055.9592,N,00123.7509,W,000.0,077.0,120216,002.9,W*7A
$GPGGA,160438,5055.9592,N,00123.7509,W,1,01,0.9,39.5,M,46.9,M,,*6D
t293147,292739
$GPRMC,160439,A,5055.9592,N,00123.7509,W,000.0,077.0,120216,002.9,W*7B
$GPGGA,160439,5055.9592,N,00123.7509,W,1,01,0.9,39.5,M,46.9,M,,*6C
t294128,293738
$GPRMC,160440,A,5055.9592,N,00123.7509,W,000.0,077.0,120216,002.9,W*75
$GPGGA,160440,5055.9592,N,00123.7509,W,1,01,0.9,39.5,M,46.9,M,,*62
t295216,294737
$GPRMC,160441,A,5055.9592,N,00123.7509,W,000.0,077.0,120216,002.9,W*74
$GPGGA,160441,5055.9592,N,00123.7509,W,1,01,0.9,39.5,M,46.9,M,,*63
t296140,295737
$GPRMC,160442,A,5055.9592,N,00123.7509,W,000.0,077.0,120216,002.9,W*77
$GPGGA,160442,5055.9592,N,00123.7509,W,1,01,0.9,39.5,M,46.9,M,,*60
t297125,296736
$GPRMC,160443,A,5055.9592,N,00123.7508,W,000.0,077.0,120216,002.9,W*77
$GPGGA,160443,5055.9592,N,00123.7508,W,1,01,1.0,39.5,M,46.9,M,,*68
t298117,297736
$GPRMC,160444,A,5055.9592,N,00123.7509,W,000.0,077.0,120216,002.9,W*71
$GPGGA,160444,5055.9592,N,00123.7509,W,1,01,0.9,39.5,M,46.9,M,,*66
t299131,298735
$GPRMC,160445,A,5055.9592,N,00123.7509,W,000.0,077.0,120216,002.9,W*70
$GPGGA,160445,5055.9592,N,00123.7509,W,1,01,0.9,39.5,M,46.9,M,,*67
t300138,299735
$GPRMC,160446,A,5055.9592,N,00123.7509,W,000.0,077.0,120216,002.9,W*73
$GPGGA,160446,5055.9592,N,00123.7509,W,1,01,0.9,39.5,M,46.9,M,,*64
t301127,300734
$GPRMC,160447,A,5055.9592,N,00123.7509,W,000.0,077.0,120216,002.9,W*72
$GPGGA,160447,5055.9592,N,00123.7509,W,1,01,0.9,39.5,M,46.9,M,,*65
t302141,301733
$GPRMC,160448,A,5055.9592,N,00123.7509,W,000.0,077.0,120216,002.9,W*7D
$GPGGA,160448,5055.9592,N,00123.7509,W,1,01,0.9,39.5,M,46.9,M,,*6A
t303144,302733
$GPRMC,160449,A,5055.9592,N,00123.7509,W,000.0,077.0,120216,002.9,W*7C
$GPGGA,160449,5055.9592,N,00123.7509,W,1,01,0.9,39.5,M,46.9,M,,*6B
t304135,303733
$GPRMC,160450,A,5055.9592,N,00123.7509,W,000.0,077.0,120216,002.9,W*74
$GPGGA,160450,5055.9592,N,00123.7509,W,1,01,0.9,39.5,M,46.9,M,,*63
t305127,304733
$GPRMC,160451,A,5055.9592,N,00123.7509,W,000.0,077.0,120216,002.9,W*75
$GPGGA,160451,5055.9592,N,00123.7509,W,1,01,0.9,39.5,M,46.9,M,,*62
t306136,305732
$GPRMC,160452,A,5055.9592,N,00123.7510,W,000.0,077.0,120216,002.9,W*7E
$GPGGA,160452,5055.9592,N,00123.7510,W,1,01,0.9,39.5,M,46.9,M,,*69
t307133,306732
$GPRMC,160453,A,5055.9592,N,00123.7510,W,000.0,077.0,120216,002.9,W*7F
$GPGGA,160453,5055.9592,N,00123.7510,W,1,01,0.9,39.5,M,46.9,M,,*68
t308133,307731
$GPRMC,160454,A,5055.9592,N,00123.7510,W,000.0,077.0,120216,002.9,W*78
$GPGGA,160454,5055.9592,N,00123.7510,W,1,01,0.9,39.5,M,46.9,M,,*6F
t309130,308730
$GPRMC,160455,A,5055.9592,N,00123.7510,W,000.0,077.0,120216,002.9,W*79
$GPGGA,160455,5055.9592,N,00123.7510,W,1,01,0.9,39.5,M,46.9,M,,*6E
t310131,309730
$GPRMC,160456,A,5055.9592,N,00123.7510,W,000.0,077.0,120216,002.9,W*7A
$GPGGA,160456,5055.9592,N,00123.7510,W,1,01,0.9,39.5,M,46.9,M,,*6D
t311132,310729
$GPRMC,160457,A,5055.9592,N,00123.7510,W,000.0,077.0,120216,002.9,W*7B
$GPGGA,160457,5055.9592,N,00123.7510,W,1,01,0.9,39.5,M,46.9,M,,*6C
t312131,311729
$GPRMC,160458,A,5055.9592,N,00123.7510,W,000.0,077.0,120216,002.9,W*74
$GPGGA,160458,5055.9592,N,00123.7510,W,1,01,0.9,39.5,M,46.9,M,,*63
t313128,312728
$GPRMC,160459,A,5055.9592,N,00123.7510,W,000.0,077.0,120216,002.9,W*75
$GPGGA,160459,5055.9592,N,00123.7510,W,1,01,0.9,39.5,M,46.9,M,,*62
t314122,313728
$GPRMC,160500,A,5055.9592,N,00123.7510,W,000.0,077.0,120216,002.9,W*78
$GPGGA,160500,5055.9592,N,00123.7510,W,1,01,0.9,39.5,M,46.9,M,,*6F
t315128,314727
$GPRMC,160501,A,5055.9592,N,00123.7510,W,000.0,077.0,120216,002.9,W*79
$GPGGA,160501,5055.9592,N,00123.7510,W,1,01,0.8,39.5,M,46.9,M,,*6F
t316135,315726
$GPRMC,160502,A,5055.9592,N,00123.7511,W,000.0,077.0,120216,002.9,W*7B
$GPGGA,160502,5055.9592,N,00123.7511,W,1,01,0.8,39.5,M,46.9,M,,*6D
t317165,316726
$GPRMC,160503,A,5055.9592,N,00123.7511,W,000.0,077.0,120216,002.9,W*7A
$GPGGA,160503,5055.9592,N,00123.7511,W,1,01,0.8,39.5,M,46.9,M,,*6C
t318240,317726
$GPRMC,160504,A,5055.9592,N,00123.7511,W,000.0,077.0,120216,002.9,W*7D
$GPGGA,160504,5055.9592,N,00123.7511,W,1,01,0.8,39.5,M,46.9,M,,*6B
t319140,318726
$GPRMC,160505,A,5055.9592,N,00123.7511,W,000.0,077.0,120216,002.9,W*7C
$GPGGA,160505,5055.9592,N,00123.7511,W,1,01,0.8,39.5,M,46.9,M,,*6A
t320133,319725
$GPRMC,160506,A,5055.9592,N,00123.7511,W,000.0,077.0,120216,002.9,W*7F
$GPGGA,160506,5055.9592,N,00123.7511,W,1,01,0.8,39.5,M,46.9,M,,*69
t321138,320724
$GPRMC,160507,A,5055.9592,N,00123.7511,W,000.0,077.0,120216,002.9,W*7E
$GPGGA,160507,5055.9592,N,00123.7511,W,1,01,0.8,39.6,M,46.9,M,,*6B
t322131,321724
$GPRMC,160508,A,5055.9592,N,00123.7511,W,000.0,077.0,120216,002.9,W*71
$GPGGA,160508,5055.9592,N,00123.7511,W,1,01,0.8,39.6,M,46.9,M,,*64
t323151,322723
$GPRMC,160509,A,5055.9592,N,00123.7511,W,000.0,077.0,120216,002.9,W*70
$GPGGA,160509,5055.9592,N,00123.7511,W,1,01,0.8,39.6,M,46.9,M,,*65
t324139,323723
$GPRMC,160510,A,5055.9592,N,00123.7511,W,000.0,077.0,120216,002.9,W*78
$GPGGA,160510,5055.9592,N,00123.7511,W,1,01,0.8,39.6,M,46.9,M,,*6D
t325139,324722
$GPRMC,160511,A,5055.9592,N,00123.7511,W,000.0,077.0,120216,002.9,W*79
$GPGGA,160511,5055.9592,N,00123.7511,W,1,01,0.8,39.6,M,46.9,M,,*6C
t326228,325722
$GPRMC,160512,A,5055.9592,N,00123.7511,W,000.0,077.0,120216,002.9,W*7A
$GPGGA,160512,5055.9592,N,00123.7511,W,1,01,0.8,39.5,M,46.9,M,,*6C
t327147,326721
$GPRMC,160513,A,5055.9592,N,00123.7510,W,000.0,077.0,120216,002.9,W*7A
$GPGGA,160513,5055.9592,N,00123.7510,W,1,01,0.8,39.5,M,46.9,M,,*6C
t328143,327720
$GPRMC,160514,A,5055.9592,N,00123.7510,W,000.0,077.0,120216,002.9,W*7D
$GPGGA,160514,5055.9592,N,00123.7510,W,1,01,0.8,39.6,M,46.9,M,,*68
t329142,328720
$GPRMC,160515,A,5055.9592,N,00123.7510,W,000.0,077.0,120216,002.9,W*7C
$GPGGA,160515,5055.9592,N,00123.7510,W,1,01,0.8,39.6,M,46.9,M,,*69
t330134,329719
$GPRMC,160516,A,5055.9592,N,00123.7510,W,000.0,077.0,120216,002.9,W*7F
$GPGGA,160516,5055.9592,N,00123.7510,W,1,01,0.8,39.6,M,46.9,M,,*6A
t331136,330720
$GPRMC,160517,A,5055.9592,N,00123.7511,W,000.0,077.0,120216,002.9,W*7F
$GPGGA,160517,5055.9592,N,00123.7511,W,1,01,0.8,39.6,M,46.9,M,,*6A
t332126,331719
$GPRMC,160518,A,5055.9592,N,00123.7510,W,000.0,077.0,120216,002.9,W*71
$GPGGA,160518,5055.9592,N,00123.7510,W,1,01,0.8,39.6,M,46.9,M,,*64
t333145,332719
$GPRMC,160519,A,5055.9592,N,00123.7510,W,000.0,077.0,120216,002.9,W*70
$GPGGA,160519,5055.9592,N,00123.7510,W,1,01,0.8,39.6,M,46.9,M,,*65
t334131,333718
$GPRMC,160520,A,5055.9592,N,00123.7510,W,000.0,077.0,120216,002.9,W*7A
$GPGGA,160520,5055.9592,N,00123.7510,W,1,01,0.8,39.6,M,46.9,M,,*6F
t335136,334717
$GPRMC,160521,A,5055.9592,N,00123.7510,W,000.0,077.0,120216,002.9,W*7B
$GPGGA,160521,5055.9592,N,00123.7510,W,1,01,0.8,39.5,M,46.9,M,,*6D
t336135,335717
$GPRMC,160522,A,5055.9592,N,00123.7510,W,000.0,077.0,120216,002.9,W*78
$GPGGA,160522,5055.9592,N,00123.7510,W,1,01,0.9,39.6,M,46.9,M,,*6C
t337111,336716
$GPRMC,160523,A,5055.9592,N,00123.7510,W,000.0,077.0,120216,002.9,W*79
$GPGGA,160523,5055.9592,N,00123.7510,W,1,01,0.9,39.6,M,46.9,M,,*6D
t338127,337716
$GPRMC,160524,A,5055.9592,N,00123.7510,W,000.0,077.0,120216,002.9,W*7E
$GPGGA,160524,5055.9592,N,00123.7510,W,1,01,0.9,39.5,M,46.9,M,,*69
t339108,338715
$GPRMC,160525,A,5055.9592,N,00123.7510,W,000.0,077.0,120216,002.9,W*7F
$GPGGA,160525,5055.9592,N,00123.7510,W,1,01,0.9,39.5,M,46.9,M,,*68
t340115,339715
$GPRMC,160526,A,5055.9592,N,00123.7510,W,000.0,077.0,120216,002.9,W*7C
$GPGGA,160526,5055.9592,N,00123.7510,W,1,01,0.9,39.5,M,46.9,M,,*6B
t341121,340714
$GPRMC,160527,A,5055.9592,N,00123.7510,W,000.0,077.0,120216,002.9,W*7D
$GPGGA,160527,5055.9592,N,00123.7510,W,1,01,0.8,39.5,M,46.9,M,,*6B
t342128,341713
$GPRMC,160528,A,5055.9592,N,00123.7510,W,000.0,077.0,120216,002.9,W*72
$GPGGA,160528,5055.9592,N,00123.7510,W,1,01,0.8,39.6,M,46.9,M,,*67
t343127,342713
$GPRMC,160529,A,5055.9592,N,00123.7510,W,000.0,077.0,120216,002.9,W*73
$GPGGA,160529,5055.9592,N,00123.7510,W,1,01,0.8,39.6,M,46.9,M,,*66
t344119,343712
$GPRMC,160530,A,5055.9592,N,00123.7510,W,000.0,077.0,120216,002.9,W*7B
$GPGGA,160530,5055.9592,N,00123.7510,W,1,01,0.8,39.6,M,46.9,M,,*6E
t345126,344713
$GPRMC,160531,A,5055.9592,N,00123.7510,W,000.0,077.0,120216,002.9,W*7A
$GPGGA,160531,5055.9592,N,00123.7510,W,1,01,0.8,39.5,M,46.9,M,,*6C
t346127,345712
$GPRMC,160532,A,5055.9592,N,00123.7510,W,000.0,077.0,120216,002.9,W*79
$GPGGA,160532,5055.9592,N,00123.7510,W,1,01,0.8,39.5,M,46.9,M,,*6F
t347136,346712
$GPRMC,160533,A,5055.9592,N,00123.7510,W,000.0,077.0,120216,002.9,W*78
$GPGGA,160533,5055.9592,N,00123.7510,W,1,01,0.8,39.5,M,46.9,M,,*6E
t348135,347711
$GPRMC,160534,A,5055.9592,N,00123.7510,W,000.0,077.0,120216,002.9,W*7F
$GPGGA,160534,5055.9592,N,00123.7510,W,1,01,0.8,39.5,M,46.9,M,,*69
t349126,348710
$GPRMC,160535,A,5055.9592,N,00123.7511,W,000.0,077.0,120216,002.9,W*7F
$GPGGA,160535,5055.9592,N,00123.7511,W,1,01,0.9,39.5,M,46.9,M,,*68
t350106,349710
$GPRMC,160536,A,5055.9592,N,00123.7511,W,000.0,077.0,120216,002.9,W*7C
$GPGGA,160536,5055.9592,N,00123.7511,W,1,01,0.9,39.5,M,46.9,M,,*6B
t351110,350709
$GPRMC,160537,A,5055.9592,N,00123.7511,W,000.0,077.0,120216,002.9,W*7D
$GPGGA,160537,5055.9592,N,00123.7511,W,1,01,0.9,39.5,M,46.9,M,,*6A
t352111,351709
$GPRMC,160538,A,5055.9592,N,00123.7511,W,000.0,077.0,120216,002.9,W*72
$GPGGA,160538,5055.9592,N,00123.7511,W,1,01,0.9,39.5,M,46.9,M,,*65
t353108,352708
$GPRMC,160539,A,5055.9592,N,00123.7511,W,000.0,077.0,120216,002.9,W*73
$GPGGA,160539,5055.9592,N,00123.7511,W,1,01,0.9,39.5,M,46.9,M,,*64
t354095,353708
$GPRMC,160540,A,5055.9592,N,00123.7511,W,000.0,077.0,120216,002.9,W*7D
$GPGGA,160540,5055.9592,N,00123.7511,W,1,01,0.9,39.5,M,46.9,M,,*6A
t355111,354707
$GPRMC,160541,A,5055.9592,N,00123.7511,W,000.0,077.0,120216,002.9,W*7C
$GPGGA,160541,5055.9592,N,00123.7511,W,1,01,0.9,39.5,M,46.9,M,,*6B
t356107,355706
$GPRMC,160542,A,5055.9592,N,00123.7511,W,000.0,077.0,120216,002.9,W*7F
$GPGGA,160542,5055.9592,N,00123.7511,W,1,01,0.9,39.5,M,46.9,M,,*68
t357216,356706
$GPRMC,160543,A,5055.9592,N,00123.7511,W,000.0,077.0,120216,002.9,W*7E
$GPGGA,160543,5055.9592,N,00123.7511,W,1,01,0.9,39.5,M,46.9,M,,*69
t358117,357706
$GPRMC,160544,A,5055.9592,N,00123.7511,W,000.0,077.0,120216,002.9,W*79
$GPGGA,160544,5055.9592,N,00123.7511,W,1,01,0.9,39.5,M,46.9,M,,*6E
t359108,358706
$GPRMC,160545,A,5055.9592,N,00123.7511,W,000.0,077.0,120216,002.9,W*78
$GPGGA,160545,5055.9592,N,00123.7511,W,1,01,0.9,39.5,M,46.9,M,,*6F
t360099,359705
$GPRMC,160546,A,5055.9592,N,00123.7511,W,000.0,077.0,120216,002.9,W*7B
$GPGGA,160546,5055.9592,N,00123.7511,W,1,01,0.9,39.5,M,46.9,M,,*6C
t361106,360705
$GPRMC,160547,A,5055.9592,N,00123.7511,W,000.0,077.0,120216,002.9,W*7A
$GPGGA,160547,5055.9592,N,00123.7511,W,1,01,0.9,39.5,M,46.9,M,,*6D
t362097,361704
$GPRMC,160548,A,5055.9592,N,00123.7511,W,000.0,077.0,120216,002.9,W*75
$GPGGA,160548,5055.9592,N,00123.7511,W,1,01,0.9,39.5,M,46.9,M,,*62
t363101,362703
$GPRMC,160549,A,5055.9593,N,00123.7511,W,000.0,077.0,120216,002.9,W*75
$GPGGA,160549,5055.9593,N,00123.7511,W,1,01,0.9,39.5,M,46.9,M,,*62
t364087,363703
$GPRMC,160550,A,5055.9593,N,00123.7511,W,000.0,077.0,120216,002.9,W*7D
$GPGGA,160550,5055.9593,N,00123.7511,W,1,01,0.9,39.5,M,46.9,M,,*6A
t365090,364702
$GPRMC,160551,A,5055.9593,N,00123.7511,W,000.0,077.0,120216,002.9,W*7C
$GPGGA,160551,5055.9593,N,00123.7511,W,1,01,0.9,39.5,M,46.9,M,,*6B
t366090,365702
$GPRMC,160552,A,5055.9593,N,00123.7511,W,000.0,077.0,120216,002.9,W*7F
$GPGGA,160552,5055.9593,N,00123.7511,W,1,01,0.9,39.5,M,46.9,M,,*68
t367104,366701
$GPRMC,160553,A,5055.9593,N,00123.7511,W,000.0,077.0,120216,002.9,W*7E
$GPGGA,160553,5055.9593,N,00123.7511,W,1,01,0.9,39.5,M,46.9,M,,*69
t368104,367700
$GPRMC,160554,A,5055.9593,N,00123.7511,W,000.0,077.0,120216,002.9,W*79
$GPGGA,160554,5055.9593,N,00123.7511,W,1,01,0.9,39.5,M,46.9,M,,*6E
t369085,368700
$GPRMC,160555,A,5055.9593,N,00123.7511,W,000.0,077.0,120216,002.9,W*78
$GPGGA,160555,5055.9593,N,00123.7511,W,1,01,0.9,39.5,M,46.9,M,,*6F
t370085,369699
$GPRMC,160556,A,5055.9592,N,00123.7511,W,000.0,077.0,120216,002.9,W*7A
$GPGGA,160556,5055.9592,N,00123.7511,W,1,01,0.9,39.4,M,46.9,M,,*6C
t371094,370700
$GPRMC,160557,A,5055.9592,N,00123.7511,W,000.0,077.0,120216,002.9,W*7B
$GPGGA,160557,5055.9592,N,00123.7511,W,1,01,0.9,39.4,M,46.9,M,,*6D
t372086,371699
$GPRMC,160558,A,5055.9592,N,00123.7511,W,000.0,077.0,120216,002.9,W*74
$GPGGA,160558,5055.9592,N,00123.7511,W,1,01,0.9,39.4,M,46.9,M,,*62
t373107,372699
$GPRMC,160559,A,5055.9592,N,00123.7511,W,000.0,077.0,120216,002.9,W*75
$GPGGA,160559,5055.9592,N,00123.7511,W,1,01,0.9,39.4,M,46.9,M,,*63
t374090,373698
$GPRMC,160600,A,5055.9592,N,00123.7511,W,000.0,077.0,120216,002.9,W*7A
$GPGGA,160600,5055.9592,N,00123.7511,W,1,01,0.9,39.4,M,46.9,M,,*6C
t375097,374697
$GPRMC,160601,A,5055.9592,N,00123.7511,W,000.0,077.0,120216,002.9,W*7B
$GPGGA,160601,5055.9592,N,00123.7511,W,1,01,0.9,39.4,M,46.9,M,,*6D
t376088,375697
$GPRMC,160602,A,5055.9592,N,00123.7511,W,000.0,077.0,120216,002.9,W*78
$GPGGA,160602,5055.9592,N,00123.7511,W,1,01,0.8,39.4,M,46.9,M,,*6F
t377118,376696
$GPRMC,160603,A,5055.9592,N,00123.7511,W,000.0,077.0,120216,002.9,W*79
$GPGGA,160603,5055.9592,N,00123.7511,W,1,01,0.9,39.4,M,46.9,M,,*6F
t378100,377696
$GPRMC,160604,A,5055.9592,N,00123.7511,W,000.0,077.0,120216,002.9,W*7E
$GPGGA,160604,5055.9592,N,00123.7511,W,1,01,0.9,39.4,M,46.9,M,,*68
t379099,378695
$GPRMC,160605,A,5055.9592,N,00123.7511,W,000.0,077.0,120216,002.9,W*7F
$GPGGA,160605,5055.9592,N,00123.7511,W,1,01,0.9,39.4,M,46.9,M,,*69
t380098,379695
$GPRMC,160606,A,5055.9592,N,00123.7511,W,000.0,077.0,120216,002.9,W*7C
$GPGGA,160606,5055.9592,N,00123.7511,W,1,01,0.8,39.4,M,46.9,M,,*6B
t381104,380694
$GPRMC,160607,A,5055.9592,N,00123.7511,W,000.0,077.0,120216,002.9,W*7D
$GPGGA,160607,5055.9592,N,00123.7511,W,1,01,0.8,39.4,M,46.9,M,,*6A
t382111,381693
$GPRMC,160608,A,5055.9592,N,00123.7511,W,000.0,077.0,120216,002.9,W*72
$GPGGA,160608,5055.9592,N,00123.7511,W,1,01,1.0,39.4,M,46.9,M,,*6C
t383096,382693
$GPRMC,160609,A,5055.9592,N,00123.7511,W,000.0,077.0,120216,002.9,W*73
$GPGGA,160609,5055.9592,N,00123.7511,W,1,01,0.9,39.4,M,46.9,M,,*65
t384097,383692
$GPRMC,160610,A,5055.9592,N,00123.7511,W,000.0,077.0,120216,002.9,W*7B
$GPGGA,160610,5055.9592,N,00123.7511,W,1,01,0.9,39.4,M,46.9,M,,*6D
t385087,384693
$GPRMC,160611,A,5055.9592,N,00123.7511,W,000.0,077.0,120216,002.9,W*7A
$GPGGA,160611,5055.9592,N,00123.7511,W,1,01,0.9,39.4,M,46.9,M,,*6C
t386094,385692
$GPRMC,160612,A,5055.9592,N,00123.7511,W,000.0,077.0,120216,002.9,W*79
$GPGGA,160612,5055.9592,N,00123.7511,W,1,01,0.9,39.4,M,46.9,M,,*6F
t387082,386692
$GPRMC,160613,A,5055.9592,N,00123.7511,W,000.0,077.0,120216,002.9,W*78
$GPGGA,160613,5055.9592,N,00123.7511,W,1,01,0.9,39.4,M,46.9,M,,*6E
t388204,387691
$GPRMC,160614,A,5055.9592,N,00123.7511,W,000.0,077.0,120216,002.9,W*7F
$GPGGA,160614,5055.9592,N,00123.7511,W,1,01,0.9,39.4,M,46.9,M,,*69
t389101,388690
$GPRMC,160615,A,5055.9592,N,00123.7511,W,000.0,077.0,120216,002.9,W*7E
$GPGGA,160615,5055.9592,N,00123.7511,W,1,01,0.9,39.4,M,46.9,M,,*68
t390079,389690
$GPRMC,160616,A,5055.9592,N,00123.7511,W,000.0,077.0,120216,002.9,W*7D
$GPGGA,160616,5055.9592,N,00123.7511,W,1,01,0.9,39.4,M,46.9,M,,*6B
t391079,390689
$GPRMC,160617,A,5055.9592,N,00123.7511,W,000.0,077.0,120216,002.9,W*7C
$GPGGA,160617,5055.9592,N,00123.7511,W,1,01,0.9,39.4,M,46.9,M,,*6A
t392070,391689
$GPRMC,160618,A,5055.9592,N,00123.7511,W,000.0,077.0,120216,002.9,W*73
$GPGGA,160618,5055.9592,N,00123.7511,W,1,01,0.9,39.4,M,46.9,M,,*65
t393084,392688
$GPRMC,160619,A,5055.9592,N,00123.7511,W,000.0,077.0,120216,002.9,W*72
$GPGGA,160619,5055.9592,N,00123.7511,W,1,01,0.9,39.4,M,46.9,M,,*64
t394187,393688
$GPRMC,160620,A,5055.9592,N,00123.7511,W,000.0,077.0,120216,002.9,W*78
