$GPRMC,195337,A,5055.9828,N,00123.7352,W,002.5,340.4,080216,002.9,W*73
$GPGGA,195337,5055.9828,N,00123.7352,W,1,02,1.0,,M,46.9,M,,*71
t253975,253526
$GPRMC,195339,A,5055.9820,N,00123.7412,W,002.1,340.5,080216,002.9,W*73
$GPGGA,195339,5055.9820,N,00123.7412,W,1,01,1.0,84.8,M,46.9,M,,*6D
t254978,254524
$GPRMC,195340,A,5055.9857,N,00123.7426,W,002.3,340.0,080216,002.9,W*7D
$GPGGA,195340,5055.9857,N,00123.7426,W,1,01,1.0,,M,46.9,M,,*7E
t255959,255524
$GPRMC,195342,A,5055.9968,N,00123.7580,W,002.5,337.1,080216,002.9,W*78
$GPGGA,195342,5055.9968,N,00123.7580,W,1,02,1.0,21.6,M,46.9,M,,*64
t257017,256523
$GPRMC,195343,A,5055.9960,N,00123.7574,W,002.3,339.0,080216,002.9,W*73
$GPGGA,195343,5055.9960,N,00123.7574,W,1,02,1.0,22.1,M,46.9,M,,*62
t257979,257522
$GPRMC,195344,A,5055.9971,N,00123.7568,W,002.2,340.8,080216,002.9,W*7E
$GPGGA,195344,5055.9971,N,00123.7568,W,1,02,1.0,22.5,M,46.9,M,,*6C
t258984,258521
$GPRMC,195345,A,5055.9972,N,00123.7571,W,002.4,338.3,080216,002.9,W*76
$GPGGA,195345,5055.9972,N,00123.7571,W,1,02,1.0,22.6,M,46.9,M,,*65
t259982,259521
$GPRMC,195346,A,5055.9981,N,00123.7571,W,002.4,332.7,080216,002.9,W*77
$GPGGA,195346,5055.9981,N,00123.7571,W,1,02,1.0,22.5,M,46.9,M,,*69
t260977,260520
$GPRMC,195347,A,5056.0011,N,00123.7563,W,002.6,340.1,080216,002.9,W*7E
$GPGGA,195347,5056.0011,N,00123.7563,W,1,02,1.0,20.6,M,46.9,M,,*60
t261970,261521
$GPRMC,195348,A,5056.0062,N,00123.7545,W,003.0,343.5,080216,002.9,W*71
$GPGGA,195348,5056.0062,N,00123.7545,W,1,02,1.0,16.6,M,46.9,M,,*6A
t262968,262520
$GPRMC,195349,A,5056.0086,N,00123.7541,W,003.3,331.3,080216,002.9,W*7E
$GPGGA,195349,5056.0086,N,00123.7541,W,1,02,1.0,15.3,M,46.9,M,,*63
t263985,263520
$GPRMC,195350,A,5056.0105,N,00123.7540,W,002.4,314.6,080216,002.9,W*79
$GPGGA,195350,5056.0105,N,00123.7540,W,1,02,1.0,13.7,M,46.9,M,,*62
t264970,264519
$GPRMC,195351,A,5056.0115,N,00123.7541,W,001.7,314.6,080216,002.9,W*78
$GPGGA,195351,5056.0115,N,00123.7541,W,1,02,1.0,13.1,M,46.9,M,,*65
t265975,265518
$GPRMC,195352,A,5056.0124,N,00123.7539,W,001.7,314.6,080216,002.9,W*76
$GPGGA,195352,5056.0124,N,00123.7539,W,1,02,1.0,12.5,M,46.9,M,,*6E
t266975,266518
$GPRMC,195353,A,5056.0141,N,00123.7540,W,003.1,338.3,080216,002.9,W*75
$GPGGA,195353,5056.0141,N,00123.7540,W,1,02,1.0,13.9,M,46.9,M,,*6F
t267973,267517
$GPRMC,195354,A,5056.0158,N,00123.7545,W,003.7,338.4,080216,002.9,W*7E
$GPGGA,195354,5056.0158,N,00123.7545,W,1,02,1.0,14.4,M,46.9,M,,*6F
t268976,268517
$GPRMC,195355,A,5056.0167,N,00123.7547,W,003.1,335.4,080216,002.9,W*7A
$GPGGA,195355,5056.0167,N,00123.7547,W,1,02,1.0,14.4,M,46.9,M,,*60
t269982,269516
$GPRMC,195356,A,5056.0178,N,00123.7550,W,002.6,335.4,080216,002.9,W*77
$GPGGA,195356,5056.0178,N,00123.7550,W,1,02,1.0,14.1,M,46.9,M,,*6E
t270968,270516
$GPRMC,195357,A,5056.0188,N,00123.7552,W,002.9,342.8,080216,002.9,W*78
$GPGGA,195357,5056.0188,N,00123.7552,W,1,02,1.0,13.9,M,46.9,M,,*6D
t271974,271515
$GPRMC,195358,A,5056.0191,N,00123.7560,W,002.6,334.8,080216,002.9,W*70
$GPGGA,195358,5056.0191,N,00123.7560,W,1,02,1.0,14.4,M,46.9,M,,*61
t272972,272514
$GPRMC,195359,A,5056.0202,N,00123.7563,W,003.0,322.8,080216,002.9,W*7B
$GPGGA,195359,5056.0202,N,00123.7563,W,1,02,1.0,14.3,M,46.9,M,,*6D
t273981,273514
$GPRMC,195400,A,5056.0215,N,00123.7572,W,002.4,331.4,080216,002.9,W*7D
$GPGGA,195400,5056.0215,N,00123.7572,W,1,02,1.0,15.4,M,46.9,M,,*66
t274962,274514
$GPRMC,195401,A,5056.0224,N,00123.7583,W,003.0,334.1,080216,002.9,W*75
$GPGGA,195401,5056.0224,N,00123.7583,W,1,02,1.0,15.5,M,46.9,M,,*6A
t275969,275514
$GPRMC,195402,A,5056.0231,N,00123.7590,W,002.4,333.1,080216,002.9,W*72
$GPGGA,195402,5056.0231,N,00123.7590,W,1,02,1.0,15.8,M,46.9,M,,*62
t277068,276513
$GPRMC,195403,A,5056.0236,N,00123.7594,W,001.8,318.7,080216,002.9,W*70
$GPGGA,195403,5056.0236,N,00123.7594,W,1,02,1.0,16.0,M,46.9,M,,*6B
t277971,277513
$GPRMC,195404,A,5056.0233,N,00123.7597,W,002.9,347.2,080216,002.9,W*7C
$GPGGA,195404,5056.0233,N,00123.7597,W,1,02,1.0,16.6,M,46.9,M,,*6C
t278978,278512
$GPRMC,195405,A,5056.0235,N,00123.7603,W,002.4,329.0,080216,002.9,W*72
$GPGGA,195405,5056.0235,N,00123.7603,W,1,02,1.0,16.6,M,46.9,M,,*65
t279971,279511
$GPRMC,195406,A,5056.0258,N,00123.7615,W,003.1,329.8,080216,002.9,W*71
$GPGGA,195406,5056.0258,N,00123.7615,W,1,02,1.0,16.0,M,46.9,M,,*6C
t280966,280511
$GPRMC,195407,A,5056.0262,N,00123.7621,W,003.1,337.8,080216,002.9,W*71
$GPGGA,195407,5056.0262,N,00123.7621,W,1,02,1.0,16.4,M,46.9,M,,*67
t281974,281510
$GPRMC,195408,A,5056.0267,N,00123.7622,W,002.8,342.1,080216,002.9,W*7B
$GPGGA,195408,5056.0267,N,00123.7622,W,1,02,1.0,16.9,M,46.9,M,,*63
t282966,282510
$GPRMC,195409,A,5056.0273,N,00123.7628,W,002.9,334.0,080216,002.9,W*74
$GPGGA,195409,5056.0273,N,00123.7628,W,1,02,1.0,17.1,M,46.9,M,,*64
t283970,283509
$GPRMC,195410,A,5056.0281,N,00123.7627,W,002.3,319.5,080216,002.9,W*7E
$GPGGA,195410,5056.0281,N,00123.7627,W,1,02,1.0,19.9,M,46.9,M,,*68
t284971,284509
$GPRMC,195411,A,5056.0289,N,00123.7634,W,002.2,329.5,080216,002.9,W*77
$GPGGA,195411,5056.0289,N,00123.7634,W,1,02,1.0,21.4,M,46.9,M,,*65
t285961,285508
$GPRMC,195412,A,5056.0294,N,00123.7634,W,002.2,344.3,080216,002.9,W*75
$GPGGA,195412,5056.0294,N,00123.7634,W,1,02,1.0,21.5,M,46.9,M,,*6B
t286951,286507
$GPRMC,195413,A,5056.0297,N,00123.7640,W,002.4,327.9,080216,002.9,W*7D
$GPGGA,195413,5056.0297,N,00123.7640,W,1,02,1.0,21.1,M,46.9,M,,*6E
t287958,287508
$GPRMC,195414,A,5056.0301,N,00123.7644,W,002.8,341.1,080216,002.9,W*74
$GPGGA,195414,5056.0301,N,00123.7644,W,1,02,1.0,20.9,M,46.9,M,,*6A
t288970,288507
$GPRMC,195415,A,5056.0310,N,00123.7654,W,003.0,322.9,080216,002.9,W*70
$GPGGA,195415,5056.0310,N,00123.7654,W,1,02,1.0,21.0,M,46.9,M,,*62
t289966,289507
$GPRMC,195416,A,5056.0309,N,00123.7658,W,002.2,312.9,080216,002.9,W*77
$GPGGA,195416,5056.0309,N,00123.7658,W,1,02,1.0,21.5,M,46.9,M,,*60
t290964,290506
$GPRMC,195417,A,5056.0314,N,00123.7662,W,002.9,317.5,080216,002.9,W*71
$GPGGA,195417,5056.0314,N,00123.7662,W,1,02,1.0,22.1,M,46.9,M,,*63
t291959,291506
$GPRMC,195418,A,5056.0318,N,00123.7672,W,002.4,325.8,080216,002.9,W*72
$GPGGA,195418,5056.0318,N,00123.7672,W,1,02,1.0,22.4,M,46.9,M,,*64
t292976,292505
$GPRMC,195419,A,5056.0321,N,00123.7675,W,002.2,332.1,080216,002.9,W*77
$GPGGA,195419,5056.0321,N,00123.7675,W,1,02,1.0,22.7,M,46.9,M,,*6B
t293976,293504
$GPRMC,195420,A,5056.0334,N,00123.7675,W,002.8,344.5,080216,002.9,W*76
$GPGGA,195420,5056.0334,N,00123.7675,W,1,02,1.0,23.1,M,46.9,M,,*62
t294970,294504
$GPRMC,195421,A,5056.0345,N,00123.7685,W,002.8,330.8,080216,002.9,W*70
$GPGGA,195421,5056.0345,N,00123.7685,W,1,02,1.0,23.1,M,46.9,M,,*6A
t295965,295503
$GPRMC,195422,A,5056.0354,N,00123.7691,W,003.2,331.1,080216,002.9,W*75
$GPGGA,195422,5056.0354,N,00123.7691,W,1,02,1.0,23.6,M,46.9,M,,*6B
t296963,296503
$GPRMC,195423,A,5056.0360,N,00123.7695,W,002.4,339.4,080216,002.9,W*7D
$GPGGA,195423,5056.0360,N,00123.7695,W,1,02,1.0,24.0,M,46.9,M,,*68
t297963,297502
$GPRMC,195424,A,5056.0366,N,00123.7696,W,002.6,325.4,080216,002.9,W*70
$GPGGA,195424,5056.0366,N,00123.7696,W,1,02,1.0,24.2,M,46.9,M,,*68
t298972,298502
$GPRMC,195425,A,5056.0375,N,00123.7698,W,003.0,332.0,080216,002.9,W*78
$GPGGA,195425,5056.0375,N,00123.7698,W,1,02,1.0,24.5,M,46.9,M,,*62
t299972,299501
$GPRMC,195426,A,5056.0393,N,00123.7699,W,003.4,335.7,080216,002.9,W*76
$GPGGA,195426,5056.0393,N,00123.7699,W,1,02,1.0,25.6,M,46.9,M,,*6A
t300967,300501
$GPRMC,195427,A,5056.0390,N,00123.7714,W,003.2,324.4,080216,002.9,W*75
$GPGGA,195427,5056.0390,N,00123.7714,W,1,02,1.0,27.2,M,46.9,M,,*6A
t302013,301501
$GPRMC,195428,A,5056.0388,N,00123.7724,W,003.4,331.8,080216,002.9,W*7E
$GPGGA,195428,5056.0388,N,00123.7724,W,1,02,1.0,28.3,M,46.9,M,,*61
t302954,302500
$GPRMC,195429,A,5056.0395,N,00123.7731,W,003.1,342.9,080216,002.9,W*77
$GPGGA,195429,5056.0395,N,00123.7731,W,1,02,1.0,28.5,M,46.9,M,,*6E
t303960,303500
$GPRMC,195430,A,5056.0401,N,00123.7732,W,002.1,332.5,080216,002.9,W*7C
$GPGGA,195430,5056.0401,N,00123.7732,W,1,02,1.0,29.2,M,46.9,M,,*69
t304951,304499
$GPRMC,195431,A,5056.0410,N,00123.7740,W,001.7,329.4,080216,002.9,W*76
$GPGGA,195431,5056.0410,N,00123.7740,W,1,02,1.0,30.2,M,46.9,M,,*65
t305951,305499
$GPRMC,195432,A,5056.0421,N,00123.7743,W,002.6,331.3,080216,002.9,W*78
$GPGGA,195432,5056.0421,N,00123.7743,W,1,02,1.0,31.0,M,46.9,M,,*64
t306951,306498
$GPRMC,195433,A,5056.0430,N,00123.7749,W,003.8,342.7,080216,002.9,W*7C
$GPGGA,195433,5056.0430,N,00123.7749,W,1,02,1.0,31.7,M,46.9,M,,*68
t308050,307497
$GPRMC,195434,A,5056.0438,N,00123.7757,W,003.6,351.5,080216,002.9,W*72
$GPGGA,195434,5056.0438,N,00123.7757,W,1,02,1.0,32.3,M,46.9,M,,*6F
t308959,308497
$GPRMC,195435,A,5056.0437,N,00123.7765,W,003.3,343.7,080216,002.9,W*79
$GPGGA,195435,5056.0437,N,00123.7765,W,1,02,1.0,33.3,M,46.9,M,,*61
t309966,309496
$GPRMC,195436,A,5056.0443,N,00123.7769,W,003.7,347.6,080216,002.9,W*74
$GPGGA,195436,5056.0443,N,00123.7769,W,1,02,1.0,33.9,M,46.9,M,,*67
t310949,310496
$GPRMC,195437,A,5056.0447,N,00123.7779,W,002.2,328.4,080216,002.9,W*7F
$GPGGA,195437,5056.0447,N,00123.7779,W,1,02,1.0,35.0,M,46.9,M,,*6C
t311946,311495
$GPRMC,195438,A,5056.0460,N,00123.7781,W,002.5,347.2,080216,002.9,W*7A
$GPGGA,195438,5056.0460,N,00123.7781,W,1,02,1.0,34.7,M,46.9,M,,*67
t312951,312494
$GPRMC,195439,A,5056.0466,N,00123.7783,W,002.3,347.0,080216,002.9,W*7B
$GPGGA,195439,5056.0466,N,00123.7783,W,1,02,1.0,34.1,M,46.9,M,,*64
t313953,313495
$GPRMC,195440,A,5056.0471,N,00123.7787,W,002.7,342.2,080216,002.9,W*74
$GPGGA,195440,5056.0471,N,00123.7787,W,1,02,1.0,34.1,M,46.9,M,,*68
t314949,314494
$GPRMC,195441,A,5056.0479,N,00123.7803,W,002.6,336.1,080216,002.9,W*7F
$GPGGA,195441,5056.0479,N,00123.7803,W,1,02,1.0,33.6,M,46.9,M,,*62
t315954,315494
$GPRMC,195442,A,5056.0487,N,00123.7809,W,003.2,332.8,080216,002.9,W*7F
$GPGGA,195442,5056.0487,N,00123.7809,W,1,02,1.0,33.4,M,46.9,M,,*68
t316955,316493
$GPRMC,195443,A,5056.0493,N,00123.7817,W,003.1,342.2,080216,002.9,W*7A
$GPGGA,195443,5056.0493,N,00123.7817,W,1,02,1.0,34.2,M,46.9,M,,*62
t317942,317493
$GPRMC,195444,A,5056.0503,N,00123.7822,W,003.3,333.8,080216,002.9,W*7D
$GPGGA,195444,5056.0503,N,00123.7822,W,1,02,1.0,34.2,M,46.9,M,,*6B
t318966,318492
$GPRMC,195445,A,5056.0504,N,00123.7836,W,002.7,320.1,080216,002.9,W*70
$GPGGA,195445,5056.0504,N,00123.7836,W,1,02,1.0,34.0,M,46.9,M,,*6A
t319954,319491
$GPRMC,195446,A,5056.0508,N,00123.7843,W,002.0,306.5,080216,002.9,W*7A
$GPGGA,195446,5056.0508,N,00123.7843,W,1,02,1.0,33.8,M,46.9,M,,*68
t320946,320491
$GPRMC,195447,A,5056.0509,N,00123.7850,W,001.9,260.2,080216,002.9,W*74
$GPGGA,195447,5056.0509,N,00123.7850,W,1,02,1.0,33.8,M,46.9,M,,*6A
t321954,321490
$GPRMC,195448,A,5056.0503,N,00123.7854,W,001.9,238.5,080216,002.9,W*7F
$GPGGA,195448,5056.0503,N,00123.7854,W,1,02,1.0,33.9,M,46.9,M,,*6A
t322954,322490
$GPRMC,195449,A,5056.0500,N,00123.7864,W,002.8,259.8,080216,002.9,W*76
$GPGGA,195449,5056.0500,N,00123.7864,W,1,02,1.0,33.8,M,46.9,M,,*6A
t323955,323489
$GPRMC,195450,A,5056.0497,N,00123.7884,W,003.0,263.5,080216,002.9,W*72
$GPGGA,195450,5056.0497,N,00123.7884,W,1,02,1.0,34.6,M,46.9,M,,*6A
t324947,324489
$GPRMC,195451,A,5056.0495,N,00123.7895,W,002.3,250.5,080216,002.9,W*73
$GPGGA,195451,5056.0495,N,00123.7895,W,1,02,1.0,34.4,M,46.9,M,,*6B
t325945,325488
$GPRMC,195452,A,5056.0493,N,00123.7906,W,002.8,251.1,080216,002.9,W*73
$GPGGA,195452,5056.0493,N,00123.7906,W,1,02,1.0,34.3,M,46.9,M,,*62
t326956,326488
$GPRMC,195453,A,5056.0492,N,00123.7918,W,002.3,268.5,080216,002.9,W*79
$GPGGA,195453,5056.0492,N,00123.7918,W,1,02,1.0,33.3,M,46.9,M,,*6A
t327943,327488
$GPRMC,195454,A,5056.0495,N,00123.7917,W,001.9,267.4,080216,002.9,W*71
$GPGGA,195454,5056.0495,N,00123.7917,W,1,02,1.0,33.8,M,46.9,M,,*6E
t328940,328487
$GPRMC,195455,A,5056.0491,N,00123.7937,W,002.6,263.9,080216,002.9,W*73
$GPGGA,195455,5056.0491,N,00123.7937,W,1,02,1.0,33.1,M,46.9,M,,*60
t329951,329487
$GPRMC,195456,A,5056.0491,N,00123.7950,W,002.1,280.1,080216,002.9,W*73
$GPGGA,195456,5056.0491,N,00123.7950,W,1,02,1.0,33.0,M,46.9,M,,*63
t330943,330486
$GPRMC,195457,A,5056.0491,N,00123.7960,W,002.2,265.2,080216,002.9,W*7A
$GPGGA,195457,5056.0491,N,00123.7960,W,1,02,1.0,33.0,M,46.9,M,,*61
t331931,331486
$GPRMC,195458,A,5056.0491,N,00123.7970,W,001.8,269.1,080216,002.9,W*72
$GPGGA,195458,5056.0491,N,00123.7970,W,1,02,1.0,32.9,M,46.9,M,,*67
t332932,332485
$GPRMC,195459,A,5056.0489,N,00123.7984,W,002.0,261.6,080216,002.9,W*75
$GPGGA,195459,5056.0489,N,00123.7984,W,1,02,1.0,32.6,M,46.9,M,,*6B
t333937,333484
$GPRMC,195500,A,5056.0486,N,00123.7993,W,002.1,249.4,080216,002.9,W*78
$GPGGA,195500,5056.0486,N,00123.7993,W,1,02,1.0,32.4,M,46.9,M,,*6D
t334932,334484
$GPRMC,195501,A,5056.0483,N,00123.8003,W,002.3,236.1,080216,002.9,W*7C
$GPGGA,195501,5056.0483,N,00123.8003,W,1,02,1.0,32.3,M,46.9,M,,*61
t335926,335483
$GPRMC,195502,A,5056.0475,N,00123.8010,W,002.9,218.3,080216,002.9,W*70
$GPGGA,195502,5056.0475,N,00123.8010,W,1,02,1.0,32.1,M,46.9,M,,*6B
t336953,336483
$GPRMC,195503,A,5056.0473,N,00123.8015,W,001.9,212.0,080216,002.9,W*78
$GPGGA,195503,5056.0473,N,00123.8015,W,1,02,1.1,,M,46.9,M,,*76
t337907,337482
$GPRMC,195505,A,5056.0467,N,00123.8022,W,000.8,212.0,080216,002.9,W*7F
$GPGGA,195505,5056.0467,N,00123.8022,W,1,02,1.1,,M,46.9,M,,*71
t338913,338482
$GPRMC,195507,A,5056.0458,N,00123.8035,W,002.2,222.5,080216,002.9,W*79
$GPGGA,195507,5056.0458,N,00123.8035,W,1,02,1.0,,M,46.9,M,,*78
t339906,339481
$GPRMC,195510,A,5056.0436,N,00123.8042,W,003.0,184.3,080216,002.9,W*7D
$GPGGA,195510,5056.0436,N,00123.8042,W,1,02,1.0,30.3,M,46.9,M,,*68
t340916,340479
$GPRMC,195511,A,5056.0427,N,00123.8045,W,003.0,186.5,080216,002.9,W*7F
$GPGGA,195511,5056.0427,N,00123.8045,W,1,02,1.0,29.9,M,46.9,M,,*6C
t341922,341479
$GPRMC,195512,A,5056.0426,N,00123.8044,W,002.7,180.9,080216,002.9,W*70
$GPGGA,195512,5056.0426,N,00123.8044,W,1,02,1.0,29.7,M,46.9,M,,*61
t342933,342478
$GPRMC,195513,A,5056.0418,N,00123.8048,W,002.8,201.9,080216,002.9,W*75
$GPGGA,195513,5056.0418,N,00123.8048,W,1,02,1.1,,M,46.9,M,,*72
t343898,343477
$GPRMC,195515,A,5056.0406,N,00123.8069,W,002.2,232.4,080216,002.9,W*78
$GPGGA,195515,5056.0406,N,00123.8069,W,1,02,1.1,,M,46.9,M,,*78
t344897,344476
$GPRMC,195517,A,5056.0398,N,00123.8088,W,002.0,243.1,080216,002.9,W*74
$GPGGA,195517,5056.0398,N,00123.8088,W,1,02,1.0,28.1,M,46.9,M,,*61
t345931,345475
$GPRMC,195518,A,5056.0394,N,00123.8101,W,002.3,248.5,080216,002.9,W*7B
$GPGGA,195518,5056.0394,N,00123.8101,W,1,02,1.0,,M,46.9,M,,*77
t346897,346475
$GPRMC,195520,A,5056.0390,N,00123.8114,W,001.6,248.5,080216,002.9,W*76
$GPGGA,195520,5056.0390,N,00123.8114,W,1,02,1.0,27.2,M,46.9,M,,*65
t347924,347474
$GPRMC,195521,A,5056.0382,N,00123.8123,W,002.3,214.6,080216,002.9,W*7C
$GPGGA,195521,5056.0382,N,00123.8123,W,1,02,1.0,26.9,M,46.9,M,,*69
t348920,348474
$GPRMC,195522,A,5056.0378,N,00123.8127,W,001.5,214.6,080216,002.9,W*7B
$GPGGA,195522,5056.0378,N,00123.8127,W,1,02,1.0,26.7,M,46.9,M,,*65
t349930,349473
$GPRMC,195523,A,5056.0374,N,00123.8127,W,001.5,214.6,080216,002.9,W*76
$GPGGA,195523,5056.0374,N,00123.8127,W,1,02,1.0,26.4,M,46.9,M,,*6B
t350924,350473
$GPRMC,195524,A,5056.0370,N,00123.8128,W,001.2,214.6,080216,002.9,W*7D
$GPGGA,195524,5056.0370,N,00123.8128,W,1,02,1.0,26.1,M,46.9,M,,*62
t351926,351472
$GPRMC,195525,A,5056.0367,N,00123.8128,W,001.1,214.6,080216,002.9,W*79
$GPGGA,195525,5056.0367,N,00123.8128,W,1,02,1.0,25.9,M,46.9,M,,*6E
t352918,352472
$GPRMC,195526,A,5056.0363,N,00123.8130,W,001.3,214.6,080216,002.9,W*75
$GPGGA,195526,5056.0363,N,00123.8130,W,1,02,1.0,25.6,M,46.9,M,,*6F
t353943,353471
$GPRMC,195527,A,5056.0359,N,00123.8134,W,001.4,214.6,080216,002.9,W*7E
$GPGGA,195527,5056.0359,N,00123.8134,W,1,02,1.0,25.3,M,46.9,M,,*66
t354917,354470
$GPRMC,195528,A,5056.0352,N,00123.8135,W,002.0,172.6,080216,002.9,W*7F
$GPGGA,195528,5056.0352,N,00123.8135,W,1,02,1.2,25.1,M,46.9,M,,*63
t355900,355470
$GPRMC,195529,A,5056.0344,N,00123.8139,W,001.9,171.7,080216,002.9,W*7D
$GPGGA,195529,5056.0344,N,00123.8139,W,1,02,1.2,24.7,M,46.9,M,,*6E
t356936,356469
$GPRMC,195530,A,5056.0339,N,00123.8137,W,001.8,170.5,080216,002.9,W*73
$GPGGA,195530,5056.0339,N,00123.8137,W,1,02,1.4,,M,46.9,M,,*7B
t357886,357469
$GPRMC,195532,A,5056.0329,N,00123.8142,W,001.7,190.7,080216,002.9,W*71
$GPGGA,195532,5056.0329,N,00123.8142,W,1,02,1.0,,M,46.9,M,,*7E
t358904,358468
$GPRMC,195536,A,5056.0333,N,00123.8131,W,001.8,038.5,080216,002.9,W*74
$GPGGA,195536,5056.0333,N,00123.8131,W,1,02,1.0,,M,46.9,M,,*75
t359890,359466
$GPRMC,195541,A,5056.0327,N,00123.8123,W,000.4,038.5,080216,002.9,W*7F
$GPGGA,195541,5056.0327,N,00123.8123,W,1,02,1.0,22.6,M,46.9,M,,*6B
t360911,360463
$GPRMC,195542,A,5056.0327,N,00123.8119,W,000.6,038.5,080216,002.9,W*77
$GPGGA,195542,5056.0327,N,00123.8119,W,1,02,1.0,22.6,M,46.9,M,,*61
t361902,361463
$GPRMC,195543,A,5056.0324,N,00123.8118,W,000.9,038.5,080216,002.9,W*7B
$GPGGA,195543,5056.0324,N,00123.8118,W,1,02,1.0,,M,46.9,M,,*7A
t362984,362462
$GPRMC,195546,A,5056.0321,N,00123.8106,W,000.8,038.5,080216,002.9,W*75
$GPGGA,195546,5056.0321,N,00123.8106,W,1,02,1.2,,M,46.9,M,,*77
t363878,363461
$GPRMC,195553,A,5056.0336,N,00123.8123,W,002.5,289.8,080216,002.9,W*7A
$GPGGA,195553,5056.0336,N,00123.8123,W,1,02,1.0,22.0,M,46.9,M,,*6E
t364905,364457
$GPRMC,195554,A,5056.0333,N,00123.8130,W,002.3,271.1,080216,002.9,W*72
$GPGGA,195554,5056.0333,N,00123.8130,W,1,02,2.1,,M,46.9,M,,*72
t365879,365457
$GPRMC,195557,A,5056.0336,N,00123.8140,W,001.9,321.7,080216,002.9,W*78
$GPGGA,195557,5056.0336,N,00123.8140,W,1,02,1.0,21.1,M,46.9,M,,*6D
t366906,366455
$GPRMC,195558,A,5056.0340,N,00123.8142,W,002.1,331.9,080216,002.9,W*70
$GPGGA,195558,5056.0340,N,00123.8142,W,1,02,1.1,,M,46.9,M,,*7C
t367873,367456
$GPRMC,195605,A,5056.0340,N,00123.8187,W,002.2,324.4,080216,002.9,W*78
$GPGGA,195605,5056.0340,N,00123.8187,W,1,02,1.0,20.0,M,46.9,M,,*63
t368905,368452
$GPRMC,195606,A,5056.0346,N,00123.8197,W,001.9,311.5,080216,002.9,W*73
$GPGGA,195606,5056.0346,N,00123.8197,W,1,02,1.1,,M,46.9,M,,*7A
t369975,369451
$GPRMC,195608,A,5056.0347,N,00123.8210,W,001.6,311.5,080216,002.9,W*7F
$GPGGA,195608,5056.0347,N,00123.8210,W,1,02,1.1,,M,46.9,M,,*79
t370887,370450
$GPRMC,195613,A,5056.0418,N,00123.8360,W,000.9,311.5,080216,002.9,W*70
$GPGGA,195613,5056.0418,N,00123.8360,W,1,02,1.4,,M,46.9,M,,*7D
t371883,371448
$GPRMC,195622,A,5056.0406,N,00123.8412,W,002.5,285.8,080216,002.9,W*70
$GPGGA,195622,5056.0406,N,00123.8412,W,1,02,1.0,,M,46.9,M,,*76
t372865,372443
$GPRMC,195624,A,5056.0404,N,00123.8444,W,002.2,268.4,080216,002.9,W*7F
$GPGGA,195624,5056.0404,N,00123.8444,W,1,02,1.0,21.3,M,46.9,M,,*6F
t373898,373442
$GPRMC,195625,A,5056.0403,N,00123.8460,W,002.3,281.6,080216,002.9,W*7B
$GPGGA,195625,5056.0403,N,00123.8460,W,1,02,1.2,21.3,M,46.9,M,,*6D
t374875,374442
$GPRMC,195626,A,5056.0399,N,00123.8481,W,002.7,282.7,080216,002.9,W*75
$GPGGA,195626,5056.0399,N,00123.8481,W,1,02,1.0,21.3,M,46.9,M,,*67
t375904,375441
$GPRMC,195627,A,5056.0398,N,00123.8494,W,001.4,282.7,080216,002.9,W*71
$GPGGA,195627,5056.0398,N,00123.8494,W,1,02,1.0,21.3,M,46.9,M,,*63
t376892,376441
$GPRMC,195628,A,5056.0393,N,00123.8520,W,001.9,281.6,080216,002.9,W*74
$GPGGA,195628,5056.0393,N,00123.8520,W,1,02,1.0,21.2,M,46.9,M,,*68
t377884,377440
$GPRMC,195629,A,5056.0384,N,00123.8544,W,002.1,280.5,080216,002.9,W*78
$GPGGA,195629,5056.0384,N,00123.8544,W,1,02,1.0,,M,46.9,M,,*72
t378879,378440
$GPRMC,195631,A,5056.0352,N,00123.8629,W,001.9,275.5,080216,002.9,W*73
$GPGGA,195631,5056.0352,N,00123.8629,W,1,02,1.0,20.9,M,46.9,M,,*6D
t379885,379439
$GPRMC,195632,A,5056.0338,N,00123.8664,W,002.4,279.7,080216,002.9,W*75
$GPGGA,195632,5056.0338,N,00123.8664,W,1,02,1.0,20.6,M,46.9,M,,*64
t380893,380438
$GPRMC,195633,A,5056.0344,N,00123.8665,W,002.2,293.5,080216,002.9,W*7E
$GPGGA,195633,5056.0344,N,00123.8665,W,1,02,1.0,20.8,M,46.9,M,,*61
t381887,381437
$GPRMC,195634,A,5056.0335,N,00123.8697,W,002.6,290.5,080216,002.9,W*75
$GPGGA,195634,5056.0335,N,00123.8697,W,1,02,1.0,20.9,M,46.9,M,,*6C
t382898,382437
$GPRMC,195635,A,5056.0367,N,00123.8791,W,002.0,266.8,080216,002.9,W*76
$GPGGA,195635,5056.0367,N,00123.8791,W,1,02,1.0,22.6,M,46.9,M,,*60
t383906,383436
$GPRMC,195636,A,5056.0368,N,00123.8866,W,002.7,278.1,080216,002.9,W*7C
$GPGGA,195636,5056.0368,N,00123.8866,W,1,02,1.0,23.2,M,46.9,M,,*6E
t384890,384436
$GPRMC,195637,A,5056.0380,N,00123.8907,W,002.3,269.9,080216,002.9,W*71
$GPGGA,195637,5056.0380,N,00123.8907,W,1,02,1.0,23.4,M,46.9,M,,*69
t385982,385435
$GPRMC,195638,A,5056.0371,N,00123.8918,W,001.7,289.4,080216,002.9,W*7A
$GPGGA,195638,5056.0371,N,00123.8918,W,1,02,1.0,23.0,M,46.9,M,,*62
t386899,386436
$GPRMC,195639,A,5056.0390,N,00123.8936,W,002.2,281.1,080216,002.9,W*73
$GPGGA,195639,5056.0390,N,00123.8936,W,1,02,1.0,23.5,M,46.9,M,,*65
t387896,387435
$GPRMC,195640,A,5056.0393,N,00123.8951,W,001.9,283.4,080216,002.9,W*70
$GPGGA,195640,5056.0393,N,00123.8951,W,1,02,1.0,23.3,M,46.9,M,,*6F
t388897,388434
$GPRMC,195641,A,5056.0375,N,00123.8956,W,001.9,255.1,080216,002.9,W*70
$GPGGA,195641,5056.0375,N,00123.8956,W,1,02,1.0,22.5,M,46.9,M,,*66
t389895,389434
$GPRMC,195642,A,5056.0378,N,00123.8970,W,002.8,273.5,080216,002.9,W*78
$GPGGA,195642,5056.0378,N,00123.8970,W,1,02,1.0,22.3,M,46.9,M,,*6A
t390895,390433
$GPRMC,195643,A,5056.0375,N,00123.8985,W,003.0,288.3,080216,002.9,W*75
$GPGGA,195643,5056.0375,N,00123.8985,W,1,02,1.1,22.0,M,46.9,M,,*6E
t391871,391433
$GPRMC,195644,A,5056.0376,N,00123.8994,W,002.5,286.9,080216,002.9,W*71
$GPGGA,195644,5056.0376,N,00123.8994,W,1,02,1.0,21.9,M,46.9,M,,*61
t392907,392432
$GPRMC,195645,A,5056.0360,N,00123.9005,W,002.8,288.9,080216,002.9,W*74
$GPGGA,195645,5056.0360,N,00123.9005,W,1,02,1.0,20.7,M,46.9,M,,*68
t393890,393432
$GPRMC,195646,A,5056.0358,N,00123.9017,W,002.4,285.3,080216,002.9,W*74
$GPGGA,195646,5056.0358,N,00123.9017,W,1,02,1.0,19.9,M,46.9,M,,*67
t394892,394431
$GPRMC,195647,A,5056.0358,N,00123.9027,W,001.9,291.1,080216,002.9,W*7F
$GPGGA,195647,5056.0358,N,00123.9027,W,1,02,1.0,20.4,M,46.9,M,,*62
t395897,395430
$GPRMC,195648,A,5056.0360,N,00123.9041,W,002.8,284.9,080216,002.9,W*75
$GPGGA,195648,5056.0360,N,00123.9041,W,1,02,1.0,19.3,M,46.9,M,,*6B
t396890,396430
$GPRMC,195649,A,5056.0359,N,00123.9052,W,002.6,266.5,080216,002.9,W*72
$GPGGA,195649,5056.0359,N,00123.9052,W,1,02,1.0,19.4,M,46.9,M,,*65
t397897,397429
$GPRMC,195650,A,5056.0364,N,00123.9058,W,001.8,272.0,080216,002.9,W*73
$GPGGA,195650,5056.0364,N,00123.9058,W,1,02,1.0,19.4,M,46.9,M,,*69
t398902,398429
$GPRMC,195651,A,5056.0373,N,00123.9071,W,002.7,276.5,080216,002.9,W*72
$GPGGA,195651,5056.0373,N,00123.9071,W,1,02,1.0,19.3,M,46.9,M,,*62
t399886,399428
$GPRMC,195652,A,5056.0376,N,00123.9081,W,002.8,286.8,080216,002.9,W*76
$GPGGA,195652,5056.0376,N,00123.9081,W,1,02,1.0,19.0,M,46.9,M,,*68
t400887,400429
$GPRMC,195653,A,5056.0379,N,00123.9094,W,003.2,283.5,080216,002.9,W*7F
$GPGGA,195653,5056.0379,N,00123.9094,W,1,02,1.0,19.0,M,46.9,M,,*62
t401889,401428
$GPRMC,195654,A,5056.0381,N,00123.9107,W,002.4,289.0,080216,002.9,W*7C
$GPGGA,195654,5056.0381,N,00123.9107,W,1,02,1.0,19.3,M,46.9,M,,*6A
t402905,402427
$GPRMC,195655,A,5056.0384,N,00123.9116,W,002.0,273.0,080216,002.9,W*79
$GPGGA,195655,5056.0384,N,00123.9116,W,1,02,1.0,19.6,M,46.9,M,,*6B
t403889,403427
$GPRMC,195656,A,5056.0386,N,00123.9125,W,002.4,272.6,080216,002.9,W*7B
$GPGGA,195656,5056.0386,N,00123.9125,W,1,02,1.0,19.7,M,46.9,M,,*6B
t404893,404426
$GPRMC,195657,A,5056.0385,N,00123.9135,W,002.1,253.0,080216,002.9,W*78
$GPGGA,195657,5056.0385,N,00123.9135,W,1,02,1.0,19.8,M,46.9,M,,*67
t405901,405426
$GPRMC,195658,A,5056.0384,N,00123.9144,W,002.4,252.3,080216,002.9,W*77
$GPGGA,195658,5056.0384,N,00123.9144,W,1,02,1.0,20.0,M,46.9,M,,*6D
t406880,406425
$GPRMC,195659,A,5056.0382,N,00123.9159,W,003.1,255.8,080216,002.9,W*74
$GPGGA,195659,5056.0382,N,00123.9159,W,1,02,1.0,20.2,M,46.9,M,,*64
t407941,407425
$GPRMC,195700,A,5056.0375,N,00123.9176,W,003.2,263.4,080216,002.9,W*76
$GPGGA,195700,5056.0375,N,00123.9176,W,1,02,1.0,19.5,M,46.9,M,,*61
t408889,408424
$GPRMC,195701,A,5056.0377,N,00123.9188,W,002.5,279.8,080216,002.9,W*75
$GPGGA,195701,5056.0377,N,00123.9188,W,1,02,1.0,19.6,M,46.9,M,,*60
t409876,409423
$GPRMC,195702,A,5056.0385,N,00123.9194,W,002.9,304.7,080216,002.9,W*7E
$GPGGA,195702,5056.0385,N,00123.9194,W,1,02,1.0,19.2,M,46.9,M,,*67
t410885,410423
$GPRMC,195703,A,5056.0400,N,00123.9207,W,003.4,312.5,080216,002.9,W*75
$GPGGA,195703,5056.0400,N,00123.9207,W,1,02,1.0,19.1,M,46.9,M,,*66
t411883,411422
$GPRMC,195704,A,5056.0406,N,00123.9215,W,003.1,301.8,080216,002.9,W*7D
$GPGGA,195704,5056.0406,N,00123.9215,W,1,02,1.0,19.3,M,46.9,M,,*66
t412882,412422
$GPRMC,195705,A,5056.0414,N,00123.9224,W,002.9,322.2,080216,002.9,W*7F
$GPGGA,195705,5056.0414,N,00123.9224,W,1,02,1.0,19.8,M,46.9,M,,*6D
t413874,413422
$GPRMC,195706,A,5056.0419,N,00123.9237,W,003.2,306.5,080216,002.9,W*78
$GPGGA,195706,5056.0419,N,00123.9237,W,1,02,1.0,19.8,M,46.9,M,,*61
t414876,414422
$GPRMC,195707,A,5056.0427,N,00123.9246,W,003.0,320.2,080216,002.9,W*73
$GPGGA,195707,5056.0427,N,00123.9246,W,1,02,1.0,19.8,M,46.9,M,,*6B
t415887,415421
$GPRMC,195708,A,5056.0434,N,00123.9258,W,003.0,304.1,080216,002.9,W*74
$GPGGA,195708,5056.0434,N,00123.9258,W,1,02,1.0,19.7,M,46.9,M,,*66
t416980,416420
$GPRMC,195709,A,5056.0441,N,00123.9268,W,002.9,311.7,080216,002.9,W*7E
$GPGGA,195709,5056.0441,N,00123.9268,W,1,02,1.0,19.8,M,46.9,M,,*69
t417892,417420
$GPRMC,195710,A,5056.0446,N,00123.9278,W,002.7,318.8,080216,002.9,W*78
$GPGGA,195710,5056.0446,N,00123.9278,W,1,02,1.0,19.5,M,46.9,M,,*6A
t418883,418419
$GPRMC,195711,A,5056.0451,N,00123.9288,W,002.7,306.1,080216,002.9,W*76
$GPGGA,195711,5056.0451,N,00123.9288,W,1,02,1.0,19.8,M,46.9,M,,*6F
t419873,419419
$GPRMC,195712,A,5056.0452,N,00123.9297,W,002.6,314.8,080216,002.9,W*73
$GPGGA,195712,5056.0452,N,00123.9297,W,1,02,1.0,19.4,M,46.9,M,,*6D
t420881,420418
$GPRMC,195713,A,5056.0460,N,00123.9297,W,002.5,329.4,080216,002.9,W*72
$GPGGA,195713,5056.0460,N,00123.9297,W,1,02,1.0,19.7,M,46.9,M,,*6E
t421872,421417
$GPRMC,195714,A,5056.0456,N,00123.9306,W,003.0,312.8,080216,002.9,W*79
$GPGGA,195714,5056.0456,N,00123.9306,W,1,02,1.0,20.0,M,46.9,M,,*68
t422884,422417
$GPRMC,195715,A,5056.0461,N,00123.9316,W,002.6,313.6,080216,002.9,W*75
$GPGGA,195715,5056.0461,N,00123.9316,W,1,02,1.1,20.2,M,46.9,M,,*6F
t423873,423416
$GPRMC,195716,A,5056.0465,N,00123.9325,W,002.9,339.7,080216,002.9,W*74
$GPGGA,195716,5056.0465,N,00123.9325,W,1,02,1.0,20.2,M,46.9,M,,*69
t424870,424416
$GPRMC,195717,A,5056.0468,N,00123.9331,W,002.7,331.4,080216,002.9,W*78
$GPGGA,195717,5056.0468,N,00123.9331,W,1,02,1.0,20.0,M,46.9,M,,*62
t425906,425415
$GPRMC,195718,A,5056.0474,N,00123.9343,W,002.7,317.8,080216,002.9,W*77
$GPGGA,195718,5056.0474,N,00123.9343,W,1,02,1.0,20.4,M,46.9,M,,*61
t426874,426415
$GPRMC,195719,A,5056.0475,N,00123.9355,W,002.0,308.5,080216,002.9,W*74
$GPGGA,195719,5056.0475,N,00123.9355,W,1,02,1.0,21.1,M,46.9,M,,*62
t427875,427415
$GPRMC,195720,A,5056.0477,N,00123.9362,W,001.7,304.2,080216,002.9,W*77
$GPGGA,195720,5056.0477,N,00123.9362,W,1,02,1.0,21.3,M,46.9,M,,*6C
t428877,428414
$GPRMC,195721,A,5056.0473,N,00123.9376,W,001.2,309.2,080216,002.9,W*7F
$GPGGA,195721,5056.0473,N,00123.9376,W,1,02,1.0,22.3,M,46.9,M,,*6F
t429869,429414
$GPRMC,195722,A,5056.0472,N,00123.9375,W,001.0,302.4,080216,002.9,W*71
$GPGGA,195722,5056.0472,N,00123.9375,W,1,02,1.0,22.7,M,46.9,M,,*6A
t430866,430413
$GPRMC,195723,A,5056.0469,N,00123.9381,W,001.1,298.3,080216,002.9,W*75
$GPGGA,195723,5056.0469,N,00123.9381,W,1,02,1.0,23.2,M,46.9,M,,*6E
t431864,431413
$GPRMC,195724,A,5056.0473,N,00123.9386,W,001.1,289.5,080216,002.9,W*78
$GPGGA,195724,5056.0473,N,00123.9386,W,1,02,1.0,23.4,M,46.9,M,,*63
t432883,432412
$GPRMC,195725,A,5056.0476,N,00123.9395,W,001.3,296.5,080216,002.9,W*72
$GPGGA,195725,5056.0476,N,00123.9395,W,1,02,1.0,23.5,M,46.9,M,,*64
t433865,433412
$GPRMC,195726,A,5056.0476,N,00123.9405,W,001.6,292.7,080216,002.9,W*7C
$GPGGA,195726,5056.0476,N,00123.9405,W,1,02,1.0,23.9,M,46.9,M,,*65
t434875,434411
$GPRMC,195727,A,5056.0479,N,00123.9414,W,001.9,289.8,080216,002.9,W*78
$GPGGA,195727,5056.0479,N,00123.9414,W,1,02,1.0,24.0,M,46.9,M,,*65
t435873,435410
$GPRMC,195728,A,5056.0486,N,00123.9422,W,002.1,296.6,080216,002.9,W*79
$GPGGA,195728,5056.0486,N,00123.9422,W,1,02,1.0,24.5,M,46.9,M,,*6A
t436862,436410
$GPRMC,195729,A,5056.0499,N,00123.9436,W,002.8,300.6,080216,002.9,W*74
$GPGGA,195729,5056.0499,N,00123.9436,W,1,02,1.0,24.5,M,46.9,M,,*60
t437870,437409
$GPRMC,195730,A,5056.0502,N,00123.9452,W,002.9,286.5,080216,002.9,W*70
$GPGGA,195730,5056.0502,N,00123.9452,W,1,02,1.0,24.5,M,46.9,M,,*69
t438870,438409
$GPRMC,195731,A,5056.0499,N,00123.9475,W,002.8,289.6,080216,002.9,W*7A
$GPGGA,195731,5056.0499,N,00123.9475,W,1,02,1.0,25.3,M,46.9,M,,*69
t439863,439408
$GPRMC,195732,A,5056.0500,N,00123.9487,W,002.6,309.7,080216,002.9,W*73
$GPGGA,195732,5056.0500,N,00123.9487,W,1,02,1.0,25.4,M,46.9,M,,*61
t440869,440409
$GPRMC,195733,A,5056.0505,N,00123.9497,W,003.0,313.3,080216,002.9,W*7E
$GPGGA,195733,5056.0505,N,00123.9497,W,1,02,1.0,25.9,M,46.9,M,,*69
t441868,441408
$GPRMC,195734,A,5056.0503,N,00123.9506,W,003.0,305.6,080216,002.9,W*74
$GPGGA,195734,5056.0503,N,00123.9506,W,1,02,1.0,26.6,M,46.9,M,,*6D
t442868,442407
$GPRMC,195735,A,5056.0511,N,00123.9516,W,002.2,291.8,080216,002.9,W*76
$GPGGA,195735,5056.0511,N,00123.9516,W,1,02,1.0,25.3,M,46.9,M,,*68
t443859,443407
$GPRMC,195736,A,5056.0503,N,00123.9521,W,002.2,304.9,080216,002.9,W*7E
$GPGGA,195736,5056.0503,N,00123.9521,W,1,02,1.0,24.8,M,46.9,M,,*66
t444867,444406
$GPRMC,195737,A,5056.0500,N,00123.9528,W,002.4,310.4,080216,002.9,W*7B
$GPGGA,195737,5056.0500,N,00123.9528,W,1,02,1.0,25.2,M,46.9,M,,*66
t445869,445406
$GPRMC,195738,A,5056.0519,N,00123.9542,W,003.4,320.0,080216,002.9,W*76
$GPGGA,195738,5056.0519,N,00123.9542,W,1,02,1.0,25.1,M,46.9,M,,*6E
t446862,446405
$GPRMC,195739,A,5056.0526,N,00123.9551,W,002.9,314.8,080216,002.9,W*7A
$GPGGA,195739,5056.0526,N,00123.9551,W,1,02,1.0,25.1,M,46.9,M,,*61
t447975,447405
$GPRMC,195740,A,5056.0527,N,00123.9563,W,002.6,315.5,080216,002.9,W*77
$GPGGA,195740,5056.0527,N,00123.9563,W,1,02,1.0,26.7,M,46.9,M,,*6A
t448857,448404
$GPRMC,195741,A,5056.0530,N,00123.9570,W,002.5,305.1,080216,002.9,W*74
$GPGGA,195741,5056.0530,N,00123.9570,W,1,02,1.0,25.7,M,46.9,M,,*6C
t449857,449403
$GPRMC,195742,A,5056.0530,N,00123.9580,W,003.1,299.3,080216,002.9,W*7B
$GPGGA,195742,5056.0530,N,00123.9580,W,1,02,1.0,25.8,M,46.9,M,,*6F
t450856,450403
$GPRMC,195743,A,5056.0534,N,00123.9596,W,002.6,313.6,080216,002.9,W*79
$GPGGA,195743,5056.0534,N,00123.9596,W,1,02,1.0,26.6,M,46.9,M,,*60
t451854,451402
$GPRMC,195744,A,5056.0539,N,00123.9604,W,003.2,318.0,080216,002.9,W*73
$GPGGA,195744,5056.0539,N,00123.9604,W,1,02,1.0,27.5,M,46.9,M,,*60
t452861,452402
$GPRMC,195745,A,5056.0533,N,00123.9613,W,003.0,304.6,080216,002.9,W*77
$GPGGA,195745,5056.0533,N,00123.9613,W,1,02,1.0,27.8,M,46.9,M,,*60
t453868,453402
$GPRMC,195746,A,5056.0545,N,00123.9622,W,002.7,316.0,080216,002.9,W*74
$GPGGA,195746,5056.0545,N,00123.9622,W,1,02,1.0,27.7,M,46.9,M,,*6F
t454853,454402
$GPRMC,195747,A,5056.0558,N,00123.9623,W,002.4,322.3,080216,002.9,W*7F
$GPGGA,195747,5056.0558,N,00123.9623,W,1,02,1.0,27.6,M,46.9,M,,*62
t455864,455401
$GPRMC,195748,A,5056.0562,N,00123.9630,W,002.5,331.6,080216,002.9,W*7D
$GPGGA,195748,5056.0562,N,00123.9630,W,1,02,1.0,28.1,M,46.9,M,,*6E
t456855,456400
$GPRMC,195749,A,5056.0572,N,00123.9633,W,002.8,331.6,080216,002.9,W*73
$GPGGA,195749,5056.0572,N,00123.9633,W,1,02,1.0,28.5,M,46.9,M,,*69
t457863,457400
$GPRMC,195750,A,5056.0577,N,00123.9642,W,003.2,306.8,080216,002.9,W*79
$GPGGA,195750,5056.0577,N,00123.9642,W,1,02,1.0,28.8,M,46.9,M,,*6F
t458860,458399
$GPRMC,195751,A,5056.0578,N,00123.9659,W,003.1,312.8,080216,002.9,W*7B
$GPGGA,195751,5056.0578,N,00123.9659,W,1,02,1.0,29.4,M,46.9,M,,*66
t459859,459399
$GPRMC,195752,A,5056.0574,N,00123.9674,W,003.2,335.4,080216,002.9,W*71
$GPGGA,195752,5056.0574,N,00123.9674,W,1,02,1.0,30.6,M,46.9,M,,*6C
t460852,460398
$GPRMC,195753,A,5056.0585,N,00123.9675,W,004.0,350.7,080216,002.9,W*7A
$GPGGA,195753,5056.0585,N,00123.9675,W,1,02,1.2,31.0,M,46.9,M,,*67
t461837,461398
$GPRMC,195754,A,5056.0594,N,00123.9673,W,003.9,007.1,080216,002.9,W*72
$GPGGA,195754,5056.0594,N,00123.9673,W,1,02,1.0,31.0,M,46.9,M,,*64
t462863,462397
$GPRMC,195755,A,5056.0598,N,00123.9676,W,003.3,333.9,080216,002.9,W*7C
$GPGGA,195755,5056.0598,N,00123.9676,W,1,01,1.0,31.1,M,46.9,M,,*6E
t463833,463396
$GPRMC,195756,A,5056.0606,N,00123.9685,W,003.1,327.7,080216,002.9,W*7E
$GPGGA,195756,5056.0606,N,00123.9685,W,1,02,1.2,30.9,M,46.9,M,,*6D
t464844,464396
$GPRMC,195757,A,5056.0610,N,00123.9689,W,003.4,349.0,080216,002.9,W*7E
$GPGGA,195757,5056.0610,N,00123.9689,W,1,02,1.0,31.1,M,46.9,M,,*6C
t465868,465395
$GPRMC,195758,A,5056.0617,N,00123.9691,W,002.7,009.5,080216,002.9,W*7F
$GPGGA,195758,5056.0617,N,00123.9691,W,1,02,1.1,30.9,M,46.9,M,,*65
t466836,466395
$GPRMC,195759,A,5056.0621,N,00123.9691,W,001.3,009.5,080216,002.9,W*7C
$GPGGA,195759,5056.0621,N,00123.9691,W,1,02,1.0,31.1,M,46.9,M,,*69
t467854,467395
$GPRMC,195800,A,5056.0627,N,00123.9692,W,002.2,357.6,080216,002.9,W*73
$GPGGA,195800,5056.0627,N,00123.9692,W,1,02,1.0,31.2,M,46.9,M,,*6C
t468853,468395
$GPRMC,195801,A,5056.0637,N,00123.9691,W,001.8,003.7,080216,002.9,W*7A
$GPGGA,195801,5056.0637,N,00123.9691,W,1,02,1.0,31.7,M,46.9,M,,*6A
t469844,469394
$GPRMC,195802,A,5056.0639,N,00123.9694,W,001.3,003.7,080216,002.9,W*79
$GPGGA,195802,5056.0639,N,00123.9694,W,1,02,1.1,31.1,M,46.9,M,,*65
t470848,470393
$GPRMC,195803,A,5056.0645,N,00123.9694,W,002.1,007.3,080216,002.9,W*72
$GPGGA,195803,5056.0645,N,00123.9694,W,1,02,1.0,30.8,M,46.9,M,,*66
t471846,471393
$GPRMC,195804,A,5056.0646,N,00123.9695,W,001.4,007.3,080216,002.9,W*71
$GPGGA,195804,5056.0646,N,00123.9695,W,1,02,1.2,29.7,M,46.9,M,,*66
t472848,472392
$GPRMC,195805,A,5056.0648,N,00123.9692,W,001.1,007.3,080216,002.9,W*7C
$GPGGA,195805,5056.0648,N,00123.9692,W,1,02,1.2,29.4,M,46.9,M,,*6D
t473816,473392
$GPRMC,195806,A,5056.0654,N,00123.9690,W,000.5,007.3,080216,002.9,W*75
$GPGGA,195806,5056.0654,N,00123.9690,W,1,02,1.0,28.8,M,46.9,M,,*6E
t474848,474391
$GPRMC,195807,A,5056.0663,N,00123.9689,W,001.9,017.2,080216,002.9,W*75
$GPGGA,195807,5056.0663,N,00123.9689,W,1,02,1.0,28.7,M,46.9,M,,*6C
t475844,475390
$GPRMC,195808,A,5056.0682,N,00123.9693,W,003.2,001.8,080216,002.9,W*7A
$GPGGA,195808,5056.0682,N,00123.9693,W,1,02,1.0,28.6,M,46.9,M,,*66
t476844,476390
$GPRMC,195809,A,5056.0699,N,00123.9698,W,003.7,349.8,080216,002.9,W*70
$GPGGA,195809,5056.0699,N,00123.9698,W,1,02,1.0,28.6,M,46.9,M,,*66
t477839,477389
$GPRMC,195810,A,5056.0726,N,00123.9709,W,004.5,001.2,080216,002.9,W*74
$GPGGA,195810,5056.0726,N,00123.9709,W,1,02,1.0,28.5,M,46.9,M,,*61
t478937,478389
$GPRMC,195811,A,5056.0745,N,00123.9722,W,003.3,351.8,080216,002.9,W*74
$GPGGA,195811,5056.0745,N,00123.9722,W,1,02,1.0,28.8,M,46.9,M,,*61
t479835,479388
$GPRMC,195812,A,5056.0751,N,00123.9730,W,001.8,016.3,080216,002.9,W*73
$GPGGA,195812,5056.0751,N,00123.9730,W,1,02,1.0,29.2,M,46.9,M,,*6F
t480846,480389
$GPRMC,195813,A,5056.0767,N,00123.9737,W,001.5,029.8,080216,002.9,W*7A
$GPGGA,195813,5056.0767,N,00123.9737,W,1,02,1.0,29.0,M,46.9,M,,*6E
t481842,481388
$GPRMC,195814,A,5056.0768,N,00123.9736,W,000.6,029.8,080216,002.9,W*71
$GPGGA,195814,5056.0768,N,00123.9736,W,1,02,1.0,29.0,M,46.9,M,,*67
t482865,482387
$GPRMC,195815,A,5056.0767,N,00123.9735,W,000.5,029.8,080216,002.9,W*7F
$GPGGA,195815,5056.0767,N,00123.9735,W,1,02,1.0,29.1,M,46.9,M,,*6B
t483950,483387
$GPRMC,195816,A,5056.0771,N,00123.9738,W,000.5,029.8,080216,002.9,W*76
$GPGGA,195816,5056.0771,N,00123.9738,W,1,02,1.0,29.2,M,46.9,M,,*61
t484838,484386
$GPRMC,195817,A,5056.0765,N,00123.9744,W,000.2,029.8,080216,002.9,W*7E
$GPGGA,195817,5056.0765,N,00123.9744,W,1,02,1.0,29.6,M,46.9,M,,*6A
t485849,485386
$GPRMC,195818,A,5056.0765,N,00123.9745,W,000.3,029.8,080216,002.9,W*71
$GPGGA,195818,5056.0765,N,00123.9745,W,1,02,1.0,29.6,M,46.9,M,,*64
t486854,486385
$GPRMC,195819,A,5056.0764,N,00123.9746,W,000.4,029.8,080216,002.9,W*75
$GPGGA,195819,5056.0764,N,00123.9746,W,1,02,1.0,29.6,M,46.9,M,,*67
t487846,487385
$GPRMC,195820,A,5056.0765,N,00123.9747,W,000.4,029.8,080216,002.9,W*7F
$GPGGA,195820,5056.0765,N,00123.9747,W,1,02,1.0,29.6,M,46.9,M,,*6D
t488839,488384
$GPRMC,195821,A,5056.0765,N,00123.9748,W,000.4,029.8,080216,002.9,W*71
$GPGGA,195821,5056.0765,N,00123.9748,W,1,02,1.0,29.6,M,46.9,M,,*63
t489847,489383
$GPRMC,195822,A,5056.0766,N,00123.9750,W,000.5,029.8,080216,002.9,W*79
$GPGGA,195822,5056.0766,N,00123.9750,W,1,02,1.0,29.6,M,46.9,M,,*6A
t490836,490383
$GPRMC,195823,A,5056.0766,N,00123.9752,W,000.5,029.8,080216,002.9,W*7A
$GPGGA,195823,5056.0766,N,00123.9752,W,1,02,1.1,29.6,M,46.9,M,,*68
t491824,491382
$GPRMC,195824,A,5056.0766,N,00123.9754,W,000.4,029.8,080216,002.9,W*7A
$GPGGA,195824,5056.0766,N,00123.9754,W,1,02,1.6,29.6,M,46.9,M,,*6E
t492827,492382
$GPRMC,195825,A,5056.0765,N,00123.9755,W,000.4,029.8,080216,002.9,W*79
$GPGGA,195825,5056.0765,N,00123.9755,W,1,02,1.6,29.6,M,46.9,M,,*6D
t493803,493382
$GPRMC,195826,A,5056.0764,N,00123.9756,W,000.4,029.8,080216,002.9,W*78
$GPGGA,195826,5056.0764,N,00123.9756,W,1,02,1.6,29.6,M,46.9,M,,*6C
t494810,494382
$GPRMC,195827,A,5056.0763,N,00123.9758,W,000.8,029.8,080216,002.9,W*7C
$GPGGA,195827,5056.0763,N,00123.9758,W,1,02,1.6,29.6,M,46.9,M,,*64
t495817,495381
$GPRMC,195828,A,5056.0761,N,00123.9761,W,000.8,029.8,080216,002.9,W*7B
$GPGGA,195828,5056.0761,N,00123.9761,W,1,02,1.2,29.6,M,46.9,M,,*67
t496826,496380
$GPRMC,195829,A,5056.0762,N,00123.9766,W,000.8,029.8,080216,002.9,W*7E
$GPGGA,195829,5056.0762,N,00123.9766,W,1,02,1.2,29.6,M,46.9,M,,*62
t497824,497380
$GPRMC,195830,A,5056.0764,N,00123.9767,W,000.5,029.8,080216,002.9,W*7C
$GPGGA,195830,5056.0764,N,00123.9767,W,1,02,1.2,29.6,M,46.9,M,,*6D
t498824,498379
$GPRMC,195831,A,5056.0765,N,00123.9770,W,000.6,029.8,080216,002.9,W*79
$GPGGA,195831,5056.0765,N,00123.9770,W,1,02,1.2,29.6,M,46.9,M,,*6B
t499816,499379
$GPRMC,195832,A,5056.0762,N,00123.9777,W,000.8,029.8,080216,002.9,W*74
$GPGGA,195832,5056.0762,N,00123.9777,W,1,02,1.7,,M,46.9,M,,*7E
t500788,500378
$GPRMC,195947,A,5056.0596,N,00123.9747,W,001.8,195.8,080216,002.9,W*7A
$GPGGA,195947,5056.0596,N,00123.9747,W,1,01,1.9,67.0,M,46.9,M,,*65
t501744,501340
$GPRMC,195948,A,5056.0599,N,00123.9771,W,001.7,195.8,080216,002.9,W*70
$GPGGA,195948,5056.0599,N,00123.9771,W,1,01,1.9,55.2,M,46.9,M,,*63
t502743,502339
$GPRMC,195949,A,5056.0593,N,00123.9793,W,002.0,221.8,080216,002.9,W*7F
$GPGGA,195949,5056.0593,N,00123.9793,W,1,01,1.9,48.9,M,46.9,M,,*63
t503752,503339
$GPRMC,195950,A,5056.0585,N,00123.9829,W,002.5,221.4,080216,002.9,W*77
$GPGGA,195950,5056.0585,N,00123.9829,W,1,01,1.9,45.6,M,46.9,M,,*60
t504759,504339
$GPRMC,195951,A,5056.0581,N,00123.9856,W,003.1,222.5,080216,002.9,W*7D
$GPGGA,195951,5056.0581,N,00123.9856,W,1,01,1.9,43.0,M,46.9,M,,*6D
t505747,505339
$GPRMC,195952,A,5056.0574,N,00123.9884,W,003.8,223.1,080216,002.9,W*77
$GPGGA,195952,5056.0574,N,00123.9884,W,1,01,1.9,41.2,M,46.9,M,,*6B
t506755,506338
$GPRMC,195953,A,5056.0568,N,00123.9908,W,004.0,223.8,080216,002.9,W*78
$GPGGA,195953,5056.0568,N,00123.9908,W,1,01,1.9,40.0,M,46.9,M,,*61
t507751,507338
$GPRMC,195954,A,5056.0561,N,00123.9931,W,004.2,224.4,080216,002.9,W*75
$GPGGA,195954,5056.0561,N,00123.9931,W,1,00,2.2,,M,46.9,M,,*76
t508724,508337
$GPRMC,195956,A,5056.0534,N,00123.9991,W,004.0,221.4,080216,002.9,W*7A
$GPGGA,195956,5056.0534,N,00123.9991,W,1,01,1.9,,M,46.9,M,,*77
t509717,509336
$GPRMC,200108,A,5056.0777,N,00123.9945,W,001.1,208.1,080216,002.9,W*70
$GPGGA,200108,5056.0777,N,00123.9945,W,1,01,1.5,32.2,M,46.9,M,,*66
t510736,510300
$GPRMC,200109,A,5056.0790,N,00123.9976,W,001.0,208.1,080216,002.9,W*79
$GPGGA,200109,5056.0790,N,00123.9976,W,1,01,1.5,33.6,M,46.9,M,,*6B
t511750,511299
$GPRMC,200110,A,5056.0800,N,00123.9985,W,000.7,208.1,080216,002.9,W*7D
$GPGGA,200110,5056.0800,N,00123.9985,W,1,01,1.5,33.9,M,46.9,M,,*66
t512734,512298
$GPRMC,200111,A,5056.0814,N,00123.9974,W,000.3,208.1,080216,002.9,W*73
$GPGGA,200111,5056.0814,N,00123.9974,W,1,01,1.5,34.7,M,46.9,M,,*65
t513734,513298
$GPRMC,200112,A,5056.0820,N,00123.9979,W,000.1,208.1,080216,002.9,W*78
$GPGGA,200112,5056.0820,N,00123.9979,W,1,01,1.5,34.9,M,46.9,M,,*62
t514728,514297
$GPRMC,200113,A,5056.0828,N,00123.9984,W,000.3,208.1,080216,002.9,W*71
$GPGGA,200113,5056.0828,N,00123.9984,W,1,01,1.5,35.1,M,46.9,M,,*60
t515729,515297
$GPRMC,200114,A,5056.0833,N,00123.9987,W,000.3,208.1,080216,002.9,W*7F
$GPGGA,200114,5056.0833,N,00123.9987,W,1,01,1.5,35.2,M,46.9,M,,*6D
t516731,516296
$GPRMC,200115,A,5056.0834,N,00123.9987,W,000.4,208.1,080216,002.9,W*7E
$GPGGA,200115,5056.0834,N,00123.9987,W,1,01,1.5,35.3,M,46.9,M,,*6A
t517721,517297
$GPRMC,200116,A,5056.0834,N,00123.9989,W,000.5,208.1,080216,002.9,W*72
$GPGGA,200116,5056.0834,N,00123.9989,W,1,01,1.5,35.3,M,46.9,M,,*67
t518824,518296
$GPRMC,200117,A,5056.0834,N,00123.9992,W,000.0,208.1,080216,002.9,W*7C
$GPGGA,200117,5056.0834,N,00123.9992,W,1,02,1.5,35.3,M,46.9,M,,*6F
t519740,519295
$GPRMC,200118,A,5056.0834,N,00123.9992,W,000.9,208.1,080216,002.9,W*7A
$GPGGA,200118,5056.0834,N,00123.9992,W,1,02,1.5,35.3,M,46.9,M,,*60
t520732,520295
$GPRMC,200119,A,5056.0846,N,00123.9978,W,001.2,043.0,080216,002.9,W*7C
$GPGGA,200119,5056.0846,N,00123.9978,W,1,02,1.1,35.0,M,46.9,M,,*67
t521773,521294
$GPRMC,200120,A,5056.0865,N,00123.9958,W,001.9,044.0,080216,002.9,W*79
$GPGGA,200120,5056.0865,N,00123.9958,W,1,02,1.1,35.5,M,46.9,M,,*6B
t522749,522294
$GPRMC,200121,A,5056.0871,N,00123.9955,W,002.0,041.2,080216,002.9,W*7D
$GPGGA,200121,5056.0871,N,00123.9955,W,1,02,1.1,35.4,M,46.9,M,,*63
t523744,523293
$GPRMC,200122,A,5056.0883,N,00123.9946,W,002.0,035.7,080216,002.9,W*77
$GPGGA,200122,5056.0883,N,00123.9946,W,1,02,1.1,35.2,M,46.9,M,,*69
t524751,524292
$GPRMC,200123,A,5056.0891,N,00123.9939,W,001.7,031.0,080216,002.9,W*7A
$GPGGA,200123,5056.0891,N,00123.9939,W,1,02,1.1,35.0,M,46.9,M,,*61
t525753,525292
$GPRMC,200124,A,5056.0892,N,00123.9935,W,001.2,034.0,080216,002.9,W*72
$GPGGA,200124,5056.0892,N,00123.9935,W,1,02,1.1,35.0,M,46.9,M,,*69
t526751,526291
$GPRMC,200125,A,5056.0889,N,00123.9938,W,000.6,034.0,080216,002.9,W*71
$GPGGA,200125,5056.0889,N,00123.9938,W,1,02,1.1,34.9,M,46.9,M,,*67
t527748,527291
$GPRMC,200126,A,5056.0892,N,00123.9940,W,000.4,034.0,080216,002.9,W*75
$GPGGA,200126,5056.0892,N,00123.9940,W,1,02,1.1,34.9,M,46.9,M,,*61
t528767,528290
$GPRMC,200127,A,5056.0895,N,00123.9945,W,000.4,034.0,080216,002.9,W*76
$GPGGA,200127,5056.0895,N,00123.9945,W,1,02,1.1,34.9,M,46.9,M,,*62
t529722,529290
$GPRMC,200128,A,5056.0892,N,00123.9948,W,000.6,034.0,080216,002.9,W*71
$GPGGA,200128,5056.0892,N,00123.9948,W,1,02,1.1,35.0,M,46.9,M,,*6F
t530747,530289
$GPRMC,200129,A,5056.0899,N,00123.9938,W,000.5,034.0,080216,002.9,W*7F
$GPGGA,200129,5056.0899,N,00123.9938,W,1,02,1.1,34.5,M,46.9,M,,*66
t531775,531289
$GPRMC,200130,A,5056.0891,N,00123.9936,W,000.6,034.0,080216,002.9,W*72
$GPGGA,200130,5056.0891,N,00123.9936,W,1,02,1.0,34.4,M,46.9,M,,*68
t532743,532289
$GPRMC,200131,A,5056.0882,N,00123.9929,W,000.3,034.0,080216,002.9,W*7A
$GPGGA,200131,5056.0882,N,00123.9929,W,1,02,1.0,34.2,M,46.9,M,,*63
t533750,533288
$GPRMC,200132,A,5056.0874,N,00123.9921,W,000.1,034.0,080216,002.9,W*7A
$GPGGA,200132,5056.0874,N,00123.9921,W,1,02,1.0,34.1,M,46.9,M,,*62
t534763,534288
$GPRMC,200133,A,5056.0874,N,00123.9921,W,000.4,034.0,080216,002.9,W*7E
$GPGGA,200133,5056.0874,N,00123.9921,W,1,02,1.0,34.1,M,46.9,M,,*63
t535741,535287
$GPRMC,200134,A,5056.0874,N,00123.9919,W,000.7,034.0,080216,002.9,W*71
$GPGGA,200134,5056.0874,N,00123.9919,W,1,02,1.0,34.1,M,46.9,M,,*6F
t536757,536287
$GPRMC,200135,A,5056.0874,N,00123.9916,W,000.7,092.7,080216,002.9,W*74
$GPGGA,200135,5056.0874,N,00123.9916,W,1,02,1.0,34.1,M,46.9,M,,*61
t537742,537286
$GPRMC,200136,A,5056.0867,N,00123.9909,W,001.0,103.8,080216,002.9,W*7B
$GPGGA,200136,5056.0867,N,00123.9909,W,1,02,1.0,34.4,M,46.9,M,,*6B
t538749,538285
$GPRMC,200137,A,5056.0864,N,00123.9911,W,001.0,105.4,080216,002.9,W*7A
$GPGGA,200137,5056.0864,N,00123.9911,W,1,02,1.0,35.2,M,46.9,M,,*67
t539745,539285
$GPRMC,200138,A,5056.0864,N,00123.9904,W,001.3,106.4,080216,002.9,W*71
$GPGGA,200138,5056.0864,N,00123.9904,W,1,02,1.0,34.6,M,46.9,M,,*69
t540751,540284
$GPRMC,200139,A,5056.0850,N,00123.9896,W,001.6,112.2,080216,002.9,W*7B
$GPGGA,200139,5056.0850,N,00123.9896,W,1,02,1.0,35.6,M,46.9,M,,*64
t541756,541284
$GPRMC,200140,A,5056.0851,N,00123.9893,W,001.6,116.9,080216,002.9,W*7E
$GPGGA,200140,5056.0851,N,00123.9893,W,1,02,1.0,35.8,M,46.9,M,,*60
t542745,542283
$GPRMC,200141,A,5056.0850,N,00123.9886,W,001.6,122.2,080216,002.9,W*76
$GPGGA,200141,5056.0850,N,00123.9886,W,1,02,1.0,36.1,M,46.9,M,,*6E
t543738,543283
$GPRMC,200142,A,5056.0838,N,00123.9880,W,001.5,121.6,080216,002.9,W*79
$GPGGA,200142,5056.0838,N,00123.9880,W,1,02,1.0,37.9,M,46.9,M,,*6C
t544737,544283
$GPRMC,200143,A,5056.0834,N,00123.9877,W,001.3,128.9,080216,002.9,W*7C
$GPGGA,200143,5056.0834,N,00123.9877,W,1,02,1.0,38.8,M,46.9,M,,*67
t545746,545282
$GPRMC,200144,A,5056.0832,N,00123.9877,W,000.9,130.9,080216,002.9,W*7F
$GPGGA,200144,5056.0832,N,00123.9877,W,1,02,1.0,39.4,M,46.9,M,,*6B
t546759,546282
$GPRMC,200145,A,5056.0829,N,00123.9883,W,000.4,130.9,080216,002.9,W*72
$GPGGA,200145,5056.0829,N,00123.9883,W,1,02,1.0,41.0,M,46.9,M,,*60
t547741,547281
$GPRMC,200146,A,5056.0828,N,00123.9890,W,000.1,130.9,080216,002.9,W*77
$GPGGA,200146,5056.0828,N,00123.9890,W,1,02,1.0,41.6,M,46.9,M,,*66
t548739,548281
$GPRMC,200147,A,5056.0828,N,00123.9892,W,000.1,130.9,080216,002.9,W*74
$GPGGA,200147,5056.0828,N,00123.9892,W,1,02,1.0,41.8,M,46.9,M,,*6B
t549843,549280
$GPRMC,200148,A,5056.0830,N,00123.9892,W,000.0,130.9,080216,002.9,W*73
$GPGGA,200148,5056.0830,N,00123.9892,W,1,02,1.0,42.0,M,46.9,M,,*66
t550729,550280
$GPRMC,200149,A,5056.0830,N,00123.9892,W,000.1,130.9,080216,002.9,W*73
$GPGGA,200149,5056.0830,N,00123.9892,W,1,02,1.0,42.0,M,46.9,M,,*67
t551744,551279
$GPRMC,200150,A,5056.0830,N,00123.9892,W,000.1,130.9,080216,002.9,W*7B
$GPGGA,200150,5056.0830,N,00123.9892,W,1,01,1.2,42.0,M,46.9,M,,*6E
t552719,552278
$GPRMC,200151,A,5056.0830,N,00123.9892,W,000.1,130.9,080216,002.9,W*7A
$GPGGA,200151,5056.0830,N,00123.9892,W,1,02,1.2,42.0,M,46.9,M,,*6C
t553721,553278
$GPRMC,200152,A,5056.0830,N,00123.9892,W,000.0,130.9,080216,002.9,W*78
$GPGGA,200152,5056.0830,N,00123.9892,W,1,02,1.1,42.0,M,46.9,M,,*6C
t554739,554277
$GPRMC,200153,A,5056.0830,N,00123.9892,W,000.1,130.9,080216,002.9,W*78
$GPGGA,200153,5056.0830,N,00123.9892,W,1,02,1.1,42.0,M,46.9,M,,*6D
t555739,555277
$GPRMC,200154,A,5056.0830,N,00123.9892,W,000.0,130.9,080216,002.9,W*7E
$GPGGA,200154,5056.0830,N,00123.9892,W,1,02,1.1,42.0,M,46.9,M,,*6A
t556744,556276
$GPRMC,200155,A,5056.0831,N,00123.9892,W,000.2,130.9,080216,002.9,W*7C
$GPGGA,200155,5056.0831,N,00123.9892,W,1,02,1.1,42.0,M,46.9,M,,*6A
t557716,557276
$GPRMC,200156,A,5056.0831,N,00123.9893,W,000.2,130.9,080216,002.9,W*7E
$GPGGA,200156,5056.0831,N,00123.9893,W,1,02,1.3,,M,46.9,M,,*72
t558705,558276
$GPRMC,200158,A,5056.0832,N,00123.9894,W,000.2,130.9,080216,002.9,W*74
$GPGGA,200158,5056.0832,N,00123.9894,W,1,02,1.0,42.1,M,46.9,M,,*62
t559720,559275
$GPRMC,200159,A,5056.0832,N,00123.9895,W,000.2,130.9,080216,002.9,W*74
$GPGGA,200159,5056.0832,N,00123.9895,W,1,02,1.0,42.1,M,46.9,M,,*62
t560731,560274
$GPRMC,200200,A,5056.0832,N,00123.9896,W,000.2,130.9,080216,002.9,W*78
$GPGGA,200200,5056.0832,N,00123.9896,W,1,01,1.2,42.1,M,46.9,M,,*6F
t561705,561274
$GPRMC,200201,A,5056.0831,N,00123.9897,W,000.2,130.9,080216,002.9,W*7B
$GPGGA,200201,5056.0831,N,00123.9897,W,1,01,1.1,42.1,M,46.9,M,,*6F
t562714,562273
$GPRMC,200202,A,5056.0831,N,00123.9897,W,000.2,130.9,080216,002.9,W*78
$GPGGA,200202,5056.0831,N,00123.9897,W,1,02,1.1,42.1,M,46.9,M,,*6F
t563728,563273
$GPRMC,200203,A,5056.0830,N,00123.9898,W,000.1,130.9,080216,002.9,W*74
$GPGGA,200203,5056.0830,N,00123.9898,W,1,02,1.1,42.1,M,46.9,M,,*60
t564781,564272
$GPRMC,200204,A,5056.0830,N,00123.9898,W,000.1,130.9,080216,002.9,W*73
$GPGGA,200204,5056.0830,N,00123.9898,W,1,02,1.1,42.1,M,46.9,M,,*67
t565727,565271
$GPRMC,200205,A,5056.0830,N,00123.9898,W,000.2,130.9,080216,002.9,W*71
$GPGGA,200205,5056.0830,N,00123.9898,W,1,02,1.1,42.1,M,46.9,M,,*66
t566728,566271
$GPRMC,200206,A,5056.0829,N,00123.9898,W,000.1,130.9,080216,002.9,W*79
$GPGGA,200206,5056.0829,N,00123.9898,W,1,02,1.1,42.1,M,46.9,M,,*6D
t567731,567270
$GPRMC,200207,A,5056.0829,N,00123.9898,W,000.1,130.9,080216,002.9,W*78
$GPGGA,200207,5056.0829,N,00123.9898,W,1,02,1.1,42.1,M,46.9,M,,*6C
t568717,568270
$GPRMC,200208,A,5056.0829,N,00123.9899,W,000.1,130.9,080216,002.9,W*76
$GPGGA,200208,5056.0829,N,00123.9899,W,1,02,1.1,42.1,M,46.9,M,,*62
t569732,569269
$GPRMC,200209,A,5056.0828,N,00123.9899,W,000.1,130.9,080216,002.9,W*76
$GPGGA,200209,5056.0828,N,00123.9899,W,1,02,1.1,42.1,M,46.9,M,,*62
t570728,570268
$GPRMC,200210,A,5056.0828,N,00123.9899,W,000.3,130.9,080216,002.9,W*7C
$GPGGA,200210,5056.0828,N,00123.9899,W,1,02,1.1,42.1,M,46.9,M,,*6A
t571717,571269
$GPRMC,200211,A,5056.0827,N,00123.9900,W,000.3,130.9,080216,002.9,W*73
$GPGGA,200211,5056.0827,N,00123.9900,W,1,02,1.1,42.1,M,46.9,M,,*65
t572724,572268
$GPRMC,200212,A,5056.0827,N,00123.9900,W,000.2,130.9,080216,002.9,W*71
$GPGGA,200212,5056.0827,N,00123.9900,W,1,02,1.1,42.1,M,46.9,M,,*66
t573717,573268
$GPRMC,200213,A,5056.0826,N,00123.9901,W,000.2,130.9,080216,002.9,W*70
$GPGGA,200213,5056.0826,N,00123.9901,W,1,02,1.0,42.1,M,46.9,M,,*66
t574723,574267
$GPRMC,200214,A,5056.0826,N,00123.9901,W,000.2,130.9,080216,002.9,W*77
$GPGGA,200214,5056.0826,N,00123.9901,W,1,02,1.0,42.1,M,46.9,M,,*61
t575749,575267
$GPRMC,200215,A,5056.0825,N,00123.9902,W,000.2,130.9,080216,002.9,W*76
$GPGGA,200215,5056.0825,N,00123.9902,W,1,02,1.0,42.1,M,46.9,M,,*60
t576722,576266
$GPRMC,200216,A,5056.0824,N,00123.9902,W,000.2,130.9,080216,002.9,W*74
$GPGGA,200216,5056.0824,N,00123.9902,W,1,02,1.0,42.1,M,46.9,M,,*62
t577731,577265
$GPRMC,200217,A,5056.0824,N,00123.9902,W,000.2,130.9,080216,002.9,W*75
$GPGGA,200217,5056.0824,N,00123.9902,W,1,02,1.0,42.1,M,46.9,M,,*63
t578721,578265
$GPRMC,200218,A,5056.0823,N,00123.9902,W,000.1,130.9,080216,002.9,W*7E
$GPGGA,200218,5056.0823,N,00123.9902,W,1,02,1.0,42.1,M,46.9,M,,*6B
t579819,579264
$GPRMC,200219,A,5056.0823,N,00123.9902,W,000.1,130.9,080216,002.9,W*7F
$GPGGA,200219,5056.0823,N,00123.9902,W,1,02,1.0,42.1,M,46.9,M,,*6A
t580728,580264
$GPRMC,200220,A,5056.0823,N,00123.9903,W,000.1,130.9,080216,002.9,W*74
$GPGGA,200220,5056.0823,N,00123.9903,W,1,02,1.0,42.1,M,46.9,M,,*61
t581735,581263
$GPRMC,200221,A,5056.0822,N,00123.9903,W,000.1,130.9,080216,002.9,W*74
$GPGGA,200221,5056.0822,N,00123.9903,W,1,02,1.0,42.1,M,46.9,M,,*61
t582719,582263
$GPRMC,200222,A,5056.0822,N,00123.9903,W,000.1,130.9,080216,002.9,W*77
$GPGGA,200222,5056.0822,N,00123.9903,W,1,02,1.0,42.1,M,46.9,M,,*62
t583719,583262
$GPRMC,200223,A,5056.0822,N,00123.9903,W,000.1,130.9,080216,002.9,W*76
$GPGGA,200223,5056.0822,N,00123.9903,W,1,02,1.0,42.1,M,46.9,M,,*63
t584725,584262
$GPRMC,200224,A,5056.0822,N,00123.9903,W,000.1,130.9,080216,002.9,W*71
$GPGGA,200224,5056.0822,N,00123.9903,W,1,02,1.0,42.1,M,46.9,M,,*64
t585724,585262
$GPRMC,200225,A,5056.0821,N,00123.9903,W,000.2,130.9,080216,002.9,W*70
$GPGGA,200225,5056.0821,N,00123.9903,W,1,02,1.0,42.1,M,46.9,M,,*66
t586715,586261
$GPRMC,200226,A,5056.0821,N,00123.9904,W,000.2,130.9,080216,002.9,W*74
$GPGGA,200226,5056.0821,N,00123.9904,W,1,02,1.0,42.1,M,46.9,M,,*62
t587742,587261
$GPRMC,200227,A,5056.0820,N,00123.9905,W,000.3,130.9,080216,002.9,W*74
$GPGGA,200227,5056.0820,N,00123.9905,W,1,02,1.0,42.1,M,46.9,M,,*63
t588715,588260
$GPRMC,200228,A,5056.0820,N,00123.9905,W,000.3,130.9,080216,002.9,W*7B
$GPGGA,200228,5056.0820,N,00123.9905,W,1,02,1.0,42.1,M,46.9,M,,*6C
t589721,589260
$GPRMC,200229,A,5056.0819,N,00123.9906,W,000.3,130.9,080216,002.9,W*73
$GPGGA,200229,5056.0819,N,00123.9906,W,1,02,1.0,42.1,M,46.9,M,,*64
t590731,590259
$GPRMC,200230,A,5056.0818,N,00123.9907,W,000.2,130.9,080216,002.9,W*7A
$GPGGA,200230,5056.0818,N,00123.9907,W,1,02,1.0,42.1,M,46.9,M,,*6C
t591714,591258
$GPRMC,200231,A,5056.0818,N,00123.9907,W,000.2,130.9,080216,002.9,W*7B
$GPGGA,200231,5056.0818,N,00123.9907,W,1,02,1.0,42.1,M,46.9,M,,*6D
t592713,592258
$GPRMC,200232,A,5056.0817,N,00123.9908,W,000.2,130.9,080216,002.9,W*78
$GPGGA,200232,5056.0817,N,00123.9908,W,1,02,1.0,42.1,M,46.9,M,,*6E
t593724,593257
$GPRMC,200233,A,5056.0817,N,00123.9908,W,000.0,130.9,080216,002.9,W*7B
$GPGGA,200233,5056.0817,N,00123.9908,W,1,02,1.0,42.1,M,46.9,M,,*6F
t594708,594257
$GPRMC,200234,A,5056.0817,N,00123.9907,W,000.4,130.9,080216,002.9,W*77
$GPGGA,200234,5056.0817,N,00123.9907,W,1,02,1.0,42.1,M,46.9,M,,*67
t595722,595256
$GPRMC,200235,A,5056.0817,N,00123.9905,W,000.4,130.9,080216,002.9,W*74
$GPGGA,200235,5056.0817,N,00123.9905,W,1,02,1.0,42.1,M,46.9,M,,*64
t596719,596256
$GPRMC,200236,A,5056.0817,N,00123.9903,W,000.4,130.9,080216,002.9,W*71
$GPGGA,200236,5056.0817,N,00123.9903,W,1,02,1.0,42.1,M,46.9,M,,*61
t597723,597255
$GPRMC,200237,A,5056.0816,N,00123.9900,W,000.4,130.9,080216,002.9,W*72
$GPGGA,200237,5056.0816,N,00123.9900,W,1,02,1.0,42.0,M,46.9,M,,*63
t598711,598255
$GPRMC,200238,A,5056.0816,N,00123.9899,W,000.5,130.9,080216,002.9,W*7D
$GPGGA,200238,5056.0816,N,00123.9899,W,1,02,1.0,42.0,M,46.9,M,,*6D
t599713,599255
$GPRMC,200239,A,5056.0816,N,00123.9897,W,000.8,130.9,080216,002.9,W*7F
$GPGGA,200239,5056.0816,N,00123.9897,W,1,02,1.0,42.0,M,46.9,M,,*62
t600714,600254
$GPRMC,200240,A,5056.0817,N,00123.9890,W,000.8,130.9,080216,002.9,W*77
$GPGGA,200240,5056.0817,N,00123.9890,W,1,02,1.0,42.1,M,46.9,M,,*6B
t601706,601254
$GPRMC,200241,A,5056.0817,N,00123.9888,W,000.6,130.9,080216,002.9,W*71
$GPGGA,200241,5056.0817,N,00123.9888,W,1,02,1.0,42.1,M,46.9,M,,*63
t602714,602253
$GPRMC,200242,A,5056.0817,N,00123.9882,W,000.5,130.9,080216,002.9,W*7B
$GPGGA,200242,5056.0817,N,00123.9882,W,1,02,1.0,42.1,M,46.9,M,,*6A
t603707,603253
$GPRMC,200243,A,5056.0816,N,00123.9880,W,000.4,130.9,080216,002.9,W*78
$GPGGA,200243,5056.0816,N,00123.9880,W,1,02,1.0,42.1,M,46.9,M,,*68
t604715,604252
$GPRMC,200244,A,5056.0815,N,00123.9877,W,000.3,130.9,080216,002.9,W*73
$GPGGA,200244,5056.0815,N,00123.9877,W,1,02,1.0,42.2,M,46.9,M,,*67
t605722,605251
$GPRMC,200245,A,5056.0816,N,00123.9877,W,000.2,130.9,080216,002.9,W*70
$GPGGA,200245,5056.0816,N,00123.9877,W,1,02,1.0,42.2,M,46.9,M,,*65
t606707,606251
$GPRMC,200246,A,5056.0816,N,00123.9876,W,000.2,130.9,080216,002.9,W*72
$GPGGA,200246,5056.0816,N,00123.9876,W,1,02,1.0,42.2,M,46.9,M,,*67
t607714,607250
$GPRMC,200247,A,5056.0815,N,00123.9875,W,000.1,130.9,080216,002.9,W*70
$GPGGA,200247,5056.0815,N,00123.9875,W,1,02,1.0,42.2,M,46.9,M,,*66
t608712,608250
$GPRMC,200248,A,5056.0815,N,00123.9875,W,000.1,130.9,080216,002.9,W*7F
$GPGGA,200248,5056.0815,N,00123.9875,W,1,02,1.0,42.2,M,46.9,M,,*69
t609706,609249
$GPRMC,200249,A,5056.0815,N,00123.9875,W,000.1,130.9,080216,002.9,W*7E
$GPGGA,200249,5056.0815,N,00123.9875,W,1,02,1.0,42.2,M,46.9,M,,*68
t610813,610249
$GPRMC,200250,A,5056.0815,N,00123.9874,W,000.1,130.9,080216,002.9,W*77
$GPGGA,200250,5056.0815,N,00123.9874,W,1,02,1.0,42.2,M,46.9,M,,*61
t611723,611248
$GPRMC,200251,A,5056.0815,N,00123.9874,W,000.1,130.9,080216,002.9,W*76
$GPGGA,200251,5056.0815,N,00123.9874,W,1,02,1.0,42.2,M,46.9,M,,*60
t612704,612248
$GPRMC,200252,A,5056.0815,N,00123.9873,W,000.1,130.9,080216,002.9,W*72
$GPGGA,200252,5056.0815,N,00123.9873,W,1,02,1.0,42.2,M,46.9,M,,*64
t613702,613248
$GPRMC,200253,A,5056.0814,N,00123.9873,W,000.1,130.9,080216,002.9,W*72
$GPGGA,200253,5056.0814,N,00123.9873,W,1,02,1.0,42.2,M,46.9,M,,*64
t614720,614247
$GPRMC,200254,A,5056.0814,N,00123.9873,W,000.1,130.9,080216,002.9,W*75
$GPGGA,200254,5056.0814,N,00123.9873,W,1,02,1.0,42.2,M,46.9,M,,*63
t615708,615247
$GPRMC,200255,A,5056.0814,N,00123.9872,W,000.1,130.9,080216,002.9,W*75
$GPGGA,200255,5056.0814,N,00123.9872,W,1,02,1.0,42.2,M,46.9,M,,*63
t616701,616246
$GPRMC,200256,A,5056.0814,N,00123.9872,W,000.0,130.9,080216,002.9,W*77
$GPGGA,200256,5056.0814,N,00123.9872,W,1,02,1.0,42.2,M,46.9,M,,*60
t617728,617246
$GPRMC,200257,A,5056.0814,N,00123.9872,W,000.1,130.9,080216,002.9,W*77
$GPGGA,200257,5056.0814,N,00123.9872,W,1,02,1.0,42.2,M,46.9,M,,*61
t618700,618245
$GPRMC,200258,A,5056.0813,N,00123.9872,W,000.1,130.9,080216,002.9,W*7F
$GPGGA,200258,5056.0813,N,00123.9872,W,1,02,1.0,42.2,M,46.9,M,,*69
t619705,619244
$GPRMC,200259,A,5056.0813,N,00123.9872,W,000.1,130.9,080216,002.9,W*7E
$GPGGA,200259,5056.0813,N,00123.9872,W,1,02,1.0,42.2,M,46.9,M,,*68
t620709,620244
$GPRMC,200300,A,5056.0813,N,00123.9872,W,000.1,130.9,080216,002.9,W*73
$GPGGA,200300,5056.0813,N,00123.9872,W,1,02,1.1,42.2,M,46.9,M,,*64
t621686,621243
$GPRMC,200301,A,5056.0813,N,00123.9872,W,000.2,130.9,080216,002.9,W*71
$GPGGA,200301,5056.0813,N,00123.9872,W,1,02,1.0,42.2,M,46.9,M,,*64
t622685,622243
$GPRMC,200302,A,5056.0812,N,00123.9871,W,000.3,130.9,080216,002.9,W*71
$GPGGA,200302,5056.0812,N,00123.9871,W,1,02,1.0,42.2,M,46.9,M,,*65
t623727,623242
$GPRMC,200303,A,5056.0803,N,00123.9879,W,000.3,130.9,080216,002.9,W*78
$GPGGA,200303,5056.0803,N,00123.9879,W,1,02,1.0,42.1,M,46.9,M,,*6F
t624716,624241
$GPRMC,200304,A,5056.0803,N,00123.9880,W,000.3,130.9,080216,002.9,W*79
$GPGGA,200304,5056.0803,N,00123.9880,W,1,02,1.0,42.1,M,46.9,M,,*6E
t625699,625242
$GPRMC,200305,A,5056.0802,N,00123.9880,W,000.2,130.9,080216,002.9,W*78
$GPGGA,200305,5056.0802,N,00123.9880,W,1,02,1.0,42.1,M,46.9,M,,*6E
t626693,626241
$GPRMC,200306,A,5056.0801,N,00123.9880,W,000.1,130.9,080216,002.9,W*7B
$GPGGA,200306,5056.0801,N,00123.9880,W,1,02,1.0,42.1,M,46.9,M,,*6E
t627704,627241
$GPRMC,200307,A,5056.0801,N,00123.9881,W,000.1,130.9,080216,002.9,W*7B
$GPGGA,200307,5056.0801,N,00123.9881,W,1,02,1.0,42.1,M,46.9,M,,*6E
t628693,628240
$GPRMC,200308,A,5056.0800,N,00123.9881,W,000.1,130.9,080216,002.9,W*75
$GPGGA,200308,5056.0800,N,00123.9881,W,1,02,1.0,42.1,M,46.9,M,,*60
t629707,629240
$GPRMC,200309,A,5056.0800,N,00123.9881,W,000.1,130.9,080216,002.9,W*74
$GPGGA,200309,5056.0800,N,00123.9881,W,1,02,1.0,42.1,M,46.9,M,,*61
t630706,630239
$GPRMC,200310,A,5056.0800,N,00123.9881,W,000.2,130.9,080216,002.9,W*7F
$GPGGA,200310,5056.0800,N,00123.9881,W,1,02,1.0,42.1,M,46.9,M,,*69
t631691,631238
$GPRMC,200311,A,5056.0799,N,00123.9881,W,000.2,130.9,080216,002.9,W*71
$GPGGA,200311,5056.0799,N,00123.9881,W,1,02,1.0,42.1,M,46.9,M,,*67
t632700,632238
$GPRMC,200312,A,5056.0799,N,00123.9881,W,000.2,130.9,080216,002.9,W*72
$GPGGA,200312,5056.0799,N,00123.9881,W,1,02,1.0,42.1,M,46.9,M,,*64
t633692,633237
$GPRMC,200313,A,5056.0798,N,00123.9881,W,000.2,130.9,080216,002.9,W*72
$GPGGA,200313,5056.0798,N,00123.9881,W,1,02,1.0,42.1,M,46.9,M,,*64
t634702,634237
$GPRMC,200314,A,5056.0798,N,00123.9881,W,000.2,130.9,080216,002.9,W*75
$GPGGA,200314,5056.0798,N,00123.9881,W,1,02,1.0,42.1,M,46.9,M,,*63
t635714,635236
$GPRMC,200315,A,5056.0797,N,00123.9881,W,000.1,130.9,080216,002.9,W*78
$GPGGA,200315,5056.0797,N,00123.9881,W,1,02,1.0,42.1,M,46.9,M,,*6D
t636687,636236
$GPRMC,200316,A,5056.0797,N,00123.9881,W,000.1,130.9,080216,002.9,W*7B
$GPGGA,200316,5056.0797,N,00123.9881,W,1,02,1.0,42.1,M,46.9,M,,*6E
t637690,637235
$GPRMC,200317,A,5056.0797,N,00123.9881,W,000.1,130.9,080216,002.9,W*7A
$GPGGA,200317,5056.0797,N,00123.9881,W,1,02,1.0,42.1,M,46.9,M,,*6F
t638698,638234
$GPRMC,200318,A,5056.0796,N,00123.9881,W,000.2,130.9,080216,002.9,W*77
$GPGGA,200318,5056.0796,N,00123.9881,W,1,02,1.0,42.1,M,46.9,M,,*61
t639691,639235
$GPRMC,200319,A,5056.0796,N,00123.9881,W,000.1,130.9,080216,002.9,W*75
$GPGGA,200319,5056.0796,N,00123.9881,W,1,02,1.0,42.1,M,46.9,M,,*60
t640803,640234
$GPRMC,200320,A,5056.0795,N,00123.9881,W,000.1,130.9,080216,002.9,W*7C
$GPGGA,200320,5056.0795,N,00123.9881,W,1,02,1.0,42.1,M,46.9,M,,*69
t641787,641234
$GPRMC,200321,A,5056.0795,N,00123.9881,W,000.2,130.9,080216,002.9,W*7E
$GPGGA,200321,5056.0795,N,00123.9881,W,1,02,1.0,42.2,M,46.9,M,,*6B
t642687,642233
$GPRMC,200322,A,5056.0794,N,00123.9882,W,000.2,130.9,080216,002.9,W*7F
$GPGGA,200322,5056.0794,N,00123.9882,W,1,02,1.0,42.2,M,46.9,M,,*6A
t643686,643233
$GPRMC,200323,A,5056.0794,N,00123.9882,W,000.2,130.9,080216,002.9,W*7E
$GPGGA,200323,5056.0794,N,00123.9882,W,1,02,1.0,42.2,M,46.9,M,,*6B
t644704,644232
$GPRMC,200324,A,5056.0793,N,00123.9882,W,000.2,130.9,080216,002.9,W*7E
