$GPRMC,150716,A,5055.9646,N,00123.7510,W,000.2,057.3,310116,002.9,W*75
$GPGGA,150716,5055.9646,N,00123.7510,W,1,02,0.9,41.4,M,46.9,M,,*6E
t1271,780
$GPRMC,150717,A,5055.9645,N,00123.7510,W,000.3,057.3,310116,002.9,W*76
$GPGGA,150717,5055.9645,N,00123.7510,W,1,02,0.9,41.4,M,46.9,M,,*6C
t2280,1779
$GPRMC,150718,A,5055.9644,N,00123.7510,W,000.2,057.3,310116,002.9,W*79
$GPGGA,150718,5055.9644,N,00123.7510,W,1,02,0.9,41.4,M,46.9,M,,*62
t3273,2779
$GPRMC,150719,A,5055.9644,N,00123.7510,W,000.1,057.3,310116,002.9,W*7B
$GPGGA,150719,5055.9644,N,00123.7510,W,1,02,0.9,41.4,M,46.9,M,,*63
t4267,3778
$GPRMC,150720,A,5055.9644,N,00123.7510,W,000.1,057.3,310116,002.9,W*71
$GPGGA,150720,5055.9644,N,00123.7510,W,1,03,0.9,41.4,M,46.9,M,,*68
t5304,4777
$GPRMC,150721,A,5055.9644,N,00123.7510,W,000.1,057.3,310116,002.9,W*70
$GPGGA,150721,5055.9644,N,00123.7510,W,1,03,0.9,41.4,M,46.9,M,,*69
t6287,5777
$GPRMC,150722,A,5055.9643,N,00123.7510,W,000.2,057.3,310116,002.9,W*77
$GPGGA,150722,5055.9643,N,00123.7510,W,1,03,0.9,41.4,M,46.9,M,,*6D
t7287,6776
$GPRMC,150723,A,5055.9643,N,00123.7511,W,000.0,057.3,310116,002.9,W*75
$GPGGA,150723,5055.9643,N,00123.7511,W,1,03,0.8,41.4,M,46.9,M,,*6C
t8301,7776
$GPRMC,150724,A,5055.9643,N,00123.7511,W,000.1,057.3,310116,002.9,W*73
$GPGGA,150724,5055.9643,N,00123.7511,W,1,03,0.8,41.4,M,46.9,M,,*6B
t9297,8775
$GPRMC,150725,A,5055.9643,N,00123.7511,W,000.1,057.3,310116,002.9,W*72
$GPGGA,150725,5055.9643,N,00123.7511,W,1,03,0.8,41.4,M,46.9,M,,*6A
t10313,9775
$GPRMC,150726,A,5055.9643,N,00123.7511,W,000.1,057.3,310116,002.9,W*71
$GPGGA,150726,5055.9643,N,00123.7511,W,1,03,0.8,41.4,M,46.9,M,,*69
t11309,10775
$GPRMC,150727,A,5055.9643,N,00123.7511,W,000.2,057.3,310116,002.9,W*73
$GPGGA,150727,5055.9643,N,00123.7511,W,1,02,0.9,41.4,M,46.9,M,,*68
t12282,11774
$GPRMC,150728,A,5055.9642,N,00123.7512,W,000.1,057.3,310116,002.9,W*7D
$GPGGA,150728,5055.9642,N,00123.7512,W,1,02,0.9,41.4,M,46.9,M,,*65
t13289,12774
$GPRMC,150729,A,5055.9642,N,00123.7512,W,000.2,057.3,310116,002.9,W*7F
$GPGGA,150729,5055.9642,N,00123.7512,W,1,03,1.0,41.4,M,46.9,M,,*6D
t14366,13773
$GPRMC,150730,A,5055.9642,N,00123.7513,W,000.2,057.3,310116,002.9,W*76
$GPGGA,150730,5055.9642,N,00123.7513,W,1,03,0.9,41.4,M,46.9,M,,*6C
t15290,14773
$GPRMC,150731,A,5055.9641,N,00123.7513,W,000.0,057.3,310116,002.9,W*76
$GPGGA,150731,5055.9641,N,00123.7513,W,1,03,0.8,41.4,M,46.9,M,,*6F
t16305,15772
$GPRMC,150732,A,5055.9641,N,00123.7514,W,000.1,057.3,310116,002.9,W*73
$GPGGA,150732,5055.9641,N,00123.7514,W,1,03,0.8,41.4,M,46.9,M,,*6B
t17297,16772
$GPRMC,150733,A,5055.9641,N,00123.7514,W,000.1,057.3,310116,002.9,W*72
$GPGGA,150733,5055.9641,N,00123.7514,W,1,03,0.8,41.4,M,46.9,M,,*6A
t18299,17771
$GPRMC,150734,A,5055.9642,N,00123.7514,W,000.0,057.3,310116,002.9,W*77
$GPGGA,150734,5055.9642,N,00123.7514,W,1,02,0.9,41.4,M,46.9,M,,*6E
t19277,18770
$GPRMC,150735,A,5055.9641,N,00123.7514,W,000.1,057.3,310116,002.9,W*74
$GPGGA,150735,5055.9641,N,00123.7514,W,1,03,0.8,41.4,M,46.9,M,,*6C
t20295,19770
$GPRMC,150736,A,5055.9642,N,00123.7514,W,000.1,057.3,310116,002.9,W*74
$GPGGA,150736,5055.9642,N,00123.7514,W,1,03,0.8,41.4,M,46.9,M,,*6C
t21291,20769
$GPRMC,150737,A,5055.9641,N,00123.7515,W,000.1,057.3,310116,002.9,W*77
$GPGGA,150737,5055.9641,N,00123.7515,W,1,02,0.9,41.4,M,46.9,M,,*6F
t22278,21769
$GPRMC,150738,A,5055.9641,N,00123.7515,W,000.0,057.3,310116,002.9,W*79
$GPGGA,150738,5055.9641,N,00123.7515,W,1,02,0.9,41.4,M,46.9,M,,*60
t23284,22768
$GPRMC,150739,A,5055.9641,N,00123.7515,W,000.1,057.3,310116,002.9,W*79
$GPGGA,150739,5055.9641,N,00123.7515,W,1,02,0.9,41.4,M,46.9,M,,*61
t24285,23768
$GPRMC,150740,A,5055.9641,N,00123.7515,W,000.1,057.3,310116,002.9,W*77
$GPGGA,150740,5055.9641,N,00123.7515,W,1,02,0.9,41.4,M,46.9,M,,*6F
t25285,24767
$GPRMC,150741,A,5055.9641,N,00123.7515,W,000.1,057.3,310116,002.9,W*76
$GPGGA,150741,5055.9641,N,00123.7515,W,1,02,0.9,41.4,M,46.9,M,,*6E
t26278,25766
$GPRMC,150742,A,5055.9640,N,00123.7515,W,000.2,057.3,310116,002.9,W*77
$GPGGA,150742,5055.9640,N,00123.7515,W,1,02,0.9,41.4,M,46.9,M,,*6C
t27277,26766
$GPRMC,150743,A,5055.9640,N,00123.7516,W,000.1,057.3,310116,002.9,W*76
$GPGGA,150743,5055.9640,N,00123.7516,W,1,03,0.9,41.4,M,46.9,M,,*6F
t28276,27765
$GPRMC,150744,A,5055.9640,N,00123.7516,W,000.1,057.3,310116,002.9,W*71
$GPGGA,150744,5055.9640,N,00123.7516,W,1,02,0.9,41.4,M,46.9,M,,*69
t29277,28765
$GPRMC,150745,A,5055.9639,N,00123.7516,W,000.2,057.3,310116,002.9,W*7D
$GPGGA,150745,5055.9639,N,00123.7516,W,1,03,0.9,41.4,M,46.9,M,,*67
t30283,29765
$GPRMC,150746,A,5055.9639,N,00123.7517,W,000.3,057.3,310116,002.9,W*7E
$GPGGA,150746,5055.9639,N,00123.7517,W,1,02,0.9,41.4,M,46.9,M,,*64
t31258,30765
$GPRMC,150747,A,5055.9639,N,00123.7518,W,000.3,057.3,310116,002.9,W*70
$GPGGA,150747,5055.9639,N,00123.7518,W,1,02,0.9,41.4,M,46.9,M,,*6A
t32281,31764
$GPRMC,150748,A,5055.9638,N,00123.7519,W,000.1,057.3,310116,002.9,W*7D
$GPGGA,150748,5055.9638,N,00123.7519,W,1,02,0.9,41.4,M,46.9,M,,*65
t33272,32763
$GPRMC,150749,A,5055.9638,N,00123.7519,W,000.2,057.3,310116,002.9,W*7F
$GPGGA,150749,5055.9638,N,00123.7519,W,1,02,0.9,41.4,M,46.9,M,,*64
t34258,33763
$GPRMC,150750,A,5055.9638,N,00123.7520,W,000.2,057.3,310116,002.9,W*7D
$GPGGA,150750,5055.9638,N,00123.7520,W,1,02,0.9,41.4,M,46.9,M,,*66
t35276,34762
$GPRMC,150751,A,5055.9638,N,00123.7520,W,000.2,057.3,310116,002.9,W*7C
$GPGGA,150751,5055.9638,N,00123.7520,W,1,02,0.9,41.4,M,46.9,M,,*67
t36257,35762
$GPRMC,150752,A,5055.9638,N,00123.7521,W,000.2,057.3,310116,002.9,W*7E
$GPGGA,150752,5055.9638,N,00123.7521,W,1,03,0.9,41.4,M,46.9,M,,*64
t37258,36761
$GPRMC,150753,A,5055.9637,N,00123.7522,W,000.1,057.3,310116,002.9,W*70
$GPGGA,150753,5055.9637,N,00123.7522,W,1,02,0.9,41.4,M,46.9,M,,*68
t38249,37761
$GPRMC,150754,A,5055.9637,N,00123.7522,W,000.1,057.3,310116,002.9,W*77
$GPGGA,150754,5055.9637,N,00123.7522,W,1,02,0.9,41.3,M,46.9,M,,*68
t39246,38760
$GPRMC,150755,A,5055.9637,N,00123.7522,W,000.1,057.3,310116,002.9,W*76
$GPGGA,150755,5055.9637,N,00123.7522,W,1,02,0.9,41.3,M,46.9,M,,*69
t40262,39759
$GPRMC,150756,A,5055.9637,N,00123.7522,W,000.1,057.3,310116,002.9,W*75
$GPGGA,150756,5055.9637,N,00123.7522,W,1,02,0.9,41.3,M,46.9,M,,*6A
t41255,40759
$GPRMC,150757,A,5055.9637,N,00123.7522,W,000.1,057.3,310116,002.9,W*74
$GPGGA,150757,5055.9637,N,00123.7522,W,1,02,0.9,41.3,M,46.9,M,,*6B
t42248,41758
$GPRMC,150758,A,5055.9637,N,00123.7521,W,000.0,057.3,310116,002.9,W*79
$GPGGA,150758,5055.9637,N,00123.7521,W,1,02,0.9,41.3,M,46.9,M,,*67
t43250,42758
$GPRMC,150759,A,5055.9637,N,00123.7521,W,000.1,057.3,310116,002.9,W*79
$GPGGA,150759,5055.9637,N,00123.7521,W,1,02,0.9,41.3,M,46.9,M,,*66
t44253,43757
$GPRMC,150800,A,5055.9636,N,00123.7521,W,000.1,057.3,310116,002.9,W*7B
$GPGGA,150800,5055.9636,N,00123.7521,W,1,02,0.9,41.2,M,46.9,M,,*65
t45346,44756
$GPRMC,150801,A,5055.9636,N,00123.7521,W,000.1,057.3,310116,002.9,W*7A
$GPGGA,150801,5055.9636,N,00123.7521,W,1,02,0.9,41.2,M,46.9,M,,*64
t46253,45756
$GPRMC,150802,A,5055.9636,N,00123.7520,W,000.1,057.3,310116,002.9,W*78
$GPGGA,150802,5055.9636,N,00123.7520,W,1,02,0.9,41.2,M,46.9,M,,*66
t47253,46755
$GPRMC,150803,A,5055.9636,N,00123.7520,W,000.1,057.3,310116,002.9,W*79
$GPGGA,150803,5055.9636,N,00123.7520,W,1,02,0.9,41.2,M,46.9,M,,*67
t48346,47755
$GPRMC,150804,A,5055.9636,N,00123.7520,W,000.1,057.3,310116,002.9,W*7E
$GPGGA,150804,5055.9636,N,00123.7520,W,1,02,0.9,41.2,M,46.9,M,,*60
t49349,48755
$GPRMC,150805,A,5055.9635,N,00123.7520,W,000.1,057.3,310116,002.9,W*7C
$GPGGA,150805,5055.9635,N,00123.7520,W,1,02,0.9,41.2,M,46.9,M,,*62
t50250,49755
$GPRMC,150806,A,5055.9635,N,00123.7520,W,000.1,057.3,310116,002.9,W*7F
$GPGGA,150806,5055.9635,N,00123.7520,W,1,02,0.9,41.2,M,46.9,M,,*61
t51255,50754
$GPRMC,150807,A,5055.9635,N,00123.7519,W,000.1,057.3,310116,002.9,W*74
$GPGGA,150807,5055.9635,N,00123.7519,W,1,02,0.9,41.2,M,46.9,M,,*6A
t52248,51753
$GPRMC,150808,A,5055.9635,N,00123.7519,W,000.2,057.3,310116,002.9,W*78
$GPGGA,150808,5055.9635,N,00123.7519,W,1,02,0.9,41.2,M,46.9,M,,*65
t53260,52753
$GPRMC,150809,A,5055.9634,N,00123.7519,W,000.2,057.3,310116,002.9,W*78
$GPGGA,150809,5055.9634,N,00123.7519,W,1,02,0.9,41.2,M,46.9,M,,*65
t54254,53752
$GPRMC,150810,A,5055.9633,N,00123.7519,W,000.1,057.3,310116,002.9,W*74
$GPGGA,150810,5055.9633,N,00123.7519,W,1,02,0.9,41.2,M,46.9,M,,*6A
t55257,54752
$GPRMC,150811,A,5055.9633,N,00123.7519,W,000.1,057.3,310116,002.9,W*75
$GPGGA,150811,5055.9633,N,00123.7519,W,1,02,0.9,41.1,M,46.9,M,,*68
t56245,55751
$GPRMC,150812,A,5055.9633,N,00123.7519,W,000.1,057.3,310116,002.9,W*76
$GPGGA,150812,5055.9633,N,00123.7519,W,1,03,0.9,41.1,M,46.9,M,,*6A
t57254,56751
$GPRMC,150813,A,5055.9633,N,00123.7518,W,000.3,057.3,310116,002.9,W*74
$GPGGA,150813,5055.9633,N,00123.7518,W,1,03,0.9,41.1,M,46.9,M,,*6A
t58246,57750
$GPRMC,150814,A,5055.9634,N,00123.7517,W,000.1,057.3,310116,002.9,W*79
$GPGGA,150814,5055.9634,N,00123.7517,W,1,02,0.9,41.1,M,46.9,M,,*64
t59245,58749
$GPRMC,150815,A,5055.9634,N,00123.7517,W,000.1,057.3,310116,002.9,W*78
$GPGGA,150815,5055.9634,N,00123.7517,W,1,03,0.9,41.1,M,46.9,M,,*64
t60247,59749
$GPRMC,150816,A,5055.9634,N,00123.7516,W,000.0,057.3,310116,002.9,W*7B
$GPGGA,150816,5055.9634,N,00123.7516,W,1,03,0.9,41.1,M,46.9,M,,*66
t61235,60748
$GPRMC,150817,A,5055.9634,N,00123.7516,W,000.1,057.3,310116,002.9,W*7B
$GPGGA,150817,5055.9634,N,00123.7516,W,1,03,0.9,41.1,M,46.9,M,,*67
t62243,61748
$GPRMC,150818,A,5055.9634,N,00123.7516,W,000.1,057.3,310116,002.9,W*74
$GPGGA,150818,5055.9634,N,00123.7516,W,1,03,0.9,41.1,M,46.9,M,,*68
t63236,62747
$GPRMC,150819,A,5055.9634,N,00123.7516,W,000.1,057.3,310116,002.9,W*75
$GPGGA,150819,5055.9634,N,00123.7516,W,1,03,0.9,41.1,M,46.9,M,,*69
t64233,63747
$GPRMC,150820,A,5055.9634,N,00123.7516,W,000.1,057.3,310116,002.9,W*7F
$GPGGA,150820,5055.9634,N,00123.7516,W,1,03,0.9,41.1,M,46.9,M,,*63
t65259,64746
$GPRMC,150821,A,5055.9634,N,00123.7516,W,000.0,057.3,310116,002.9,W*7F
$GPGGA,150821,5055.9634,N,00123.7516,W,1,02,1.0,41.1,M,46.9,M,,*6B
t66217,65745
$GPRMC,150822,A,5055.9633,N,00123.7516,W,000.1,057.3,310116,002.9,W*7A
$GPGGA,150822,5055.9633,N,00123.7516,W,1,03,1.0,41.1,M,46.9,M,,*6E
t67235,66745
$GPRMC,150823,A,5055.9633,N,00123.7516,W,000.0,057.3,310116,002.9,W*7A
$GPGGA,150823,5055.9633,N,00123.7516,W,1,03,1.0,41.1,M,46.9,M,,*6F
t68226,67745
$GPRMC,150824,A,5055.9633,N,00123.7516,W,000.0,057.3,310116,002.9,W*7D
$GPGGA,150824,5055.9633,N,00123.7516,W,1,03,1.0,41.0,M,46.9,M,,*69
t69236,68745
$GPRMC,150825,A,5055.9634,N,00123.7516,W,000.1,057.3,310116,002.9,W*7A
$GPGGA,150825,5055.9634,N,00123.7516,W,1,03,1.0,41.0,M,46.9,M,,*6F
t70247,69744
$GPRMC,150826,A,5055.9634,N,00123.7517,W,000.2,057.3,310116,002.9,W*7B
$GPGGA,150826,5055.9634,N,00123.7517,W,1,03,1.0,41.0,M,46.9,M,,*6D
t71233,70744
$GPRMC,150827,A,5055.9633,N,00123.7517,W,000.2,057.3,310116,002.9,W*7D
$GPGGA,150827,5055.9633,N,00123.7517,W,1,03,1.0,41.0,M,46.9,M,,*6B
t72230,71743
$GPRMC,150828,A,5055.9633,N,00123.7518,W,000.2,057.3,310116,002.9,W*7D
$GPGGA,150828,5055.9633,N,00123.7518,W,1,03,1.0,41.0,M,46.9,M,,*6B
t73238,72742
$GPRMC,150829,A,5055.9633,N,00123.7519,W,000.1,057.3,310116,002.9,W*7E
$GPGGA,150829,5055.9633,N,00123.7519,W,1,03,1.0,41.0,M,46.9,M,,*6B
t74222,73742
$GPRMC,150830,A,5055.9632,N,00123.7519,W,000.1,057.3,310116,002.9,W*77
$GPGGA,150830,5055.9632,N,00123.7519,W,1,03,1.0,41.0,M,46.9,M,,*62
t75240,74741
$GPRMC,150831,A,5055.9632,N,00123.7519,W,000.0,057.3,310116,002.9,W*77
$GPGGA,150831,5055.9632,N,00123.7519,W,1,02,0.9,41.0,M,46.9,M,,*6A
t76334,75741
$GPRMC,150832,A,5055.9632,N,00123.7519,W,000.1,057.3,310116,002.9,W*75
$GPGGA,150832,5055.9632,N,00123.7519,W,1,02,0.9,41.0,M,46.9,M,,*69
t77246,76740
$GPRMC,150833,A,5055.9632,N,00123.7519,W,000.0,057.3,310116,002.9,W*75
$GPGGA,150833,5055.9632,N,00123.7519,W,1,03,0.9,41.0,M,46.9,M,,*69
t78233,77740
$GPRMC,150834,A,5055.9632,N,00123.7519,W,000.2,057.3,310116,002.9,W*70
$GPGGA,150834,5055.9632,N,00123.7519,W,1,03,0.9,41.0,M,46.9,M,,*6E
t79235,78739
$GPRMC,150835,A,5055.9632,N,00123.7519,W,000.2,057.3,310116,002.9,W*71
$GPGGA,150835,5055.9632,N,00123.7519,W,1,03,0.9,41.0,M,46.9,M,,*6F
t80242,79738
$GPRMC,150836,A,5055.9631,N,00123.7519,W,000.2,057.3,310116,002.9,W*71
$GPGGA,150836,5055.9631,N,00123.7519,W,1,02,0.9,41.0,M,46.9,M,,*6E
t81231,80738
$GPRMC,150837,A,5055.9631,N,00123.7519,W,000.2,057.3,310116,002.9,W*70
$GPGGA,150837,5055.9631,N,00123.7519,W,1,02,0.9,40.9,M,46.9,M,,*67
t82234,81737
$GPRMC,150838,A,5055.9631,N,00123.7519,W,000.3,057.3,310116,002.9,W*7E
$GPGGA,150838,5055.9631,N,00123.7519,W,1,02,0.9,40.9,M,46.9,M,,*68
t83235,82737
$GPRMC,150839,A,5055.9631,N,00123.7517,W,000.3,057.3,310116,002.9,W*71
$GPGGA,150839,5055.9631,N,00123.7517,W,1,02,1.0,40.9,M,46.9,M,,*6F
t84240,83736
$GPRMC,150840,A,5055.9631,N,00123.7516,W,000.1,057.3,310116,002.9,W*7C
$GPGGA,150840,5055.9631,N,00123.7516,W,1,03,0.9,40.9,M,46.9,M,,*69
t85246,84736
$GPRMC,150841,A,5055.9631,N,00123.7515,W,000.2,057.3,310116,002.9,W*7D
$GPGGA,150841,5055.9631,N,00123.7515,W,1,02,0.9,40.9,M,46.9,M,,*6A
t86232,85735
$GPRMC,150842,A,5055.9631,N,00123.7514,W,000.1,057.3,310116,002.9,W*7C
$GPGGA,150842,5055.9631,N,00123.7514,W,1,02,0.9,40.9,M,46.9,M,,*68
t87237,86735
$GPRMC,150843,A,5055.9630,N,00123.7514,W,000.1,057.3,310116,002.9,W*7C
$GPGGA,150843,5055.9630,N,00123.7514,W,1,02,0.9,40.9,M,46.9,M,,*68
t88245,87735
$GPRMC,150844,A,5055.9630,N,00123.7514,W,000.1,057.3,310116,002.9,W*7B
$GPGGA,150844,5055.9630,N,00123.7514,W,1,02,0.9,40.9,M,46.9,M,,*6F
t89230,88734
$GPRMC,150845,A,5055.9631,N,00123.7515,W,000.1,057.3,310116,002.9,W*7A
$GPGGA,150845,5055.9631,N,00123.7515,W,1,02,0.9,40.9,M,46.9,M,,*6E
t90246,89734
$GPRMC,150846,A,5055.9631,N,00123.7515,W,000.3,057.3,310116,002.9,W*7B
$GPGGA,150846,5055.9631,N,00123.7515,W,1,03,0.9,40.9,M,46.9,M,,*6C
t91245,90733
$GPRMC,150847,A,5055.9631,N,00123.7516,W,000.2,057.3,310116,002.9,W*78
$GPGGA,150847,5055.9631,N,00123.7516,W,1,02,1.0,40.9,M,46.9,M,,*67
t92211,91732
$GPRMC,150848,A,5055.9631,N,00123.7517,W,000.2,057.3,310116,002.9,W*76
$GPGGA,150848,5055.9631,N,00123.7517,W,1,02,1.0,40.9,M,46.9,M,,*69
t93212,92732
$GPRMC,150849,A,5055.9630,N,00123.7518,W,000.2,057.3,310116,002.9,W*79
$GPGGA,150849,5055.9630,N,00123.7518,W,1,02,0.9,40.9,M,46.9,M,,*6E
t94231,93731
$GPRMC,150850,A,5055.9630,N,00123.7519,W,000.1,057.3,310116,002.9,W*73
$GPGGA,150850,5055.9630,N,00123.7519,W,1,02,0.9,40.9,M,46.9,M,,*67
t95235,94731
$GPRMC,150851,A,5055.9630,N,00123.7519,W,000.1,057.3,310116,002.9,W*72
$GPGGA,150851,5055.9630,N,00123.7519,W,1,02,0.9,40.9,M,46.9,M,,*66
t96240,95730
$GPRMC,150852,A,5055.9630,N,00123.7519,W,000.0,057.3,310116,002.9,W*70
$GPGGA,150852,5055.9630,N,00123.7519,W,1,02,1.0,40.9,M,46.9,M,,*6D
t97204,96730
$GPRMC,150853,A,5055.9630,N,00123.7519,W,000.0,057.3,310116,002.9,W*71
$GPGGA,150853,5055.9630,N,00123.7519,W,1,02,1.0,40.9,M,46.9,M,,*6C
t98209,97729
$GPRMC,150854,A,5055.9630,N,00123.7519,W,000.1,057.3,310116,002.9,W*77
$GPGGA,150854,5055.9630,N,00123.7519,W,1,01,1.1,40.9,M,46.9,M,,*69
t99209,98728
$GPRMC,150855,A,5055.9630,N,00123.7519,W,000.0,057.3,310116,002.9,W*77
$GPGGA,150855,5055.9630,N,00123.7519,W,1,02,1.0,40.9,M,46.9,M,,*6A
t100222,99728
$GPRMC,150856,A,5055.9630,N,00123.7519,W,000.1,057.3,310116,002.9,W*75
$GPGGA,150856,5055.9630,N,00123.7519,W,1,02,0.9,40.9,M,46.9,M,,*61
t101232,100727
$GPRMC,150857,A,5055.9630,N,00123.7520,W,000.0,057.3,310116,002.9,W*7F
$GPGGA,150857,5055.9630,N,00123.7520,W,1,02,1.0,40.9,M,46.9,M,,*62
t102208,101727
$GPRMC,150858,A,5055.9630,N,00123.7520,W,000.0,057.3,310116,002.9,W*70
$GPGGA,150858,5055.9630,N,00123.7520,W,1,02,1.0,40.9,M,46.9,M,,*6D
t103234,102726
$GPRMC,150859,A,5055.9630,N,00123.7520,W,000.0,057.3,310116,002.9,W*71
$GPGGA,150859,5055.9630,N,00123.7520,W,1,03,0.9,40.9,M,46.9,M,,*65
t104238,103726
$GPRMC,150900,A,5055.9630,N,00123.7520,W,000.0,057.3,310116,002.9,W*7C
$GPGGA,150900,5055.9630,N,00123.7520,W,1,03,0.9,40.9,M,46.9,M,,*68
t105243,104725
$GPRMC,150901,A,5055.9630,N,00123.7520,W,000.1,057.3,310116,002.9,W*7C
$GPGGA,150901,5055.9630,N,00123.7520,W,1,03,0.9,40.9,M,46.9,M,,*69
t106232,105725
$GPRMC,150902,A,5055.9630,N,00123.7520,W,000.0,057.3,310116,002.9,W*7E
$GPGGA,150902,5055.9630,N,00123.7520,W,1,03,0.9,40.9,M,46.9,M,,*6A
t107334,106725
$GPRMC,150903,A,5055.9630,N,00123.7520,W,000.2,057.3,310116,002.9,W*7D
$GPGGA,150903,5055.9630,N,00123.7520,W,1,03,0.9,40.9,M,46.9,M,,*6B
t108220,107724
$GPRMC,150904,A,5055.9630,N,00123.7521,W,000.1,057.3,310116,002.9,W*78
$GPGGA,150904,5055.9630,N,00123.7521,W,1,03,0.9,40.9,M,46.9,M,,*6D
t109241,108724
$GPRMC,150905,A,5055.9629,N,00123.7521,W,000.2,057.3,310116,002.9,W*72
$GPGGA,150905,5055.9629,N,00123.7521,W,1,03,0.9,40.9,M,46.9,M,,*64
t110234,109723
$GPRMC,150906,A,5055.9629,N,00123.7522,W,000.3,057.3,310116,002.9,W*73
$GPGGA,150906,5055.9629,N,00123.7522,W,1,03,0.9,40.9,M,46.9,M,,*64
t111240,110723
$GPRMC,150907,A,5055.9629,N,00123.7523,W,000.1,057.3,310116,002.9,W*71
$GPGGA,150907,5055.9629,N,00123.7523,W,1,03,0.9,40.9,M,46.9,M,,*64
t112240,111722
$GPRMC,150908,A,5055.9628,N,00123.7523,W,000.2,057.3,310116,002.9,W*7C
$GPGGA,150908,5055.9628,N,00123.7523,W,1,03,0.9,40.9,M,46.9,M,,*6A
t113227,112721
$GPRMC,150909,A,5055.9628,N,00123.7524,W,000.2,057.3,310116,002.9,W*7A
$GPGGA,150909,5055.9628,N,00123.7524,W,1,03,0.8,40.9,M,46.9,M,,*6D
t114245,113721
$GPRMC,150910,A,5055.9628,N,00123.7524,W,000.2,057.3,310116,002.9,W*72
$GPGGA,150910,5055.9628,N,00123.7524,W,1,03,0.8,40.9,M,46.9,M,,*65
t115251,114720
$GPRMC,150911,A,5055.9628,N,00123.7526,W,000.1,057.3,310116,002.9,W*72
$GPGGA,150911,5055.9628,N,00123.7526,W,1,03,0.9,40.9,M,46.9,M,,*67
t116228,115720
$GPRMC,150912,A,5055.9628,N,00123.7526,W,000.1,057.3,310116,002.9,W*71
$GPGGA,150912,5055.9628,N,00123.7526,W,1,03,0.8,40.9,M,46.9,M,,*65
t117245,116719
$GPRMC,150913,A,5055.9628,N,00123.7526,W,000.1,057.3,310116,002.9,W*70
$GPGGA,150913,5055.9628,N,00123.7526,W,1,03,0.8,40.9,M,46.9,M,,*64
t118235,117719
$GPRMC,150914,A,5055.9628,N,00123.7526,W,000.1,057.3,310116,002.9,W*77
$GPGGA,150914,5055.9628,N,00123.7526,W,1,02,0.9,40.9,M,46.9,M,,*63
t119235,118718
$GPRMC,150915,A,5055.9628,N,00123.7527,W,000.1,057.3,310116,002.9,W*77
$GPGGA,150915,5055.9628,N,00123.7527,W,1,03,0.8,40.9,M,46.9,M,,*63
t120252,119717
$GPRMC,150916,A,5055.9628,N,00123.7527,W,000.1,057.3,310116,002.9,W*74
$GPGGA,150916,5055.9628,N,00123.7527,W,1,03,0.8,40.9,M,46.9,M,,*60
t121233,120717
$GPRMC,150917,A,5055.9628,N,00123.7527,W,000.0,057.3,310116,002.9,W*74
$GPGGA,150917,5055.9628,N,00123.7527,W,1,03,0.8,40.9,M,46.9,M,,*61
t122249,121716
$GPRMC,150918,A,5055.9628,N,00123.7527,W,000.2,057.3,310116,002.9,W*79
$GPGGA,150918,5055.9628,N,00123.7527,W,1,03,0.8,40.9,M,46.9,M,,*6E
t123240,122716
$GPRMC,150919,A,5055.9628,N,00123.7528,W,000.2,057.3,310116,002.9,W*77
$GPGGA,150919,5055.9628,N,00123.7528,W,1,03,0.9,40.9,M,46.9,M,,*61
t124227,123715
$GPRMC,150920,A,5055.9628,N,00123.7529,W,000.2,057.3,310116,002.9,W*7C
$GPGGA,150920,5055.9628,N,00123.7529,W,1,02,0.9,40.9,M,46.9,M,,*6B
t125334,124716
$GPRMC,150921,A,5055.9628,N,00123.7530,W,000.2,057.3,310116,002.9,W*75
$GPGGA,150921,5055.9628,N,00123.7530,W,1,02,0.9,40.9,M,46.9,M,,*62
t126317,125715
$GPRMC,150922,A,5055.9628,N,00123.7531,W,000.3,057.3,310116,002.9,W*76
$GPGGA,150922,5055.9628,N,00123.7531,W,1,03,0.8,40.9,M,46.9,M,,*60
t127236,126714
$GPRMC,150923,A,5055.9628,N,00123.7532,W,000.2,057.3,310116,002.9,W*75
$GPGGA,150923,5055.9628,N,00123.7532,W,1,02,0.9,40.9,M,46.9,M,,*62
t128223,127714
$GPRMC,150924,A,5055.9628,N,00123.7533,W,000.2,057.3,310116,002.9,W*73
$GPGGA,150924,5055.9628,N,00123.7533,W,1,02,0.9,40.9,M,46.9,M,,*64
t129197,128713
$GPRMC,150925,A,5055.9628,N,00123.7534,W,000.1,057.3,310116,002.9,W*76
$GPGGA,150925,5055.9628,N,00123.7534,W,1,02,0.9,40.9,M,46.9,M,,*62
t130240,129713
$GPRMC,150926,A,5055.9628,N,00123.7534,W,000.0,057.3,310116,002.9,W*74
$GPGGA,150926,5055.9628,N,00123.7534,W,1,02,0.9,40.9,M,46.9,M,,*61
t131226,130712
$GPRMC,150927,A,5055.9628,N,00123.7534,W,000.1,057.3,310116,002.9,W*74
$GPGGA,150927,5055.9628,N,00123.7534,W,1,02,0.9,40.9,M,46.9,M,,*60
t132208,131712
$GPRMC,150928,A,5055.9627,N,00123.7534,W,000.2,057.3,310116,002.9,W*77
$GPGGA,150928,5055.9627,N,00123.7534,W,1,03,0.9,40.9,M,46.9,M,,*61
t133231,132711
$GPRMC,150929,A,5055.9627,N,00123.7534,W,000.2,057.3,310116,002.9,W*76
$GPGGA,150929,5055.9627,N,00123.7534,W,1,02,0.9,40.9,M,46.9,M,,*61
t134199,133710
$GPRMC,150930,A,5055.9626,N,00123.7535,W,000.1,057.3,310116,002.9,W*7D
$GPGGA,150930,5055.9626,N,00123.7535,W,1,02,0.9,40.9,M,46.9,M,,*69
t135215,134710
$GPRMC,150931,A,5055.9626,N,00123.7535,W,000.1,057.3,310116,002.9,W*7C
$GPGGA,150931,5055.9626,N,00123.7535,W,1,03,0.9,40.9,M,46.9,M,,*69
t136222,135709
$GPRMC,150932,A,5055.9626,N,00123.7535,W,000.0,057.3,310116,002.9,W*7E
$GPGGA,150932,5055.9626,N,00123.7535,W,1,02,0.9,40.9,M,46.9,M,,*6B
t137206,136709
$GPRMC,150933,A,5055.9626,N,00123.7535,W,000.1,057.3,310116,002.9,W*7E
$GPGGA,150933,5055.9626,N,00123.7535,W,1,02,0.9,40.9,M,46.9,M,,*6A
t138310,137708
$GPRMC,150934,A,5055.9626,N,00123.7535,W,000.2,057.3,310116,002.9,W*7A
$GPGGA,150934,5055.9626,N,00123.7535,W,1,02,0.9,40.9,M,46.9,M,,*6D
t139203,138707
$GPRMC,150935,A,5055.9626,N,00123.7534,W,000.1,057.3,310116,002.9,W*79
$GPGGA,150935,5055.9626,N,00123.7534,W,1,02,0.9,40.9,M,46.9,M,,*6D
t140211,139707
$GPRMC,150936,A,5055.9626,N,00123.7534,W,000.3,057.3,310116,002.9,W*78
$GPGGA,150936,5055.9626,N,00123.7534,W,1,02,0.9,40.9,M,46.9,M,,*6E
t141208,140706
$GPRMC,150937,A,5055.9626,N,00123.7535,W,000.1,057.3,310116,002.9,W*7A
$GPGGA,150937,5055.9626,N,00123.7535,W,1,02,0.9,40.9,M,46.9,M,,*6E
t142192,141706
$GPRMC,150938,A,5055.9626,N,00123.7536,W,000.1,057.3,310116,002.9,W*76
$GPGGA,150938,5055.9626,N,00123.7536,W,1,02,0.9,40.9,M,46.9,M,,*62
t143204,142705
$GPRMC,150939,A,5055.9626,N,00123.7537,W,000.1,057.3,310116,002.9,W*76
$GPGGA,150939,5055.9626,N,00123.7537,W,1,02,0.9,40.9,M,46.9,M,,*62
t144200,143706
$GPRMC,150940,A,5055.9625,N,00123.7537,W,000.1,057.3,310116,002.9,W*7B
$GPGGA,150940,5055.9625,N,00123.7537,W,1,02,0.9,40.9,M,46.9,M,,*6F
t145210,144705
$GPRMC,150941,A,5055.9625,N,00123.7537,W,000.1,057.3,310116,002.9,W*7A
$GPGGA,150941,5055.9625,N,00123.7537,W,1,02,0.9,40.9,M,46.9,M,,*6E
t146198,145704
$GPRMC,150942,A,5055.9626,N,00123.7537,W,000.2,057.3,310116,002.9,W*79
$GPGGA,150942,5055.9626,N,00123.7537,W,1,02,0.9,40.9,M,46.9,M,,*6E
t147192,146704
$GPRMC,150943,A,5055.9626,N,00123.7537,W,000.1,057.3,310116,002.9,W*7B
$GPGGA,150943,5055.9626,N,00123.7537,W,1,02,1.0,40.9,M,46.9,M,,*67
t148189,147703
$GPRMC,150944,A,5055.9626,N,00123.7537,W,000.2,057.3,310116,002.9,W*7F
$GPGGA,150944,5055.9626,N,00123.7537,W,1,02,1.0,40.9,M,46.9,M,,*60
t149202,148703
$GPRMC,150945,A,5055.9627,N,00123.7537,W,000.2,057.3,310116,002.9,W*7F
$GPGGA,150945,5055.9627,N,00123.7537,W,1,02,1.0,40.9,M,46.9,M,,*60
t150205,149702
$GPRMC,150946,A,5055.9627,N,00123.7537,W,000.1,057.3,310116,002.9,W*7F
$GPGGA,150946,5055.9627,N,00123.7537,W,1,02,0.9,40.9,M,46.9,M,,*6B
t151195,150702
$GPRMC,150947,A,5055.9627,N,00123.7537,W,000.2,057.3,310116,002.9,W*7D
$GPGGA,150947,5055.9627,N,00123.7537,W,1,02,1.0,40.9,M,46.9,M,,*62
t152202,151701
$GPRMC,150948,A,5055.9628,N,00123.7538,W,000.1,057.3,310116,002.9,W*71
$GPGGA,150948,5055.9628,N,00123.7538,W,1,02,0.9,40.9,M,46.9,M,,*65
t153189,152700
$GPRMC,150949,A,5055.9628,N,00123.7537,W,000.1,057.3,310116,002.9,W*7F
$GPGGA,150949,5055.9628,N,00123.7537,W,1,02,1.1,40.9,M,46.9,M,,*62
t154181,153700
$GPRMC,150950,A,5055.9628,N,00123.7537,W,000.1,057.3,310116,002.9,W*77
$GPGGA,150950,5055.9628,N,00123.7537,W,1,02,0.9,40.9,M,46.9,M,,*63
t155220,154699
$GPRMC,150951,A,5055.9628,N,00123.7537,W,000.1,057.3,310116,002.9,W*76
$GPGGA,150951,5055.9628,N,00123.7537,W,1,02,0.9,40.9,M,46.9,M,,*62
t156198,155699
$GPRMC,150952,A,5055.9628,N,00123.7537,W,000.0,057.3,310116,002.9,W*74
$GPGGA,150952,5055.9628,N,00123.7537,W,1,02,0.9,40.9,M,46.9,M,,*61
t157197,156698
$GPRMC,150953,A,5055.9628,N,00123.7537,W,000.1,057.3,310116,002.9,W*74
$GPGGA,150953,5055.9628,N,00123.7537,W,1,02,1.1,40.9,M,46.9,M,,*69
t158190,157698
$GPRMC,150954,A,5055.9628,N,00123.7536,W,000.2,057.3,310116,002.9,W*71
$GPGGA,150954,5055.9628,N,00123.7536,W,1,02,0.9,40.9,M,46.9,M,,*66
t159184,158697
$GPRMC,150955,A,5055.9629,N,00123.7536,W,000.2,057.3,310116,002.9,W*71
$GPGGA,150955,5055.9629,N,00123.7536,W,1,02,0.9,40.9,M,46.9,M,,*66
t160207,159696
$GPRMC,150956,A,5055.9629,N,00123.7535,W,000.3,057.3,310116,002.9,W*70
$GPGGA,150956,5055.9629,N,00123.7535,W,1,02,0.9,40.9,M,46.9,M,,*66
t161199,160696
$GPRMC,150957,A,5055.9629,N,00123.7534,W,000.3,057.3,310116,002.9,W*70
$GPGGA,150957,5055.9629,N,00123.7534,W,1,02,0.9,40.9,M,46.9,M,,*66
t162191,161695
$GPRMC,150958,A,5055.9630,N,00123.7533,W,000.2,057.3,310116,002.9,W*71
$GPGGA,150958,5055.9630,N,00123.7533,W,1,02,0.9,40.9,M,46.9,M,,*66
t163198,162695
$GPRMC,150959,A,5055.9630,N,00123.7532,W,000.1,057.3,310116,002.9,W*72
$GPGGA,150959,5055.9630,N,00123.7532,W,1,02,0.9,40.9,M,46.9,M,,*66
t164191,163695
$GPRMC,151000,A,5055.9631,N,00123.7532,W,000.2,057.3,310116,002.9,W*74
$GPGGA,151000,5055.9631,N,00123.7532,W,1,02,1.1,40.9,M,46.9,M,,*6A
t165186,164695
$GPRMC,151001,A,5055.9631,N,00123.7531,W,000.2,057.3,310116,002.9,W*76
$GPGGA,151001,5055.9631,N,00123.7531,W,1,02,0.9,40.9,M,46.9,M,,*61
t166189,165694
$GPRMC,151002,A,5055.9632,N,00123.7531,W,000.2,057.3,310116,002.9,W*76
$GPGGA,151002,5055.9632,N,00123.7531,W,1,02,0.9,40.9,M,46.9,M,,*61
t167214,166693
$GPRMC,151003,A,5055.9632,N,00123.7530,W,000.2,057.3,310116,002.9,W*76
$GPGGA,151003,5055.9632,N,00123.7530,W,1,02,0.9,40.9,M,46.9,M,,*61
t168193,167693
$GPRMC,151004,A,5055.9632,N,00123.7529,W,000.1,057.3,310116,002.9,W*7A
$GPGGA,151004,5055.9632,N,00123.7529,W,1,02,0.9,40.9,M,46.9,M,,*6E
t169292,168692
$GPRMC,151005,A,5055.9632,N,00123.7528,W,000.1,057.3,310116,002.9,W*7A
$GPGGA,151005,5055.9632,N,00123.7528,W,1,02,0.9,40.9,M,46.9,M,,*6E
t170208,169692
$GPRMC,151006,A,5055.9632,N,00123.7528,W,000.1,057.3,310116,002.9,W*79
$GPGGA,151006,5055.9632,N,00123.7528,W,1,02,1.0,40.9,M,46.9,M,,*65
t171193,170691
$GPRMC,151007,A,5055.9632,N,00123.7527,W,000.1,057.3,310116,002.9,W*77
$GPGGA,151007,5055.9632,N,00123.7527,W,1,02,0.9,40.9,M,46.9,M,,*63
t172194,171691
$GPRMC,151008,A,5055.9632,N,00123.7528,W,000.1,057.3,310116,002.9,W*77
$GPGGA,151008,5055.9632,N,00123.7528,W,1,02,0.9,40.9,M,46.9,M,,*63
t173204,172690
$GPRMC,151009,A,5055.9632,N,00123.7528,W,000.2,057.3,310116,002.9,W*75
$GPGGA,151009,5055.9632,N,00123.7528,W,1,03,1.0,40.9,M,46.9,M,,*6B
t174186,173689
$GPRMC,151010,A,5055.9631,N,00123.7529,W,000.3,057.3,310116,002.9,W*7E
$GPGGA,151010,5055.9631,N,00123.7529,W,1,02,1.0,40.9,M,46.9,M,,*60
t175196,174689
$GPRMC,151011,A,5055.9631,N,00123.7530,W,000.3,057.3,310116,002.9,W*77
$GPGGA,151011,5055.9631,N,00123.7530,W,1,03,1.0,40.9,M,46.9,M,,*68
t176190,175688
$GPRMC,151012,A,5055.9631,N,00123.7531,W,000.2,057.3,310116,002.9,W*74
$GPGGA,151012,5055.9631,N,00123.7531,W,1,02,0.9,40.9,M,46.9,M,,*63
t177202,176688
$GPRMC,151013,A,5055.9631,N,00123.7532,W,000.2,057.3,310116,002.9,W*76
$GPGGA,151013,5055.9631,N,00123.7532,W,1,01,1.1,40.9,M,46.9,M,,*6B
t178164,177687
$GPRMC,151014,A,5055.9632,N,00123.7532,W,000.3,057.3,310116,002.9,W*73
$GPGGA,151014,5055.9632,N,00123.7532,W,1,02,1.1,40.9,M,46.9,M,,*6C
t179186,178686
$GPRMC,151015,A,5055.9632,N,00123.7532,W,000.2,057.3,310116,002.9,W*73
$GPGGA,151015,5055.9632,N,00123.7532,W,1,02,1.0,40.9,M,46.9,M,,*6C
t180198,179686
$GPRMC,151016,A,5055.9633,N,00123.7532,W,000.1,057.3,310116,002.9,W*72
$GPGGA,151016,5055.9633,N,00123.7532,W,1,02,0.9,40.9,M,46.9,M,,*66
t181185,180685
$GPRMC,151017,A,5055.9633,N,00123.7531,W,000.1,057.3,310116,002.9,W*70
$GPGGA,151017,5055.9633,N,00123.7531,W,1,02,1.1,40.9,M,46.9,M,,*6D
t182183,181685
$GPRMC,151018,A,5055.9632,N,00123.7531,W,000.2,057.3,310116,002.9,W*7D
$GPGGA,151018,5055.9632,N,00123.7531,W,1,02,1.1,40.9,M,46.9,M,,*63
t183175,182685
$GPRMC,151019,A,5055.9632,N,00123.7530,W,000.2,057.3,310116,002.9,W*7D
$GPGGA,151019,5055.9632,N,00123.7530,W,1,03,1.0,40.9,M,46.9,M,,*63
t184178,183685
$GPRMC,151020,A,5055.9631,N,00123.7530,W,000.2,057.3,310116,002.9,W*74
$GPGGA,151020,5055.9631,N,00123.7530,W,1,02,1.1,40.9,M,46.9,M,,*6A
t185193,184684
$GPRMC,151021,A,5055.9631,N,00123.7529,W,000.1,057.3,310116,002.9,W*7E
$GPGGA,151021,5055.9631,N,00123.7529,W,1,02,1.1,40.9,M,46.9,M,,*63
t186177,185683
$GPRMC,151022,A,5055.9631,N,00123.7529,W,000.1,057.3,310116,002.9,W*7D
$GPGGA,151022,5055.9631,N,00123.7529,W,1,03,1.0,40.9,M,46.9,M,,*60
t187174,186683
$GPRMC,151023,A,5055.9631,N,00123.7529,W,000.1,057.3,310116,002.9,W*7C
$GPGGA,151023,5055.9631,N,00123.7529,W,1,02,1.1,40.9,M,46.9,M,,*61
t188185,187682
$GPRMC,151024,A,5055.9630,N,00123.7529,W,000.2,057.3,310116,002.9,W*79
$GPGGA,151024,5055.9630,N,00123.7529,W,1,03,1.0,40.9,M,46.9,M,,*67
t189171,188682
$GPRMC,151025,A,5055.9630,N,00123.7528,W,000.2,057.3,310116,002.9,W*79
$GPGGA,151025,5055.9630,N,00123.7528,W,1,02,1.1,40.8,M,46.9,M,,*66
t190191,189681
$GPRMC,151026,A,5055.9629,N,00123.7528,W,000.1,057.3,310116,002.9,W*71
$GPGGA,151026,5055.9629,N,00123.7528,W,1,02,1.0,40.8,M,46.9,M,,*6C
t191180,190681
$GPRMC,151027,A,5055.9629,N,00123.7528,W,000.1,057.3,310116,002.9,W*70
$GPGGA,151027,5055.9629,N,00123.7528,W,1,02,1.0,40.8,M,46.9,M,,*6D
t192178,191680
$GPRMC,151028,A,5055.9629,N,00123.7527,W,000.1,057.3,310116,002.9,W*70
$GPGGA,151028,5055.9629,N,00123.7527,W,1,02,1.0,40.8,M,46.9,M,,*6D
t193175,192679
$GPRMC,151029,A,5055.9629,N,00123.7527,W,000.3,057.3,310116,002.9,W*73
$GPGGA,151029,5055.9629,N,00123.7527,W,1,02,1.0,40.8,M,46.9,M,,*6C
t194168,193679
$GPRMC,151030,A,5055.9629,N,00123.7525,W,000.2,057.3,310116,002.9,W*78
$GPGGA,151030,5055.9629,N,00123.7525,W,1,02,1.0,40.8,M,46.9,M,,*66
t195183,194678
$GPRMC,151031,A,5055.9629,N,00123.7525,W,000.2,057.3,310116,002.9,W*79
$GPGGA,151031,5055.9629,N,00123.7525,W,1,02,1.0,40.8,M,46.9,M,,*67
t196165,195678
$GPRMC,151032,A,5055.9629,N,00123.7524,W,000.1,057.3,310116,002.9,W*78
$GPGGA,151032,5055.9629,N,00123.7524,W,1,03,0.9,40.8,M,46.9,M,,*6C
t197175,196677
$GPRMC,151033,A,5055.9629,N,00123.7523,W,000.1,057.3,310116,002.9,W*7E
$GPGGA,151033,5055.9629,N,00123.7523,W,1,02,1.0,40.8,M,46.9,M,,*63
t198174,197677
$GPRMC,151034,A,5055.9629,N,00123.7523,W,000.0,057.3,310116,002.9,W*78
$GPGGA,151034,5055.9629,N,00123.7523,W,1,02,1.0,40.8,M,46.9,M,,*64
t199173,198676
$GPRMC,151035,A,5055.9629,N,00123.7523,W,000.2,057.3,310116,002.9,W*7B
$GPGGA,151035,5055.9629,N,00123.7523,W,1,02,1.0,40.8,M,46.9,M,,*65
t200284,199675
$GPRMC,151036,A,5055.9629,N,00123.7523,W,000.1,057.3,310116,002.9,W*7B
$GPGGA,151036,5055.9629,N,00123.7523,W,1,01,1.1,40.8,M,46.9,M,,*64
t201156,200675
$GPRMC,151037,A,5055.9629,N,00123.7524,W,000.1,057.3,310116,002.9,W*7D
$GPGGA,151037,5055.9629,N,00123.7524,W,1,01,1.1,40.8,M,46.9,M,,*62
t202262,201675
$GPRMC,151038,A,5055.9628,N,00123.7524,W,000.2,057.3,310116,002.9,W*70
$GPGGA,151038,5055.9628,N,00123.7524,W,1,02,1.0,40.8,M,46.9,M,,*6E
t203258,202675
$GPRMC,151039,A,5055.9628,N,00123.7525,W,000.3,057.3,310116,002.9,W*71
$GPGGA,151039,5055.9628,N,00123.7525,W,1,03,0.9,40.8,M,46.9,M,,*67
t204164,203674
$GPRMC,151040,A,5055.9628,N,00123.7526,W,000.2,057.3,310116,002.9,W*7D
$GPGGA,151040,5055.9628,N,00123.7526,W,1,02,0.9,40.8,M,46.9,M,,*6B
t205182,204674
$GPRMC,151041,A,5055.9628,N,00123.7527,W,000.2,057.3,310116,002.9,W*7D
$GPGGA,151041,5055.9628,N,00123.7527,W,1,02,0.9,40.8,M,46.9,M,,*6B
t206176,205673
$GPRMC,151042,A,5055.9628,N,00123.7528,W,000.1,057.3,310116,002.9,W*72
$GPGGA,151042,5055.9628,N,00123.7528,W,1,02,0.9,40.8,M,46.9,M,,*67
t207170,206672
$GPRMC,151043,A,5055.9628,N,00123.7528,W,000.1,057.3,310116,002.9,W*73
$GPGGA,151043,5055.9628,N,00123.7528,W,1,02,1.0,40.8,M,46.9,M,,*6E
t208169,207672
$GPRMC,151044,A,5055.9629,N,00123.7528,W,000.1,057.3,310116,002.9,W*75
$GPGGA,151044,5055.9629,N,00123.7528,W,1,02,1.0,40.8,M,46.9,M,,*68
t209168,208671
$GPRMC,151045,A,5055.9629,N,00123.7527,W,000.0,057.3,310116,002.9,W*7A
$GPGGA,151045,5055.9629,N,00123.7527,W,1,03,0.9,40.8,M,46.9,M,,*6F
t210177,209671
$GPRMC,151046,A,5055.9629,N,00123.7527,W,000.1,057.3,310116,002.9,W*78
$GPGGA,151046,5055.9629,N,00123.7527,W,1,03,0.9,40.8,M,46.9,M,,*6C
t211158,210670
$GPRMC,151047,A,5055.9628,N,00123.7528,W,000.3,057.3,310116,002.9,W*75
$GPGGA,151047,5055.9628,N,00123.7528,W,1,02,0.9,40.8,M,46.9,M,,*62
t212160,211670
$GPRMC,151048,A,5055.9628,N,00123.7529,W,000.4,057.3,310116,002.9,W*7C
$GPGGA,151048,5055.9628,N,00123.7529,W,1,02,1.0,40.8,M,46.9,M,,*64
t213151,212669
$GPRMC,151049,A,5055.9628,N,00123.7531,W,000.4,057.3,310116,002.9,W*74
$GPGGA,151049,5055.9628,N,00123.7531,W,1,02,0.9,40.8,M,46.9,M,,*64
t214160,213668
$GPRMC,151050,A,5055.9627,N,00123.7533,W,000.4,057.3,310116,002.9,W*71
$GPGGA,151050,5055.9627,N,00123.7533,W,1,01,1.2,40.8,M,46.9,M,,*68
t215159,214668
$GPRMC,151051,A,5055.9627,N,00123.7534,W,000.2,057.3,310116,002.9,W*71
$GPGGA,151051,5055.9627,N,00123.7534,W,1,02,1.1,40.8,M,46.9,M,,*6E
t216152,215667
$GPRMC,151052,A,5055.9626,N,00123.7535,W,000.2,057.3,310116,002.9,W*72
$GPGGA,151052,5055.9626,N,00123.7535,W,1,01,1.0,40.8,M,46.9,M,,*6F
t217158,216667
$GPRMC,151053,A,5055.9626,N,00123.7536,W,000.0,057.3,310116,002.9,W*72
$GPGGA,151053,5055.9626,N,00123.7536,W,1,01,1.0,40.8,M,46.9,M,,*6D
t218155,217666
$GPRMC,151054,A,5055.9626,N,00123.7536,W,000.0,057.3,310116,002.9,W*75
$GPGGA,151054,5055.9626,N,00123.7536,W,1,01,1.2,40.8,M,46.9,M,,*68
t219148,218665
$GPRMC,151055,A,5055.9626,N,00123.7536,W,000.0,057.3,310116,002.9,W*74
$GPGGA,151055,5055.9626,N,00123.7536,W,1,01,1.2,40.8,M,46.9,M,,*69
t220153,219665
$GPRMC,151056,A,5055.9626,N,00123.7536,W,000.1,057.3,310116,002.9,W*76
$GPGGA,151056,5055.9626,N,00123.7536,W,1,01,1.2,40.8,M,46.9,M,,*6A
t221153,220665
$GPRMC,151057,A,5055.9626,N,00123.7535,W,000.2,057.3,310116,002.9,W*77
$GPGGA,151057,5055.9626,N,00123.7535,W,1,01,1.2,40.8,M,46.9,M,,*68
t222138,221665
$GPRMC,151058,A,5055.9627,N,00123.7535,W,000.1,057.3,310116,002.9,W*7A
$GPGGA,151058,5055.9627,N,00123.7535,W,1,01,1.2,40.8,M,46.9,M,,*66
t223153,222664
$GPRMC,151059,A,5055.9627,N,00123.7535,W,000.1,057.3,310116,002.9,W*7B
$GPGGA,151059,5055.9627,N,00123.7535,W,1,01,1.2,40.8,M,46.9,M,,*67
t224136,223664
$GPRMC,151100,A,5055.9626,N,00123.7534,W,000.2,057.3,310116,002.9,W*75
$GPGGA,151100,5055.9626,N,00123.7534,W,1,02,0.9,40.8,M,46.9,M,,*63
t225158,224663
$GPRMC,151101,A,5055.9626,N,00123.7534,W,000.2,057.3,310116,002.9,W*74
$GPGGA,151101,5055.9626,N,00123.7534,W,1,02,0.9,40.8,M,46.9,M,,*62
t226157,225662
$GPRMC,151102,A,5055.9626,N,00123.7533,W,000.1,057.3,310116,002.9,W*73
$GPGGA,151102,5055.9626,N,00123.7533,W,1,02,0.9,40.8,M,46.9,M,,*66
t227167,226662
$GPRMC,151103,A,5055.9626,N,00123.7533,W,000.1,057.3,310116,002.9,W*72
$GPGGA,151103,5055.9626,N,00123.7533,W,1,01,1.2,40.8,M,46.9,M,,*6E
t228142,227661
$GPRMC,151104,A,5055.9626,N,00123.7533,W,000.3,057.3,310116,002.9,W*77
$GPGGA,151104,5055.9626,N,00123.7533,W,1,02,0.9,40.8,M,46.9,M,,*60
t229157,228661
$GPRMC,151105,A,5055.9626,N,00123.7534,W,000.2,057.3,310116,002.9,W*70
$GPGGA,151105,5055.9626,N,00123.7534,W,1,02,0.9,40.8,M,46.9,M,,*66
t230164,229660
$GPRMC,151106,A,5055.9626,N,00123.7536,W,000.2,057.3,310116,002.9,W*71
$GPGGA,151106,5055.9626,N,00123.7536,W,1,02,0.9,40.8,M,46.9,M,,*67
t231249,230660
$GPRMC,151107,A,5055.9625,N,00123.7536,W,000.3,057.3,310116,002.9,W*72
$GPGGA,151107,5055.9625,N,00123.7536,W,1,02,0.9,40.8,M,46.9,M,,*65
t232146,231659
$GPRMC,151108,A,5055.9625,N,00123.7538,W,000.3,057.3,310116,002.9,W*73
$GPGGA,151108,5055.9625,N,00123.7538,W,1,02,0.9,40.8,M,46.9,M,,*64
t233151,232658
$GPRMC,151109,A,5055.9624,N,00123.7539,W,000.2,057.3,310116,002.9,W*73
$GPGGA,151109,5055.9624,N,00123.7539,W,1,02,0.9,40.8,M,46.9,M,,*65
t234152,233658
$GPRMC,151110,A,5055.9624,N,00123.7539,W,000.1,057.3,310116,002.9,W*78
$GPGGA,151110,5055.9624,N,00123.7539,W,1,02,0.9,40.8,M,46.9,M,,*6D
t235154,234657
$GPRMC,151111,A,5055.9624,N,00123.7540,W,000.1,057.3,310116,002.9,W*77
$GPGGA,151111,5055.9624,N,00123.7540,W,1,02,0.9,40.8,M,46.9,M,,*62
t236151,235657
$GPRMC,151112,A,5055.9624,N,00123.7540,W,000.1,057.3,310116,002.9,W*74
$GPGGA,151112,5055.9624,N,00123.7540,W,1,02,0.9,40.8,M,46.9,M,,*61
t237152,236656
$GPRMC,151113,A,5055.9624,N,00123.7541,W,000.2,057.3,310116,002.9,W*77
$GPGGA,151113,5055.9624,N,00123.7541,W,1,02,0.9,40.8,M,46.9,M,,*61
t238152,237656
$GPRMC,151114,A,5055.9623,N,00123.7541,W,000.2,057.3,310116,002.9,W*77
$GPGGA,151114,5055.9623,N,00123.7541,W,1,02,0.9,40.8,M,46.9,M,,*61
t239151,238655
$GPRMC,151115,A,5055.9623,N,00123.7542,W,000.1,057.3,310116,002.9,W*76
$GPGGA,151115,5055.9623,N,00123.7542,W,1,02,0.9,40.8,M,46.9,M,,*63
t240159,239655
$GPRMC,151116,A,5055.9623,N,00123.7543,W,000.1,057.3,310116,002.9,W*74
$GPGGA,151116,5055.9623,N,00123.7543,W,1,02,0.9,40.8,M,46.9,M,,*61
t241141,240655
$GPRMC,151117,A,5055.9623,N,00123.7543,W,000.1,057.3,310116,002.9,W*75
$GPGGA,151117,5055.9623,N,00123.7543,W,1,02,0.9,40.7,M,46.9,M,,*6F
t242151,241654
$GPRMC,151118,A,5055.9622,N,00123.7542,W,000.1,057.3,310116,002.9,W*7A
$GPGGA,151118,5055.9622,N,00123.7542,W,1,02,0.9,40.7,M,46.9,M,,*60
t243140,242654
$GPRMC,151119,A,5055.9622,N,00123.7542,W,000.1,057.3,310116,002.9,W*7B
$GPGGA,151119,5055.9622,N,00123.7542,W,1,02,0.9,40.7,M,46.9,M,,*61
t244149,243653
$GPRMC,151120,A,5055.9622,N,00123.7542,W,000.3,057.3,310116,002.9,W*73
$GPGGA,151120,5055.9622,N,00123.7542,W,1,02,0.9,40.7,M,46.9,M,,*6B
t245158,244653
$GPRMC,151121,A,5055.9621,N,00123.7543,W,000.2,057.3,310116,002.9,W*71
$GPGGA,151121,5055.9621,N,00123.7543,W,1,02,0.9,40.7,M,46.9,M,,*68
t246137,245652
$GPRMC,151122,A,5055.9621,N,00123.7544,W,000.1,057.3,310116,002.9,W*76
$GPGGA,151122,5055.9621,N,00123.7544,W,1,02,0.9,40.7,M,46.9,M,,*6C
t247147,246651
$GPRMC,151123,A,5055.9621,N,00123.7544,W,000.1,057.3,310116,002.9,W*77
$GPGGA,151123,5055.9621,N,00123.7544,W,1,02,0.9,40.7,M,46.9,M,,*6D
t248144,247651
$GPRMC,151124,A,5055.9621,N,00123.7544,W,000.1,057.3,310116,002.9,W*70
$GPGGA,151124,5055.9621,N,00123.7544,W,1,02,0.9,40.7,M,46.9,M,,*6A
t249146,248650
$GPRMC,151125,A,5055.9620,N,00123.7543,W,000.1,057.3,310116,002.9,W*77
$GPGGA,151125,5055.9620,N,00123.7543,W,1,02,0.9,40.7,M,46.9,M,,*6D
t250160,249650
$GPRMC,151126,A,5055.9620,N,00123.7543,W,000.1,057.3,310116,002.9,W*74
$GPGGA,151126,5055.9620,N,00123.7543,W,1,02,0.9,40.7,M,46.9,M,,*6E
t251157,250649
$GPRMC,151127,A,5055.9620,N,00123.7542,W,000.1,057.3,310116,002.9,W*74
$GPGGA,151127,5055.9620,N,00123.7542,W,1,02,0.9,40.7,M,46.9,M,,*6E
t252144,251649
$GPRMC,151128,A,5055.9620,N,00123.7541,W,000.2,057.3,310116,002.9,W*7B
$GPGGA,151128,5055.9620,N,00123.7541,W,1,02,0.9,40.7,M,46.9,M,,*62
t253131,252648
$GPRMC,151129,A,5055.9620,N,00123.7541,W,000.1,057.3,310116,002.9,W*79
$GPGGA,151129,5055.9620,N,00123.7541,W,1,02,0.9,40.7,M,46.9,M,,*63
t254134,253647
$GPRMC,151130,A,5055.9620,N,00123.7540,W,000.1,057.3,310116,002.9,W*70
$GPGGA,151130,5055.9620,N,00123.7540,W,1,02,0.9,40.7,M,46.9,M,,*6A
t255149,254647
$GPRMC,151131,A,5055.9620,N,00123.7540,W,000.1,057.3,310116,002.9,W*71
$GPGGA,151131,5055.9620,N,00123.7540,W,1,02,0.9,40.7,M,46.9,M,,*6B
t256135,255646
$GPRMC,151132,A,5055.9620,N,00123.7539,W,000.1,057.3,310116,002.9,W*7C
$GPGGA,151132,5055.9620,N,00123.7539,W,1,02,0.9,40.7,M,46.9,M,,*66
t257156,256646
$GPRMC,151133,A,5055.9619,N,00123.7539,W,000.1,057.3,310116,002.9,W*77
$GPGGA,151133,5055.9619,N,00123.7539,W,1,02,0.9,40.7,M,46.9,M,,*6D
t258154,257645
$GPRMC,151134,A,5055.9619,N,00123.7539,W,000.2,057.3,310116,002.9,W*73
$GPGGA,151134,5055.9619,N,00123.7539,W,1,02,0.9,40.7,M,46.9,M,,*6A
t259145,258646
$GPRMC,151135,A,5055.9619,N,00123.7539,W,000.1,057.3,310116,002.9,W*71
$GPGGA,151135,5055.9619,N,00123.7539,W,1,02,0.9,40.7,M,46.9,M,,*6B
t260154,259645
$GPRMC,151136,A,5055.9619,N,00123.7539,W,000.0,057.3,310116,002.9,W*73
$GPGGA,151136,5055.9619,N,00123.7539,W,1,02,0.9,40.7,M,46.9,M,,*68
t261152,260644
$GPRMC,151137,A,5055.9619,N,00123.7539,W,000.0,057.3,310116,002.9,W*72
$GPGGA,151137,5055.9619,N,00123.7539,W,1,01,1.1,40.7,M,46.9,M,,*63
t262208,261644
$GPRMC,151138,A,5055.9619,N,00123.7539,W,000.1,057.3,310116,002.9,W*7C
$GPGGA,151138,5055.9619,N,00123.7539,W,1,01,1.2,40.7,M,46.9,M,,*6F
t263131,262643
$GPRMC,151139,A,5055.9619,N,00123.7539,W,000.2,057.3,310116,002.9,W*7E
$GPGGA,151139,5055.9619,N,00123.7539,W,1,02,1.0,40.7,M,46.9,M,,*6F
t264131,263643
$GPRMC,151140,A,5055.9619,N,00123.7538,W,000.2,057.3,310116,002.9,W*71
$GPGGA,151140,5055.9619,N,00123.7538,W,1,02,1.1,40.7,M,46.9,M,,*61
t265133,264642
$GPRMC,151141,A,5055.9619,N,00123.7537,W,000.3,057.3,310116,002.9,W*7E
$GPGGA,151141,5055.9619,N,00123.7537,W,1,02,1.1,40.7,M,46.9,M,,*6F
t266115,265641
$GPRMC,151142,A,5055.9620,N,00123.7536,W,000.1,057.3,310116,002.9,W*74
$GPGGA,151142,5055.9620,N,00123.7536,W,1,02,1.0,40.7,M,46.9,M,,*66
t267116,266641
$GPRMC,151143,A,5055.9620,N,00123.7536,W,000.1,057.3,310116,002.9,W*75
$GPGGA,151143,5055.9620,N,00123.7536,W,1,02,1.0,40.7,M,46.9,M,,*67
t268120,267640
$GPRMC,151144,A,5055.9620,N,00123.7536,W,000.1,057.3,310116,002.9,W*72
$GPGGA,151144,5055.9620,N,00123.7536,W,1,02,1.0,40.7,M,46.9,M,,*60
t269143,268640
$GPRMC,151145,A,5055.9620,N,00123.7536,W,000.2,057.3,310116,002.9,W*70
$GPGGA,151145,5055.9620,N,00123.7536,W,1,02,1.1,40.7,M,46.9,M,,*60
t270118,269639
$GPRMC,151146,A,5055.9620,N,00123.7537,W,000.2,057.3,310116,002.9,W*72
$GPGGA,151146,5055.9620,N,00123.7537,W,1,02,1.0,40.7,M,46.9,M,,*63
t271120,270639
$GPRMC,151147,A,5055.9620,N,00123.7538,W,000.1,057.3,310116,002.9,W*7F
$GPGGA,151147,5055.9620,N,00123.7538,W,1,02,1.0,40.7,M,46.9,M,,*6D
t272121,271638
$GPRMC,151148,A,5055.9620,N,00123.7538,W,000.1,057.3,310116,002.9,W*70
$GPGGA,151148,5055.9620,N,00123.7538,W,1,02,1.0,40.7,M,46.9,M,,*62
t273118,272637
$GPRMC,151149,A,5055.9620,N,00123.7538,W,000.2,057.3,310116,002.9,W*72
$GPGGA,151149,5055.9620,N,00123.7538,W,1,02,1.0,40.7,M,46.9,M,,*63
t274112,273637
$GPRMC,151150,A,5055.9620,N,00123.7538,W,000.1,057.3,310116,002.9,W*79
$GPGGA,151150,5055.9620,N,00123.7538,W,1,02,1.0,40.7,M,46.9,M,,*6B
t275124,274636
$GPRMC,151151,A,5055.9620,N,00123.7537,W,000.1,057.3,310116,002.9,W*77
$GPGGA,151151,5055.9620,N,00123.7537,W,1,02,1.1,40.7,M,46.9,M,,*64
t276115,275636
$GPRMC,151152,A,5055.9620,N,00123.7538,W,000.1,057.3,310116,002.9,W*7B
$GPGGA,151152,5055.9620,N,00123.7538,W,1,02,1.0,40.7,M,46.9,M,,*69
t277115,276635
$GPRMC,151153,A,5055.9620,N,00123.7538,W,000.1,057.3,310116,002.9,W*7A
$GPGGA,151153,5055.9620,N,00123.7538,W,1,02,1.1,40.7,M,46.9,M,,*69
t278106,277635
$GPRMC,151154,A,5055.9620,N,00123.7539,W,000.2,057.3,310116,002.9,W*7F
$GPGGA,151154,5055.9620,N,00123.7539,W,1,02,1.1,40.7,M,46.9,M,,*6F
t279211,278635
$GPRMC,151155,A,5055.9619,N,00123.7539,W,000.1,057.3,310116,002.9,W*77
$GPGGA,151155,5055.9619,N,00123.7539,W,1,02,1.1,40.8,M,46.9,M,,*6B
t280220,279634
$GPRMC,151156,A,5055.9619,N,00123.7540,W,000.2,057.3,310116,002.9,W*79
$GPGGA,151156,5055.9619,N,00123.7540,W,1,02,1.1,40.8,M,46.9,M,,*66
t281122,280634
$GPRMC,151157,A,5055.9619,N,00123.7540,W,000.1,057.3,310116,002.9,W*7B
$GPGGA,151157,5055.9619,N,00123.7540,W,1,02,1.1,40.8,M,46.9,M,,*67
t282115,281633
$GPRMC,151158,A,5055.9619,N,00123.7541,W,000.1,057.3,310116,002.9,W*75
$GPGGA,151158,5055.9619,N,00123.7541,W,1,02,1.1,40.8,M,46.9,M,,*69
t283103,282633
$GPRMC,151159,A,5055.9619,N,00123.7541,W,000.1,057.3,310116,002.9,W*74
$GPGGA,151159,5055.9619,N,00123.7541,W,1,02,1.1,40.8,M,46.9,M,,*68
t284110,283632
$GPRMC,151200,A,5055.9619,N,00123.7542,W,000.0,057.3,310116,002.9,W*79
$GPGGA,151200,5055.9619,N,00123.7542,W,1,02,1.1,40.8,M,46.9,M,,*64
t285114,284632
$GPRMC,151201,A,5055.9619,N,00123.7542,W,000.1,057.3,310116,002.9,W*79
$GPGGA,151201,5055.9619,N,00123.7542,W,1,02,1.0,40.8,M,46.9,M,,*64
t286111,285631
$GPRMC,151202,A,5055.9619,N,00123.7542,W,000.0,057.3,310116,002.9,W*7B
$GPGGA,151202,5055.9619,N,00123.7542,W,1,02,1.0,40.8,M,46.9,M,,*67
t287111,286630
$GPRMC,151203,A,5055.9619,N,00123.7541,W,000.1,057.3,310116,002.9,W*78
$GPGGA,151203,5055.9619,N,00123.7541,W,1,02,1.1,40.8,M,46.9,M,,*64
t288115,287630
$GPRMC,151204,A,5055.9619,N,00123.7541,W,000.1,057.3,310116,002.9,W*7F
$GPGGA,151204,5055.9619,N,00123.7541,W,1,02,1.1,40.8,M,46.9,M,,*63
t289104,288629
$GPRMC,151205,A,5055.9619,N,00123.7541,W,000.1,057.3,310116,002.9,W*7E
$GPGGA,151205,5055.9619,N,00123.7541,W,1,02,1.0,40.8,M,46.9,M,,*63
t290117,289629
$GPRMC,151206,A,5055.9619,N,00123.7540,W,000.1,057.3,310116,002.9,W*7C
$GPGGA,151206,5055.9619,N,00123.7540,W,1,02,1.0,40.8,M,46.9,M,,*61
t291117,290628
$GPRMC,151207,A,5055.9619,N,00123.7540,W,000.1,057.3,310116,002.9,W*7D
$GPGGA,151207,5055.9619,N,00123.7540,W,1,02,1.0,40.8,M,46.9,M,,*60
t292106,291628
$GPRMC,151208,A,5055.9619,N,00123.7539,W,000.1,057.3,310116,002.9,W*7C
$GPGGA,151208,5055.9619,N,00123.7539,W,1,02,1.0,40.8,M,46.9,M,,*61
t293209,292627
$GPRMC,151209,A,5055.9619,N,00123.7539,W,000.1,057.3,310116,002.9,W*7D
$GPGGA,151209,5055.9619,N,00123.7539,W,1,02,1.0,40.8,M,46.9,M,,*60
t294106,293626
$GPRMC,151210,A,5055.9619,N,00123.7538,W,000.1,057.3,310116,002.9,W*74
$GPGGA,151210,5055.9619,N,00123.7538,W,1,02,1.1,40.8,M,46.9,M,,*68
t295111,294626
$GPRMC,151211,A,5055.9619,N,00123.7538,W,000.2,057.3,310116,002.9,W*76
$GPGGA,151211,5055.9619,N,00123.7538,W,1,02,1.1,40.8,M,46.9,M,,*69
t296110,295625
$GPRMC,151212,A,5055.9619,N,00123.7537,W,000.2,057.3,310116,002.9,W*7A
$GPGGA,151212,5055.9619,N,00123.7537,W,1,01,1.1,40.8,M,46.9,M,,*66
t297107,296625
$GPRMC,151213,A,5055.9619,N,00123.7536,W,000.2,057.3,310116,002.9,W*7A
$GPGGA,151213,5055.9619,N,00123.7536,W,1,01,1.1,40.8,M,46.9,M,,*66
t298105,297625
$GPRMC,151214,A,5055.9619,N,00123.7535,W,000.2,057.3,310116,002.9,W*7E
$GPGGA,151214,5055.9619,N,00123.7535,W,1,02,1.0,40.8,M,46.9,M,,*60
t299109,298625
$GPRMC,151215,A,5055.9620,N,00123.7535,W,000.2,057.3,310116,002.9,W*75
$GPGGA,151215,5055.9620,N,00123.7535,W,1,02,1.0,40.8,M,46.9,M,,*6B
t300112,299624
$GPRMC,151216,A,5055.9620,N,00123.7534,W,000.2,057.3,310116,002.9,W*77
$GPGGA,151216,5055.9620,N,00123.7534,W,1,02,1.0,40.8,M,46.9,M,,*69
t301103,300623
$GPRMC,151217,A,5055.9620,N,00123.7533,W,000.3,057.3,310116,002.9,W*70
$GPGGA,151217,5055.9620,N,00123.7533,W,1,03,1.0,40.8,M,46.9,M,,*6E
t302120,301623
$GPRMC,151218,A,5055.9620,N,00123.7532,W,000.2,057.3,310116,002.9,W*7F
$GPGGA,151218,5055.9620,N,00123.7532,W,1,02,1.0,40.8,M,46.9,M,,*61
t303100,302622
$GPRMC,151219,A,5055.9621,N,00123.7531,W,000.2,057.3,310116,002.9,W*7C
$GPGGA,151219,5055.9621,N,00123.7531,W,1,02,1.0,40.8,M,46.9,M,,*62
t304097,303622
$GPRMC,151220,A,5055.9621,N,00123.7529,W,000.2,057.3,310116,002.9,W*7F
$GPGGA,151220,5055.9621,N,00123.7529,W,1,02,1.0,40.7,M,46.9,M,,*6E
t305117,304621
$GPRMC,151221,A,5055.9621,N,00123.7529,W,000.2,057.3,310116,002.9,W*7E
$GPGGA,151221,5055.9621,N,00123.7529,W,1,01,1.1,40.7,M,46.9,M,,*6D
t306095,305620
$GPRMC,151222,A,5055.9621,N,00123.7528,W,000.1,057.3,310116,002.9,W*7F
$GPGGA,151222,5055.9621,N,00123.7528,W,1,02,1.1,40.7,M,46.9,M,,*6C
t307118,306620
$GPRMC,151223,A,5055.9621,N,00123.7527,W,000.1,057.3,310116,002.9,W*71
$GPGGA,151223,5055.9621,N,00123.7527,W,1,02,1.0,40.8,M,46.9,M,,*6C
t308089,307619
$GPRMC,151224,A,5055.9621,N,00123.7526,W,000.2,057.3,310116,002.9,W*74
$GPGGA,151224,5055.9621,N,00123.7526,W,1,02,1.0,40.8,M,46.9,M,,*6A
t309090,308619
$GPRMC,151225,A,5055.9621,N,00123.7525,W,000.2,057.3,310116,002.9,W*76
$GPGGA,151225,5055.9621,N,00123.7525,W,1,02,1.0,40.7,M,46.9,M,,*67
t310105,309618
$GPRMC,151226,A,5055.9621,N,00123.7524,W,000.3,057.3,310116,002.9,W*75
$GPGGA,151226,5055.9621,N,00123.7524,W,1,03,1.0,40.7,M,46.9,M,,*64
t311115,310618
$GPRMC,151227,A,5055.9621,N,00123.7523,W,000.3,057.3,310116,002.9,W*73
$GPGGA,151227,5055.9621,N,00123.7523,W,1,02,1.0,40.7,M,46.9,M,,*63
t312101,311617
$GPRMC,151228,A,5055.9622,N,00123.7522,W,000.1,057.3,310116,002.9,W*7C
$GPGGA,151228,5055.9622,N,00123.7522,W,1,02,1.0,40.7,M,46.9,M,,*6E
t313096,312616
$GPRMC,151229,A,5055.9622,N,00123.7521,W,000.1,057.3,310116,002.9,W*7E
$GPGGA,151229,5055.9622,N,00123.7521,W,1,02,1.0,40.7,M,46.9,M,,*6C
t314095,313616
$GPRMC,151230,A,5055.9622,N,00123.7521,W,000.1,057.3,310116,002.9,W*76
$GPGGA,151230,5055.9622,N,00123.7521,W,1,01,1.1,40.7,M,46.9,M,,*66
t315113,314615
$GPRMC,151231,A,5055.9622,N,00123.7521,W,000.1,057.3,310116,002.9,W*77
$GPGGA,151231,5055.9622,N,00123.7521,W,1,02,1.0,40.7,M,46.9,M,,*65
t316094,315615
$GPRMC,151232,A,5055.9622,N,00123.7520,W,000.1,057.3,310116,002.9,W*75
$GPGGA,151232,5055.9622,N,00123.7520,W,1,03,0.9,40.7,M,46.9,M,,*6E
t317117,316615
$GPRMC,151233,A,5055.9621,N,00123.7519,W,000.1,057.3,310116,002.9,W*7D
$GPGGA,151233,5055.9621,N,00123.7519,W,1,03,1.0,40.7,M,46.9,M,,*6E
t318099,317615
$GPRMC,151234,A,5055.9621,N,00123.7519,W,000.2,057.3,310116,002.9,W*79
$GPGGA,151234,5055.9621,N,00123.7519,W,1,03,0.9,40.6,M,46.9,M,,*60
t319108,318614
$GPRMC,151235,A,5055.9621,N,00123.7518,W,000.3,057.3,310116,002.9,W*78
$GPGGA,151235,5055.9621,N,00123.7518,W,1,02,0.9,40.6,M,46.9,M,,*61
t320109,319613
$GPRMC,151236,A,5055.9621,N,00123.7517,W,000.3,057.3,310116,002.9,W*74
$GPGGA,151236,5055.9621,N,00123.7517,W,1,02,0.9,40.6,M,46.9,M,,*6D
t321103,320613
$GPRMC,151237,A,5055.9621,N,00123.7516,W,000.2,057.3,310116,002.9,W*75
$GPGGA,151237,5055.9621,N,00123.7516,W,1,03,0.9,40.6,M,46.9,M,,*6C
t322106,321612
$GPRMC,151238,A,5055.9621,N,00123.7515,W,000.2,057.3,310116,002.9,W*79
$GPGGA,151238,5055.9621,N,00123.7515,W,1,02,0.9,40.6,M,46.9,M,,*61
t323105,322612
$GPRMC,151239,A,5055.9621,N,00123.7514,W,000.2,057.3,310116,002.9,W*79
$GPGGA,151239,5055.9621,N,00123.7514,W,1,01,1.1,40.6,M,46.9,M,,*6B
t324184,323611
$GPRMC,151240,A,5055.9621,N,00123.7513,W,000.1,057.3,310116,002.9,W*73
$GPGGA,151240,5055.9621,N,00123.7513,W,1,02,0.9,40.6,M,46.9,M,,*68
t325114,324611
$GPRMC,151241,A,5055.9621,N,00123.7512,W,000.2,057.3,310116,002.9,W*70
$GPGGA,151241,5055.9621,N,00123.7512,W,1,02,0.9,40.6,M,46.9,M,,*68
t326113,325610
$GPRMC,151242,A,5055.9621,N,00123.7511,W,000.1,057.3,310116,002.9,W*73
$GPGGA,151242,5055.9621,N,00123.7511,W,1,02,1.0,40.7,M,46.9,M,,*61
t327088,326609
$GPRMC,151243,A,5055.9621,N,00123.7511,W,000.2,057.3,310116,002.9,W*71
$GPGGA,151243,5055.9621,N,00123.7511,W,1,02,1.0,40.7,M,46.9,M,,*60
t328091,327609
$GPRMC,151244,A,5055.9621,N,00123.7510,W,000.1,057.3,310116,002.9,W*74
$GPGGA,151244,5055.9621,N,00123.7510,W,1,01,1.1,40.7,M,46.9,M,,*64
t329099,328608
$GPRMC,151245,A,5055.9621,N,00123.7509,W,000.0,057.3,310116,002.9,W*7C
$GPGGA,151245,5055.9621,N,00123.7509,W,1,02,0.9,40.7,M,46.9,M,,*67
t330119,329608
$GPRMC,151246,A,5055.9621,N,00123.7509,W,000.1,057.3,310116,002.9,W*7E
$GPGGA,151246,5055.9621,N,00123.7509,W,1,02,0.9,40.7,M,46.9,M,,*64
t331102,330607
$GPRMC,151247,A,5055.9621,N,00123.7509,W,000.1,057.3,310116,002.9,W*7F
$GPGGA,151247,5055.9621,N,00123.7509,W,1,01,1.0,40.7,M,46.9,M,,*6E
t332092,331607
$GPRMC,151248,A,5055.9622,N,00123.7509,W,000.1,057.3,310116,002.9,W*73
$GPGGA,151248,5055.9622,N,00123.7509,W,1,01,1.2,40.7,M,46.9,M,,*60
t333076,332606
$GPRMC,151249,A,5055.9622,N,00123.7508,W,000.1,057.3,310116,002.9,W*73
$GPGGA,151249,5055.9622,N,00123.7508,W,1,02,0.9,40.7,M,46.9,M,,*69
t334107,333605
$GPRMC,151250,A,5055.9622,N,00123.7508,W,000.1,057.3,310116,002.9,W*7B
$GPGGA,151250,5055.9622,N,00123.7508,W,1,03,0.9,40.7,M,46.9,M,,*60
t335108,334605
$GPRMC,151251,A,5055.9622,N,00123.7508,W,000.1,057.3,310116,002.9,W*7A
$GPGGA,151251,5055.9622,N,00123.7508,W,1,02,1.0,40.7,M,46.9,M,,*68
t336099,335605
$GPRMC,151252,A,5055.9622,N,00123.7507,W,000.2,057.3,310116,002.9,W*75
$GPGGA,151252,5055.9622,N,00123.7507,W,1,02,0.9,40.7,M,46.9,M,,*6C
t337104,336605
$GPRMC,151253,A,5055.9622,N,00123.7507,W,000.1,057.3,310116,002.9,W*77
$GPGGA,151253,5055.9622,N,00123.7507,W,1,02,0.9,40.7,M,46.9,M,,*6D
t338099,337604
$GPRMC,151254,A,5055.9622,N,00123.7506,W,000.1,057.3,310116,002.9,W*71
$GPGGA,151254,5055.9622,N,00123.7506,W,1,02,0.9,40.7,M,46.9,M,,*6B
t339097,338604
$GPRMC,151255,A,5055.9622,N,00123.7506,W,000.1,057.3,310116,002.9,W*70
$GPGGA,151255,5055.9622,N,00123.7506,W,1,02,0.9,40.7,M,46.9,M,,*6A
t340116,339603
$GPRMC,151256,A,5055.9622,N,00123.7506,W,000.1,057.3,310116,002.9,W*73
$GPGGA,151256,5055.9622,N,00123.7506,W,1,02,0.9,40.7,M,46.9,M,,*69
t341107,340602
$GPRMC,151257,A,5055.9622,N,00123.7506,W,000.1,057.3,310116,002.9,W*72
$GPGGA,151257,5055.9622,N,00123.7506,W,1,02,0.9,40.7,M,46.9,M,,*68
t342094,341602
$GPRMC,151258,A,5055.9622,N,00123.7506,W,000.1,057.3,310116,002.9,W*7D
$GPGGA,151258,5055.9622,N,00123.7506,W,1,01,1.1,40.7,M,46.9,M,,*6D
t343078,342601
$GPRMC,151259,A,5055.9622,N,00123.7506,W,000.1,057.3,310116,002.9,W*7C
$GPGGA,151259,5055.9622,N,00123.7506,W,1,01,1.1,40.7,M,46.9,M,,*6C
t344078,343601
$GPRMC,151300,A,5055.9622,N,00123.7506,W,000.1,057.3,310116,002.9,W*71
$GPGGA,151300,5055.9622,N,00123.7506,W,1,02,0.9,40.8,M,46.9,M,,*64
t345102,344600
$GPRMC,151301,A,5055.9621,N,00123.7506,W,000.0,057.3,310116,002.9,W*72
$GPGGA,151301,5055.9621,N,00123.7506,W,1,02,0.9,40.8,M,46.9,M,,*66
t346093,345600
$GPRMC,151302,A,5055.9621,N,00123.7506,W,000.0,057.3,310116,002.9,W*71
$GPGGA,151302,5055.9621,N,00123.7506,W,1,01,1.1,40.8,M,46.9,M,,*6F
t347086,346599
$GPRMC,151303,A,5055.9621,N,00123.7506,W,000.0,057.3,310116,002.9,W*70
$GPGGA,151303,5055.9621,N,00123.7506,W,1,01,1.1,40.8,M,46.9,M,,*6E
t348076,347598
$GPRMC,151304,A,5055.9621,N,00123.7506,W,000.1,057.3,310116,002.9,W*76
$GPGGA,151304,5055.9621,N,00123.7506,W,1,01,1.1,40.8,M,46.9,M,,*69
t349072,348598
$GPRMC,151305,A,5055.9621,N,00123.7506,W,000.2,057.3,310116,002.9,W*74
$GPGGA,151305,5055.9621,N,00123.7506,W,1,01,1.1,40.8,M,46.9,M,,*68
t350073,349597
$GPRMC,151306,A,5055.9621,N,00123.7507,W,000.2,057.3,310116,002.9,W*76
$GPGGA,151306,5055.9621,N,00123.7507,W,1,01,1.1,40.8,M,46.9,M,,*6A
t351073,350597
$GPRMC,151307,A,5055.9621,N,00123.7507,W,000.0,057.3,310116,002.9,W*75
$GPGGA,151307,5055.9621,N,00123.7507,W,1,02,0.9,40.8,M,46.9,M,,*61
t352080,351596
$GPRMC,151308,A,5055.9621,N,00123.7507,W,000.0,057.3,310116,002.9,W*7A
$GPGGA,151308,5055.9621,N,00123.7507,W,1,02,0.9,40.8,M,46.9,M,,*6E
t353084,352595
$GPRMC,151309,A,5055.9621,N,00123.7507,W,000.1,057.3,310116,002.9,W*7A
$GPGGA,151309,5055.9621,N,00123.7507,W,1,02,0.9,40.8,M,46.9,M,,*6F
t354088,353595
$GPRMC,151310,A,5055.9621,N,00123.7507,W,000.1,057.3,310116,002.9,W*72
$GPGGA,151310,5055.9621,N,00123.7507,W,1,02,0.9,40.8,M,46.9,M,,*67
t355182,354594
$GPRMC,151311,A,5055.9621,N,00123.7507,W,000.0,057.3,310116,002.9,W*72
$GPGGA,151311,5055.9621,N,00123.7507,W,1,02,1.0,40.8,M,46.9,M,,*6E
t356175,355595
$GPRMC,151312,A,5055.9621,N,00123.7506,W,000.2,057.3,310116,002.9,W*72
$GPGGA,151312,5055.9621,N,00123.7506,W,1,02,1.0,40.8,M,46.9,M,,*6C
t357168,356594
$GPRMC,151313,A,5055.9621,N,00123.7506,W,000.1,057.3,310116,002.9,W*70
$GPGGA,151313,5055.9621,N,00123.7506,W,1,01,1.2,40.8,M,46.9,M,,*6C
t358076,357594
$GPRMC,151314,A,5055.9621,N,00123.7505,W,000.1,057.3,310116,002.9,W*74
$GPGGA,151314,5055.9621,N,00123.7505,W,1,02,1.0,40.8,M,46.9,M,,*69
t359084,358593
$GPRMC,151315,A,5055.9621,N,00123.7505,W,000.0,057.3,310116,002.9,W*74
$GPGGA,151315,5055.9621,N,00123.7505,W,1,00,1.3,40.8,M,46.9,M,,*69
t360068,359592
$GPRMC,151316,A,5055.9621,N,00123.7505,W,000.0,057.3,310116,002.9,W*77
$GPGGA,151316,5055.9621,N,00123.7505,W,1,01,1.0,40.8,M,46.9,M,,*68
t361083,360592
$GPRMC,151317,A,5055.9621,N,00123.7504,W,000.1,057.3,310116,002.9,W*76
$GPGGA,151317,5055.9621,N,00123.7504,W,1,00,1.2,40.8,M,46.9,M,,*6B
t362073,361591
$GPRMC,151318,A,5055.9622,N,00123.7505,W,000.2,057.3,310116,002.9,W*78
$GPGGA,151318,5055.9622,N,00123.7505,W,1,01,1.2,40.8,M,46.9,M,,*67
t363054,362591
$GPRMC,151319,A,5055.9622,N,00123.7505,W,000.1,057.3,310116,002.9,W*7A
$GPGGA,151319,5055.9622,N,00123.7505,W,1,01,1.1,40.8,M,46.9,M,,*65
t364068,363590
$GPRMC,151320,A,5055.9622,N,00123.7505,W,000.1,057.3,310116,002.9,W*70
$GPGGA,151320,5055.9622,N,00123.7505,W,1,02,1.0,40.8,M,46.9,M,,*6D
t365077,364590
$GPRMC,151321,A,5055.9623,N,00123.7505,W,000.1,057.3,310116,002.9,W*70
$GPGGA,151321,5055.9623,N,00123.7505,W,1,02,1.0,40.8,M,46.9,M,,*6D
t366061,365589
$GPRMC,151322,A,5055.9623,N,00123.7505,W,000.1,057.3,310116,002.9,W*73
$GPGGA,151322,5055.9623,N,00123.7505,W,1,01,1.2,40.8,M,46.9,M,,*6F
t367076,366588
$GPRMC,151323,A,5055.9623,N,00123.7505,W,000.1,057.3,310116,002.9,W*72
$GPGGA,151323,5055.9623,N,00123.7505,W,1,01,1.1,40.8,M,46.9,M,,*6D
t368053,367588
$GPRMC,151324,A,5055.9623,N,00123.7506,W,000.1,057.3,310116,002.9,W*76
$GPGGA,151324,5055.9623,N,00123.7506,W,1,01,1.1,40.8,M,46.9,M,,*69
t369045,368587
$GPRMC,151325,A,5055.9623,N,00123.7506,W,000.1,057.3,310116,002.9,W*77
$GPGGA,151325,5055.9623,N,00123.7506,W,1,00,1.3,40.8,M,46.9,M,,*6B
t370070,369587
$GPRMC,151326,A,5055.9623,N,00123.7506,W,000.1,057.3,310116,002.9,W*74
$GPGGA,151326,5055.9623,N,00123.7506,W,1,01,1.1,40.8,M,46.9,M,,*6B
t371052,370586
$GPRMC,151327,A,5055.9624,N,00123.7506,W,000.1,057.3,310116,002.9,W*72
$GPGGA,151327,5055.9624,N,00123.7506,W,1,01,1.2,40.8,M,46.9,M,,*6E
t372033,371586
$GPRMC,151328,A,5055.9624,N,00123.7506,W,000.1,057.3,310116,002.9,W*7D
$GPGGA,151328,5055.9624,N,00123.7506,W,1,01,1.2,40.8,M,46.9,M,,*61
t373041,372585
$GPRMC,151329,A,5055.9624,N,00123.7506,W,000.2,057.3,310116,002.9,W*7F
$GPGGA,151329,5055.9624,N,00123.7506,W,1,01,1.1,40.8,M,46.9,M,,*63
t374053,373584
$GPRMC,151330,A,5055.9624,N,00123.7507,W,000.1,057.3,310116,002.9,W*75
$GPGGA,151330,5055.9624,N,00123.7507,W,1,01,1.7,40.8,M,46.9,M,,*6C
t375100,374585
$GPRMC,151331,A,5055.9624,N,00123.7507,W,000.1,057.3,310116,002.9,W*74
$GPGGA,151331,5055.9624,N,00123.7507,W,1,01,1.7,40.8,M,46.9,M,,*6D
t376075,375584
$GPRMC,151332,A,5055.9624,N,00123.7507,W,000.0,057.3,310116,002.9,W*76
$GPGGA,151332,5055.9624,N,00123.7507,W,1,01,1.7,40.8,M,46.9,M,,*6E
t377078,376584
$GPRMC,151333,A,5055.9624,N,00123.7507,W,000.1,057.3,310116,002.9,W*76
$GPGGA,151333,5055.9624,N,00123.7507,W,1,01,1.1,40.8,M,46.9,M,,*69
t378058,377583
$GPRMC,151334,A,5055.9625,N,00123.7508,W,000.1,057.3,310116,002.9,W*7F
$GPGGA,151334,5055.9625,N,00123.7508,W,1,01,1.1,40.8,M,46.9,M,,*60
t379060,378583
$GPRMC,151335,A,5055.9625,N,00123.7508,W,000.0,057.3,310116,002.9,W*7F
$GPGGA,151335,5055.9625,N,00123.7508,W,1,01,1.1,40.8,M,46.9,M,,*61
t380066,379582
$GPRMC,151336,A,5055.9625,N,00123.7509,W,000.1,057.3,310116,002.9,W*7C
$GPGGA,151336,5055.9625,N,00123.7509,W,1,01,1.1,40.8,M,46.9,M,,*63
t381065,380581
$GPRMC,151337,A,5055.9625,N,00123.7509,W,000.1,057.3,310116,002.9,W*7D
$GPGGA,151337,5055.9625,N,00123.7509,W,1,01,1.1,40.9,M,46.9,M,,*63
t382059,381581
$GPRMC,151338,A,5055.9625,N,00123.7508,W,000.1,057.3,310116,002.9,W*73
$GPGGA,151338,5055.9625,N,00123.7508,W,1,01,1.2,40.9,M,46.9,M,,*6E
t383055,382580
$GPRMC,151339,A,5055.9626,N,00123.7508,W,000.0,057.3,310116,002.9,W*70
$GPGGA,151339,5055.9626,N,00123.7508,W,1,01,1.1,40.9,M,46.9,M,,*6F
t384050,383580
$GPRMC,151340,A,5055.9626,N,00123.7508,W,000.1,057.3,310116,002.9,W*7F
$GPGGA,151340,5055.9626,N,00123.7508,W,1,01,1.2,40.9,M,46.9,M,,*62
t385086,384579
$GPRMC,151341,A,5055.9626,N,00123.7508,W,000.1,057.3,310116,002.9,W*7E
$GPGGA,151341,5055.9626,N,00123.7508,W,1,01,1.0,40.9,M,46.9,M,,*61
t386151,385579
$GPRMC,151342,A,5055.9626,N,00123.7509,W,000.1,057.3,310116,002.9,W*7C
$GPGGA,151342,5055.9626,N,00123.7509,W,1,01,1.0,40.9,M,46.9,M,,*63
t387057,386578
$GPRMC,151343,A,5055.9626,N,00123.7509,W,000.1,057.3,310116,002.9,W*7D
$GPGGA,151343,5055.9626,N,00123.7509,W,1,01,1.0,40.9,M,46.9,M,,*62
t388055,387577
$GPRMC,151344,A,5055.9626,N,00123.7510,W,000.1,057.3,310116,002.9,W*72
$GPGGA,151344,5055.9626,N,00123.7510,W,1,01,1.0,40.9,M,46.9,M,,*6D
t389066,388577
$GPRMC,151345,A,5055.9626,N,00123.7510,W,000.1,057.3,310116,002.9,W*73
$GPGGA,151345,5055.9626,N,00123.7510,W,1,01,1.0,40.9,M,46.9,M,,*6C
t390055,389576
$GPRMC,151346,A,5055.9626,N,00123.7511,W,000.1,057.3,310116,002.9,W*71
$GPGGA,151346,5055.9626,N,00123.7511,W,1,01,1.0,40.9,M,46.9,M,,*6E
t391060,390576
$GPRMC,151347,A,5055.9626,N,00123.7511,W,000.0,057.3,310116,002.9,W*71
$GPGGA,151347,5055.9626,N,00123.7511,W,1,02,1.0,40.9,M,46.9,M,,*6C
t392055,391575
$GPRMC,151348,A,5055.9626,N,00123.7511,W,000.2,057.3,310116,002.9,W*7C
$GPGGA,151348,5055.9626,N,00123.7511,W,1,02,1.0,40.9,M,46.9,M,,*63
t393053,392574
$GPRMC,151349,A,5055.9626,N,00123.7511,W,000.1,057.3,310116,002.9,W*7E
