$GPRMC,134829,A,5055.9580,N,00123.7626,W,000.1,084.7,310116,002.9,W*72
$GPGGA,134829,5055.9580,N,00123.7626,W,1,01,2.2,49.4,M,46.9,M,,*62
t1300,856
$GPRMC,134830,A,5055.9580,N,00123.7625,W,000.1,084.7,310116,002.9,W*79
$GPGGA,134830,5055.9580,N,00123.7625,W,1,01,2.2,49.4,M,46.9,M,,*69
t2311,1855
$GPRMC,134831,A,5055.9580,N,00123.7625,W,000.1,084.7,310116,002.9,W*78
$GPGGA,134831,5055.9580,N,00123.7625,W,1,01,2.2,49.4,M,46.9,M,,*68
t3299,2854
$GPRMC,134832,A,5055.9580,N,00123.7624,W,000.1,084.7,310116,002.9,W*7A
$GPGGA,134832,5055.9580,N,00123.7624,W,1,01,2.2,49.4,M,46.9,M,,*6A
t4304,3854
$GPRMC,134833,A,5055.9580,N,00123.7625,W,000.0,084.7,310116,002.9,W*7B
$GPGGA,134833,5055.9580,N,00123.7625,W,1,01,2.2,49.4,M,46.9,M,,*6A
t5296,4853
$GPRMC,134834,A,5055.9580,N,00123.7625,W,000.1,084.7,310116,002.9,W*7D
$GPGGA,134834,5055.9580,N,00123.7625,W,1,01,2.2,49.4,M,46.9,M,,*6D
t6298,5853
$GPRMC,134835,A,5055.9580,N,00123.7625,W,000.1,084.7,310116,002.9,W*7C
$GPGGA,134835,5055.9580,N,00123.7625,W,1,01,2.2,49.4,M,46.9,M,,*6C
t7303,6852
$GPRMC,134836,A,5055.9580,N,00123.7625,W,000.1,084.7,310116,002.9,W*7F
$GPGGA,134836,5055.9580,N,00123.7625,W,1,01,2.2,49.3,M,46.9,M,,*68
t8287,7852
$GPRMC,134837,A,5055.9580,N,00123.7624,W,000.1,084.7,310116,002.9,W*7F
$GPGGA,134837,5055.9580,N,00123.7624,W,1,01,2.2,49.3,M,46.9,M,,*68
t9293,8851
$GPRMC,134838,A,5055.9580,N,00123.7624,W,000.1,084.7,310116,002.9,W*70
$GPGGA,134838,5055.9580,N,00123.7624,W,1,01,2.2,49.3,M,46.9,M,,*67
t10297,9850
$GPRMC,134839,A,5055.9580,N,00123.7623,W,000.0,084.7,310116,002.9,W*77
$GPGGA,134839,5055.9580,N,00123.7623,W,1,01,2.2,49.3,M,46.9,M,,*61
t11283,10850
$GPRMC,134840,A,5055.9580,N,00123.7623,W,000.1,084.7,310116,002.9,W*78
$GPGGA,134840,5055.9580,N,00123.7623,W,1,01,2.2,49.3,M,46.9,M,,*6F
t12299,11849
$GPRMC,134841,A,5055.9580,N,00123.7624,W,000.3,084.7,310116,002.9,W*7C
$GPGGA,134841,5055.9580,N,00123.7624,W,1,01,2.2,49.3,M,46.9,M,,*69
t13395,12849
$GPRMC,134842,A,5055.9580,N,00123.7625,W,000.3,084.7,310116,002.9,W*7E
$GPGGA,134842,5055.9580,N,00123.7625,W,1,01,2.2,49.3,M,46.9,M,,*6B
t14303,13848
$GPRMC,134843,A,5055.9580,N,00123.7626,W,000.3,084.7,310116,002.9,W*7C
$GPGGA,134843,5055.9580,N,00123.7626,W,1,01,2.2,49.3,M,46.9,M,,*69
t15300,14848
$GPRMC,134844,A,5055.9580,N,00123.7628,W,000.2,084.7,310116,002.9,W*74
$GPGGA,134844,5055.9580,N,00123.7628,W,1,01,2.2,49.3,M,46.9,M,,*60
t16296,15847
$GPRMC,134845,A,5055.9580,N,00123.7629,W,000.3,084.7,310116,002.9,W*75
$GPGGA,134845,5055.9580,N,00123.7629,W,1,01,2.2,49.3,M,46.9,M,,*60
t17307,16846
$GPRMC,134846,A,5055.9580,N,00123.7630,W,000.3,084.7,310116,002.9,W*7E
$GPGGA,134846,5055.9580,N,00123.7630,W,1,01,2.2,49.3,M,46.9,M,,*6B
t18291,17846
$GPRMC,134847,A,5055.9579,N,00123.7632,W,000.3,084.7,310116,002.9,W*7B
$GPGGA,134847,5055.9579,N,00123.7632,W,1,01,2.2,49.3,M,46.9,M,,*6E
t19298,18846
$GPRMC,134848,A,5055.9579,N,00123.7633,W,000.1,084.7,310116,002.9,W*77
$GPGGA,134848,5055.9579,N,00123.7633,W,1,01,2.2,49.3,M,46.9,M,,*60
t20287,19846
$GPRMC,134849,A,5055.9579,N,00123.7633,W,000.2,084.7,310116,002.9,W*75
$GPGGA,134849,5055.9579,N,00123.7633,W,1,01,2.2,49.3,M,46.9,M,,*61
t21288,20845
$GPRMC,134850,A,5055.9579,N,00123.7634,W,000.1,084.7,310116,002.9,W*79
$GPGGA,134850,5055.9579,N,00123.7634,W,1,01,2.2,49.3,M,46.9,M,,*6E
t22308,21844
$GPRMC,134851,A,5055.9579,N,00123.7635,W,000.2,084.7,310116,002.9,W*7A
$GPGGA,134851,5055.9579,N,00123.7635,W,1,02,1.1,49.3,M,46.9,M,,*6D
t23315,22844
$GPRMC,134852,A,5055.9579,N,00123.7635,W,000.2,084.7,310116,002.9,W*79
$GPGGA,134852,5055.9579,N,00123.7635,W,1,01,2.2,49.2,M,46.9,M,,*6C
t24285,23843
$GPRMC,134853,A,5055.9578,N,00123.7636,W,000.2,084.7,310116,002.9,W*7A
$GPGGA,134853,5055.9578,N,00123.7636,W,1,01,2.2,49.2,M,46.9,M,,*6F
t25285,24843
$GPRMC,134854,A,5055.9578,N,00123.7637,W,000.2,084.7,310116,002.9,W*7C
$GPGGA,134854,5055.9578,N,00123.7637,W,1,02,1.1,49.2,M,46.9,M,,*6A
t26321,25842
$GPRMC,134855,A,5055.9578,N,00123.7637,W,000.0,084.7,310116,002.9,W*7F
$GPGGA,134855,5055.9578,N,00123.7637,W,1,02,1.1,49.2,M,46.9,M,,*6B
t27324,26842
$GPRMC,134856,A,5055.9578,N,00123.7638,W,000.1,084.7,310116,002.9,W*72
$GPGGA,134856,5055.9578,N,00123.7638,W,1,01,2.2,49.2,M,46.9,M,,*64
t28302,27841
$GPRMC,134857,A,5055.9578,N,00123.7638,W,000.1,084.7,310116,002.9,W*73
$GPGGA,134857,5055.9578,N,00123.7638,W,1,02,1.1,49.2,M,46.9,M,,*66
t29403,28840
$GPRMC,134858,A,5055.9578,N,00123.7639,W,000.1,084.7,310116,002.9,W*7D
$GPGGA,134858,5055.9578,N,00123.7639,W,1,01,2.2,49.2,M,46.9,M,,*6B
t30294,29840
$GPRMC,134859,A,5055.9577,N,00123.7639,W,000.1,084.7,310116,002.9,W*73
$GPGGA,134859,5055.9577,N,00123.7639,W,1,01,2.2,49.2,M,46.9,M,,*65
t31292,30839
$GPRMC,134900,A,5055.9577,N,00123.7639,W,000.2,084.7,310116,002.9,W*7D
$GPGGA,134900,5055.9577,N,00123.7639,W,1,01,2.2,49.1,M,46.9,M,,*6B
t32292,31839
$GPRMC,134901,A,5055.9577,N,00123.7640,W,000.3,084.7,310116,002.9,W*73
$GPGGA,134901,5055.9577,N,00123.7640,W,1,01,1.4,49.1,M,46.9,M,,*61
t33295,32838
$GPRMC,134902,A,5055.9577,N,00123.7641,W,000.0,084.7,310116,002.9,W*72
$GPGGA,134902,5055.9577,N,00123.7641,W,1,01,1.4,49.1,M,46.9,M,,*63
t34307,33838
$GPRMC,134903,A,5055.9577,N,00123.7641,W,000.1,084.7,310116,002.9,W*72
$GPGGA,134903,5055.9577,N,00123.7641,W,1,01,1.4,49.1,M,46.9,M,,*62
t35294,34837
$GPRMC,134904,A,5055.9577,N,00123.7641,W,000.1,084.7,310116,002.9,W*75
$GPGGA,134904,5055.9577,N,00123.7641,W,1,02,1.1,49.1,M,46.9,M,,*63
t36311,35836
$GPRMC,134905,A,5055.9577,N,00123.7642,W,000.1,084.7,310116,002.9,W*77
$GPGGA,134905,5055.9577,N,00123.7642,W,1,01,1.4,49.1,M,46.9,M,,*67
t37295,36836
$GPRMC,134906,A,5055.9577,N,00123.7642,W,000.2,084.7,310116,002.9,W*77
$GPGGA,134906,5055.9577,N,00123.7642,W,1,01,1.4,49.1,M,46.9,M,,*64
t38292,37836
$GPRMC,134907,A,5055.9577,N,00123.7643,W,000.2,084.7,310116,002.9,W*77
$GPGGA,134907,5055.9577,N,00123.7643,W,1,01,1.4,49.0,M,46.9,M,,*65
t39289,38836
$GPRMC,134908,A,5055.9576,N,00123.7644,W,000.2,084.7,310116,002.9,W*7E
$GPGGA,134908,5055.9576,N,00123.7644,W,1,02,1.1,49.0,M,46.9,M,,*6A
t40312,39835
$GPRMC,134909,A,5055.9576,N,00123.7645,W,000.3,084.7,310116,002.9,W*7F
$GPGGA,134909,5055.9576,N,00123.7645,W,1,01,1.4,49.0,M,46.9,M,,*6C
t41290,40835
$GPRMC,134910,A,5055.9575,N,00123.7646,W,000.2,084.7,310116,002.9,W*76
$GPGGA,134910,5055.9575,N,00123.7646,W,1,02,1.1,49.0,M,46.9,M,,*62
t42317,41834
$GPRMC,134911,A,5055.9575,N,00123.7647,W,000.1,084.7,310116,002.9,W*75
$GPGGA,134911,5055.9575,N,00123.7647,W,1,01,1.4,49.0,M,46.9,M,,*64
t43291,42833
$GPRMC,134912,A,5055.9575,N,00123.7648,W,000.2,084.7,310116,002.9,W*7A
$GPGGA,134912,5055.9575,N,00123.7648,W,1,02,1.1,49.0,M,46.9,M,,*6E
t44308,43833
$GPRMC,134913,A,5055.9575,N,00123.7648,W,000.1,084.7,310116,002.9,W*78
$GPGGA,134913,5055.9575,N,00123.7648,W,1,01,1.4,49.0,M,46.9,M,,*69
t45290,44832
$GPRMC,134914,A,5055.9575,N,00123.7649,W,000.1,084.7,310116,002.9,W*7E
$GPGGA,134914,5055.9575,N,00123.7649,W,1,01,1.4,48.9,M,46.9,M,,*67
t46295,45832
$GPRMC,134915,A,5055.9575,N,00123.7649,W,000.1,084.7,310116,002.9,W*7F
$GPGGA,134915,5055.9575,N,00123.7649,W,1,01,1.4,48.9,M,46.9,M,,*66
t47289,46831
$GPRMC,134916,A,5055.9575,N,00123.7649,W,000.0,084.7,310116,002.9,W*7D
$GPGGA,134916,5055.9575,N,00123.7649,W,1,01,1.4,48.9,M,46.9,M,,*65
t48287,47831
$GPRMC,134917,A,5055.9575,N,00123.7649,W,000.1,084.7,310116,002.9,W*7D
$GPGGA,134917,5055.9575,N,00123.7649,W,1,01,1.4,48.9,M,46.9,M,,*64
t49287,48830
$GPRMC,134918,A,5055.9575,N,00123.7649,W,000.1,084.7,310116,002.9,W*72
$GPGGA,134918,5055.9575,N,00123.7649,W,1,01,1.4,48.9,M,46.9,M,,*6B
t50278,49829
$GPRMC,134919,A,5055.9576,N,00123.7650,W,000.1,084.7,310116,002.9,W*78
$GPGGA,134919,5055.9576,N,00123.7650,W,1,01,1.4,48.9,M,46.9,M,,*61
t51287,50829
$GPRMC,134920,A,5055.9576,N,00123.7649,W,000.2,084.7,310116,002.9,W*79
$GPGGA,134920,5055.9576,N,00123.7649,W,1,01,1.4,48.9,M,46.9,M,,*63
t52300,51828
$GPRMC,134921,A,5055.9576,N,00123.7648,W,000.2,084.7,310116,002.9,W*79
$GPGGA,134921,5055.9576,N,00123.7648,W,1,01,1.4,48.8,M,46.9,M,,*62
t53291,52828
$GPRMC,134922,A,5055.9576,N,00123.7647,W,000.2,084.7,310116,002.9,W*75
$GPGGA,134922,5055.9576,N,00123.7647,W,1,01,1.4,48.8,M,46.9,M,,*6E
t54283,53827
$GPRMC,134923,A,5055.9576,N,00123.7647,W,000.1,084.7,310116,002.9,W*77
$GPGGA,134923,5055.9576,N,00123.7647,W,1,01,1.4,48.8,M,46.9,M,,*6F
t55283,54827
$GPRMC,134924,A,5055.9577,N,00123.7646,W,000.1,084.7,310116,002.9,W*70
$GPGGA,134924,5055.9577,N,00123.7646,W,1,01,1.4,48.8,M,46.9,M,,*68
t56291,55826
$GPRMC,134925,A,5055.9577,N,00123.7646,W,000.2,084.7,310116,002.9,W*72
$GPGGA,134925,5055.9577,N,00123.7646,W,1,01,1.4,48.8,M,46.9,M,,*69
t57293,56826
$GPRMC,134926,A,5055.9577,N,00123.7645,W,000.2,084.7,310116,002.9,W*72
$GPGGA,134926,5055.9577,N,00123.7645,W,1,01,1.4,48.8,M,46.9,M,,*69
t58294,57826
$GPRMC,134927,A,5055.9577,N,00123.7644,W,000.2,084.7,310116,002.9,W*72
$GPGGA,134927,5055.9577,N,00123.7644,W,1,01,1.4,48.8,M,46.9,M,,*69
t59283,58825
$GPRMC,134928,A,5055.9577,N,00123.7643,W,000.3,084.7,310116,002.9,W*7B
$GPGGA,134928,5055.9577,N,00123.7643,W,1,01,1.4,48.8,M,46.9,M,,*61
t60369,59825
$GPRMC,134929,A,5055.9578,N,00123.7641,W,000.3,084.7,310116,002.9,W*77
$GPGGA,134929,5055.9578,N,00123.7641,W,1,01,1.4,48.7,M,46.9,M,,*62
t61275,60824
$GPRMC,134930,A,5055.9578,N,00123.7640,W,000.2,084.7,310116,002.9,W*7F
$GPGGA,134930,5055.9578,N,00123.7640,W,1,02,1.1,48.7,M,46.9,M,,*6D
t62308,61824
$GPRMC,134931,A,5055.9578,N,00123.7639,W,000.2,084.7,310116,002.9,W*70
$GPGGA,134931,5055.9578,N,00123.7639,W,1,01,1.4,48.7,M,46.9,M,,*64
t63281,62823
$GPRMC,134932,A,5055.9579,N,00123.7638,W,000.1,084.7,310116,002.9,W*70
$GPGGA,134932,5055.9579,N,00123.7638,W,1,02,1.1,48.7,M,46.9,M,,*61
t64301,63822
$GPRMC,134933,A,5055.9579,N,00123.7638,W,000.1,084.7,310116,002.9,W*71
$GPGGA,134933,5055.9579,N,00123.7638,W,1,02,1.1,48.7,M,46.9,M,,*60
t65288,64822
$GPRMC,134934,A,5055.9579,N,00123.7638,W,000.2,084.7,310116,002.9,W*75
$GPGGA,134934,5055.9579,N,00123.7638,W,1,01,1.4,48.7,M,46.9,M,,*61
t66279,65821
$GPRMC,134935,A,5055.9579,N,00123.7637,W,000.3,084.7,310116,002.9,W*7A
$GPGGA,134935,5055.9579,N,00123.7637,W,1,02,1.1,48.7,M,46.9,M,,*69
t67305,66821
$GPRMC,134936,A,5055.9579,N,00123.7636,W,000.1,084.7,310116,002.9,W*7A
$GPGGA,134936,5055.9579,N,00123.7636,W,1,01,1.4,48.7,M,46.9,M,,*6D
t68271,67820
$GPRMC,134937,A,5055.9579,N,00123.7636,W,000.0,084.7,310116,002.9,W*7A
$GPGGA,134937,5055.9579,N,00123.7636,W,1,01,1.4,48.6,M,46.9,M,,*6D
t69269,68819
$GPRMC,134938,A,5055.9579,N,00123.7635,W,000.1,084.7,310116,002.9,W*77
$GPGGA,134938,5055.9579,N,00123.7635,W,1,01,1.4,48.6,M,46.9,M,,*61
t70283,69819
$GPRMC,134939,A,5055.9579,N,00123.7635,W,000.1,084.7,310116,002.9,W*76
$GPGGA,134939,5055.9579,N,00123.7635,W,1,02,1.1,48.6,M,46.9,M,,*66
t71296,70818
$GPRMC,134940,A,5055.9579,N,00123.7635,W,000.1,084.7,310116,002.9,W*78
$GPGGA,134940,5055.9579,N,00123.7635,W,1,01,1.4,48.6,M,46.9,M,,*6E
t72287,71818
$GPRMC,134941,A,5055.9579,N,00123.7635,W,000.1,084.7,310116,002.9,W*79
$GPGGA,134941,5055.9579,N,00123.7635,W,1,01,1.4,48.6,M,46.9,M,,*6F
t73277,72817
$GPRMC,134942,A,5055.9579,N,00123.7634,W,000.2,084.7,310116,002.9,W*78
$GPGGA,134942,5055.9579,N,00123.7634,W,1,01,1.4,48.6,M,46.9,M,,*6D
t74277,73817
$GPRMC,134943,A,5055.9579,N,00123.7633,W,000.2,084.7,310116,002.9,W*7E
$GPGGA,134943,5055.9579,N,00123.7633,W,1,02,1.1,48.6,M,46.9,M,,*6D
t75289,74817
$GPRMC,134944,A,5055.9580,N,00123.7632,W,000.2,084.7,310116,002.9,W*7E
$GPGGA,134944,5055.9580,N,00123.7632,W,1,01,1.4,48.6,M,46.9,M,,*6B
t76281,75816
$GPRMC,134945,A,5055.9580,N,00123.7632,W,000.2,084.7,310116,002.9,W*7F
$GPGGA,134945,5055.9580,N,00123.7632,W,1,01,1.4,48.6,M,46.9,M,,*6A
t77283,76816
$GPRMC,134946,A,5055.9580,N,00123.7631,W,000.2,084.7,310116,002.9,W*7F
$GPGGA,134946,5055.9580,N,00123.7631,W,1,02,1.2,48.6,M,46.9,M,,*6F
t78279,77815
$GPRMC,134947,A,5055.9580,N,00123.7630,W,000.3,084.7,310116,002.9,W*7E
$GPGGA,134947,5055.9580,N,00123.7630,W,1,03,0.9,48.6,M,46.9,M,,*64
t79306,78815
$GPRMC,134948,A,5055.9580,N,00123.7629,W,000.2,084.7,310116,002.9,W*78
$GPGGA,134948,5055.9580,N,00123.7629,W,1,02,1.3,48.5,M,46.9,M,,*6A
t80278,79814
$GPRMC,134949,A,5055.9581,N,00123.7628,W,000.3,084.7,310116,002.9,W*78
$GPGGA,134949,5055.9581,N,00123.7628,W,1,02,1.1,48.5,M,46.9,M,,*69
t81271,80814
$GPRMC,134950,A,5055.9581,N,00123.7626,W,000.3,084.7,310116,002.9,W*7E
$GPGGA,134950,5055.9581,N,00123.7626,W,1,02,1.1,48.5,M,46.9,M,,*6F
t82297,81813
$GPRMC,134951,A,5055.9581,N,00123.7625,W,000.3,084.7,310116,002.9,W*7C
$GPGGA,134951,5055.9581,N,00123.7625,W,1,03,1.0,48.5,M,46.9,M,,*6D
t83294,82812
$GPRMC,134952,A,5055.9581,N,00123.7624,W,000.3,084.7,310116,002.9,W*7E
$GPGGA,134952,5055.9581,N,00123.7624,W,1,02,1.1,48.5,M,46.9,M,,*6F
t84278,83812
$GPRMC,134953,A,5055.9582,N,00123.7622,W,000.3,084.7,310116,002.9,W*7A
$GPGGA,134953,5055.9582,N,00123.7622,W,1,02,1.1,48.5,M,46.9,M,,*6B
t85280,84811
$GPRMC,134954,A,5055.9582,N,00123.7621,W,000.3,084.7,310116,002.9,W*7E
$GPGGA,134954,5055.9582,N,00123.7621,W,1,03,0.9,48.5,M,46.9,M,,*67
t86296,85811
$GPRMC,134955,A,5055.9583,N,00123.7620,W,000.3,084.7,310116,002.9,W*7F
$GPGGA,134955,5055.9583,N,00123.7620,W,1,03,0.9,48.5,M,46.9,M,,*66
t87311,86810
$GPRMC,134956,A,5055.9583,N,00123.7618,W,000.3,084.7,310116,002.9,W*77
$GPGGA,134956,5055.9583,N,00123.7618,W,1,03,0.9,48.5,M,46.9,M,,*6E
t88306,87810
$GPRMC,134957,A,5055.9583,N,00123.7617,W,000.4,084.7,310116,002.9,W*7E
$GPGGA,134957,5055.9583,N,00123.7617,W,1,03,0.9,48.5,M,46.9,M,,*60
t89379,88809
$GPRMC,134958,A,5055.9584,N,00123.7615,W,000.4,084.7,310116,002.9,W*74
$GPGGA,134958,5055.9584,N,00123.7615,W,1,03,0.9,48.5,M,46.9,M,,*6A
t90294,89808
$GPRMC,134959,A,5055.9584,N,00123.7613,W,000.5,084.7,310116,002.9,W*72
$GPGGA,134959,5055.9584,N,00123.7613,W,1,03,0.9,48.5,M,46.9,M,,*6D
t91393,90808
$GPRMC,135000,A,5055.9584,N,00123.7611,W,000.5,084.7,310116,002.9,W*74
$GPGGA,135000,5055.9584,N,00123.7611,W,1,03,0.9,48.5,M,46.9,M,,*6B
t92308,91807
$GPRMC,135001,A,5055.9585,N,00123.7609,W,000.4,084.7,310116,002.9,W*7C
$GPGGA,135001,5055.9585,N,00123.7609,W,1,02,1.1,48.5,M,46.9,M,,*6A
t93282,92807
$GPRMC,135002,A,5055.9585,N,00123.7607,W,000.3,084.7,310116,002.9,W*76
$GPGGA,135002,5055.9585,N,00123.7607,W,1,03,0.9,48.4,M,46.9,M,,*6E
t94299,93807
$GPRMC,135003,A,5055.9585,N,00123.7606,W,000.3,084.7,310116,002.9,W*76
$GPGGA,135003,5055.9585,N,00123.7606,W,1,03,0.9,48.4,M,46.9,M,,*6E
t95285,94807
$GPRMC,135004,A,5055.9585,N,00123.7604,W,000.2,084.7,310116,002.9,W*72
$GPGGA,135004,5055.9585,N,00123.7604,W,1,03,0.9,48.4,M,46.9,M,,*6B
t96285,95806
$GPRMC,135005,A,5055.9586,N,00123.7604,W,000.3,084.7,310116,002.9,W*71
$GPGGA,135005,5055.9586,N,00123.7604,W,1,03,0.9,48.4,M,46.9,M,,*69
t97294,96805
$GPRMC,135006,A,5055.9587,N,00123.7603,W,000.1,084.7,310116,002.9,W*76
$GPGGA,135006,5055.9587,N,00123.7603,W,1,03,1.0,48.4,M,46.9,M,,*64
t98284,97805
$GPRMC,135007,A,5055.9587,N,00123.7603,W,000.1,084.7,310116,002.9,W*77
$GPGGA,135007,5055.9587,N,00123.7603,W,1,03,1.0,48.4,M,46.9,M,,*65
t99277,98804
$GPRMC,135008,A,5055.9587,N,00123.7602,W,000.2,084.7,310116,002.9,W*7A
$GPGGA,135008,5055.9587,N,00123.7602,W,1,03,0.9,48.4,M,46.9,M,,*63
t100298,99804
$GPRMC,135009,A,5055.9588,N,00123.7602,W,000.3,084.7,310116,002.9,W*75
$GPGGA,135009,5055.9588,N,00123.7602,W,1,03,0.9,48.4,M,46.9,M,,*6D
t101294,100803
$GPRMC,135010,A,5055.9588,N,00123.7602,W,000.2,084.7,310116,002.9,W*7C
$GPGGA,135010,5055.9588,N,00123.7602,W,1,03,0.9,48.4,M,46.9,M,,*65
t102300,101803
$GPRMC,135011,A,5055.9589,N,00123.7601,W,000.3,084.7,310116,002.9,W*7E
$GPGGA,135011,5055.9589,N,00123.7601,W,1,03,1.0,48.3,M,46.9,M,,*69
t103273,102802
$GPRMC,135012,A,5055.9589,N,00123.7600,W,000.4,084.7,310116,002.9,W*7B
$GPGGA,135012,5055.9589,N,00123.7600,W,1,03,0.9,48.3,M,46.9,M,,*63
t104293,103801
$GPRMC,135013,A,5055.9589,N,00123.7598,W,000.3,084.7,310116,002.9,W*7F
$GPGGA,135013,5055.9589,N,00123.7598,W,1,03,0.9,48.3,M,46.9,M,,*60
t105285,104801
$GPRMC,135014,A,5055.9590,N,00123.7597,W,000.3,084.7,310116,002.9,W*7F
$GPGGA,135014,5055.9590,N,00123.7597,W,1,03,0.9,48.3,M,46.9,M,,*60
t106291,105800
$GPRMC,135015,A,5055.9590,N,00123.7596,W,000.2,084.7,310116,002.9,W*7E
$GPGGA,135015,5055.9590,N,00123.7596,W,1,03,0.9,48.3,M,46.9,M,,*60
t107289,106800
$GPRMC,135016,A,5055.9590,N,00123.7595,W,000.2,084.7,310116,002.9,W*7E
$GPGGA,135016,5055.9590,N,00123.7595,W,1,03,0.9,48.3,M,46.9,M,,*60
t108280,107799
$GPRMC,135017,A,5055.9591,N,00123.7594,W,000.2,084.7,310116,002.9,W*7F
$GPGGA,135017,5055.9591,N,00123.7594,W,1,03,0.9,48.3,M,46.9,M,,*61
t109288,108798
$GPRMC,135018,A,5055.9591,N,00123.7594,W,000.1,084.7,310116,002.9,W*73
$GPGGA,135018,5055.9591,N,00123.7594,W,1,03,0.9,48.2,M,46.9,M,,*6F
t110281,109798
$GPRMC,135019,A,5055.9592,N,00123.7594,W,000.1,084.7,310116,002.9,W*71
$GPGGA,135019,5055.9592,N,00123.7594,W,1,03,0.9,48.2,M,46.9,M,,*6D
t111281,110797
$GPRMC,135020,A,5055.9592,N,00123.7593,W,000.0,084.7,310116,002.9,W*7D
$GPGGA,135020,5055.9592,N,00123.7593,W,1,03,0.9,48.2,M,46.9,M,,*60
t112301,111797
$GPRMC,135021,A,5055.9592,N,00123.7593,W,000.1,084.7,310116,002.9,W*7D
$GPGGA,135021,5055.9592,N,00123.7593,W,1,03,0.9,48.2,M,46.9,M,,*61
t113287,112797
$GPRMC,135022,A,5055.9592,N,00123.7594,W,000.2,084.7,310116,002.9,W*7A
$GPGGA,135022,5055.9592,N,00123.7594,W,1,03,0.9,48.2,M,46.9,M,,*65
t114287,113797
$GPRMC,135023,A,5055.9592,N,00123.7594,W,000.1,084.7,310116,002.9,W*78
$GPGGA,135023,5055.9592,N,00123.7594,W,1,03,0.9,48.1,M,46.9,M,,*67
t115280,114796
$GPRMC,135024,A,5055.9592,N,00123.7595,W,000.1,084.7,310116,002.9,W*7E
$GPGGA,135024,5055.9592,N,00123.7595,W,1,03,0.9,48.1,M,46.9,M,,*61
t116287,115795
$GPRMC,135025,A,5055.9591,N,00123.7595,W,000.1,084.7,310116,002.9,W*7C
$GPGGA,135025,5055.9591,N,00123.7595,W,1,03,0.9,48.1,M,46.9,M,,*63
t117285,116795
$GPRMC,135026,A,5055.9592,N,00123.7596,W,000.2,084.7,310116,002.9,W*7C
$GPGGA,135026,5055.9592,N,00123.7596,W,1,03,0.9,48.1,M,46.9,M,,*60
t118297,117794
$GPRMC,135027,A,5055.9591,N,00123.7597,W,000.2,084.7,310116,002.9,W*7F
$GPGGA,135027,5055.9591,N,00123.7597,W,1,04,0.9,48.0,M,46.9,M,,*65
t119287,118794
$GPRMC,135028,A,5055.9591,N,00123.7598,W,000.3,084.7,310116,002.9,W*7E
$GPGGA,135028,5055.9591,N,00123.7598,W,1,03,0.9,48.0,M,46.9,M,,*62
t120274,119793
$GPRMC,135029,A,5055.9591,N,00123.7599,W,000.3,084.7,310116,002.9,W*7E
$GPGGA,135029,5055.9591,N,00123.7599,W,1,03,1.0,48.0,M,46.9,M,,*6A
t121284,120793
$GPRMC,135030,A,5055.9591,N,00123.7600,W,000.3,084.7,310116,002.9,W*75
$GPGGA,135030,5055.9591,N,00123.7600,W,1,03,0.9,48.0,M,46.9,M,,*69
t122392,121792
$GPRMC,135031,A,5055.9591,N,00123.7602,W,000.3,084.7,310116,002.9,W*76
$GPGGA,135031,5055.9591,N,00123.7602,W,1,03,0.9,48.0,M,46.9,M,,*6A
t123273,122791
$GPRMC,135032,A,5055.9590,N,00123.7603,W,000.3,084.7,310116,002.9,W*75
$GPGGA,135032,5055.9590,N,00123.7603,W,1,03,0.9,48.0,M,46.9,M,,*69
t124282,123791
$GPRMC,135033,A,5055.9590,N,00123.7604,W,000.4,084.7,310116,002.9,W*74
$GPGGA,135033,5055.9590,N,00123.7604,W,1,03,0.9,48.0,M,46.9,M,,*6F
t125280,124790
$GPRMC,135034,A,5055.9590,N,00123.7606,W,000.4,084.7,310116,002.9,W*71
$GPGGA,135034,5055.9590,N,00123.7606,W,1,03,0.9,47.9,M,46.9,M,,*6C
t126272,125790
$GPRMC,135035,A,5055.9589,N,00123.7608,W,000.3,084.7,310116,002.9,W*71
$GPGGA,135035,5055.9589,N,00123.7608,W,1,03,0.9,47.9,M,46.9,M,,*6B
t127281,126789
$GPRMC,135036,A,5055.9589,N,00123.7609,W,000.3,084.7,310116,002.9,W*73
$GPGGA,135036,5055.9589,N,00123.7609,W,1,03,0.9,47.9,M,46.9,M,,*69
t128272,127789
$GPRMC,135037,A,5055.9588,N,00123.7610,W,000.2,084.7,310116,002.9,W*7A
$GPGGA,135037,5055.9588,N,00123.7610,W,1,03,0.9,47.9,M,46.9,M,,*61
t129274,128788
$GPRMC,135038,A,5055.9588,N,00123.7611,W,000.4,084.7,310116,002.9,W*72
$GPGGA,135038,5055.9588,N,00123.7611,W,1,03,0.9,47.9,M,46.9,M,,*6F
t130286,129787
$GPRMC,135039,A,5055.9588,N,00123.7613,W,000.2,084.7,310116,002.9,W*77
$GPGGA,135039,5055.9588,N,00123.7613,W,1,03,0.9,47.8,M,46.9,M,,*6D
t131269,130787
$GPRMC,135040,A,5055.9588,N,00123.7614,W,000.2,084.7,310116,002.9,W*7E
$GPGGA,135040,5055.9588,N,00123.7614,W,1,03,0.9,47.8,M,46.9,M,,*64
t132293,131787
$GPRMC,135041,A,5055.9588,N,00123.7615,W,000.2,084.7,310116,002.9,W*7E
$GPGGA,135041,5055.9588,N,00123.7615,W,1,03,0.9,47.8,M,46.9,M,,*64
t133279,132787
$GPRMC,135042,A,5055.9589,N,00123.7615,W,000.2,084.7,310116,002.9,W*7C
$GPGGA,135042,5055.9589,N,00123.7615,W,1,03,0.9,47.8,M,46.9,M,,*66
t134277,133786
$GPRMC,135043,A,5055.9589,N,00123.7616,W,000.2,084.7,310116,002.9,W*7E
$GPGGA,135043,5055.9589,N,00123.7616,W,1,03,0.9,47.8,M,46.9,M,,*64
t135281,134786
$GPRMC,135044,A,5055.9589,N,00123.7617,W,000.3,084.7,310116,002.9,W*79
$GPGGA,135044,5055.9589,N,00123.7617,W,1,04,0.9,47.7,M,46.9,M,,*6A
t136274,135785
$GPRMC,135045,A,5055.9589,N,00123.7619,W,000.4,084.7,310116,002.9,W*71
$GPGGA,135045,5055.9589,N,00123.7619,W,1,04,0.9,47.7,M,46.9,M,,*65
t137282,136784
$GPRMC,135046,A,5055.9590,N,00123.7621,W,000.4,084.7,310116,002.9,W*71
$GPGGA,135046,5055.9590,N,00123.7621,W,1,04,0.9,47.7,M,46.9,M,,*65
t138266,137784
$GPRMC,135047,A,5055.9590,N,00123.7622,W,000.3,084.7,310116,002.9,W*74
$GPGGA,135047,5055.9590,N,00123.7622,W,1,03,0.9,47.7,M,46.9,M,,*60
t139278,138783
$GPRMC,135048,A,5055.9590,N,00123.7624,W,000.2,084.7,310116,002.9,W*7C
$GPGGA,135048,5055.9590,N,00123.7624,W,1,03,0.9,47.7,M,46.9,M,,*69
t140275,139783
$GPRMC,135049,A,5055.9590,N,00123.7625,W,000.2,084.7,310116,002.9,W*7C
$GPGGA,135049,5055.9590,N,00123.7625,W,1,03,0.9,47.7,M,46.9,M,,*69
t141265,140782
$GPRMC,135050,A,5055.9590,N,00123.7625,W,000.1,084.7,310116,002.9,W*77
$GPGGA,135050,5055.9590,N,00123.7625,W,1,03,0.9,47.7,M,46.9,M,,*61
t142292,141782
$GPRMC,135051,A,5055.9590,N,00123.7626,W,000.2,084.7,310116,002.9,W*76
$GPGGA,135051,5055.9590,N,00123.7626,W,1,03,0.9,47.7,M,46.9,M,,*63
t143273,142781
$GPRMC,135052,A,5055.9591,N,00123.7627,W,000.2,084.7,310116,002.9,W*75
$GPGGA,135052,5055.9591,N,00123.7627,W,1,03,0.9,47.7,M,46.9,M,,*60
t144274,143780
$GPRMC,135053,A,5055.9591,N,00123.7627,W,000.2,084.7,310116,002.9,W*74
$GPGGA,135053,5055.9591,N,00123.7627,W,1,03,0.9,47.7,M,46.9,M,,*61
t145262,144780
$GPRMC,135054,A,5055.9591,N,00123.7628,W,000.1,084.7,310116,002.9,W*7F
$GPGGA,135054,5055.9591,N,00123.7628,W,1,03,0.9,47.7,M,46.9,M,,*69
t146272,145779
$GPRMC,135055,A,5055.9591,N,00123.7629,W,000.1,084.7,310116,002.9,W*7F
$GPGGA,135055,5055.9591,N,00123.7629,W,1,03,0.9,47.6,M,46.9,M,,*68
t147277,146779
$GPRMC,135056,A,5055.9591,N,00123.7629,W,000.1,084.7,310116,002.9,W*7C
$GPGGA,135056,5055.9591,N,00123.7629,W,1,03,0.9,47.6,M,46.9,M,,*6B
t148273,147778
$GPRMC,135057,A,5055.9591,N,00123.7629,W,000.1,084.7,310116,002.9,W*7D
$GPGGA,135057,5055.9591,N,00123.7629,W,1,03,0.9,47.6,M,46.9,M,,*6A
t149260,148777
$GPRMC,135058,A,5055.9591,N,00123.7629,W,000.2,084.7,310116,002.9,W*71
$GPGGA,135058,5055.9591,N,00123.7629,W,1,03,0.9,47.6,M,46.9,M,,*65
t150266,149777
$GPRMC,135059,A,5055.9591,N,00123.7629,W,000.1,084.7,310116,002.9,W*73
$GPGGA,135059,5055.9591,N,00123.7629,W,1,03,0.9,47.6,M,46.9,M,,*64
t151268,150777
$GPRMC,135100,A,5055.9591,N,00123.7630,W,000.3,084.7,310116,002.9,W*74
$GPGGA,135100,5055.9591,N,00123.7630,W,1,03,0.9,47.6,M,46.9,M,,*61
t152264,151777
$GPRMC,135101,A,5055.9590,N,00123.7631,W,000.1,084.7,310116,002.9,W*77
$GPGGA,135101,5055.9590,N,00123.7631,W,1,03,0.9,47.6,M,46.9,M,,*60
t153357,152776
$GPRMC,135102,A,5055.9591,N,00123.7631,W,000.1,084.7,310116,002.9,W*75
$GPGGA,135102,5055.9591,N,00123.7631,W,1,03,0.9,47.5,M,46.9,M,,*61
t154266,153776
$GPRMC,135103,A,5055.9591,N,00123.7631,W,000.1,084.7,310116,002.9,W*74
$GPGGA,135103,5055.9591,N,00123.7631,W,1,03,0.9,47.5,M,46.9,M,,*60
t155266,154775
$GPRMC,135104,A,5055.9591,N,00123.7631,W,000.2,084.7,310116,002.9,W*70
$GPGGA,135104,5055.9591,N,00123.7631,W,1,03,0.9,47.5,M,46.9,M,,*67
t156263,155774
$GPRMC,135105,A,5055.9592,N,00123.7631,W,000.1,084.7,310116,002.9,W*71
$GPGGA,135105,5055.9592,N,00123.7631,W,1,03,0.9,47.5,M,46.9,M,,*65
t157264,156774
$GPRMC,135106,A,5055.9592,N,00123.7631,W,000.1,084.7,310116,002.9,W*72
$GPGGA,135106,5055.9592,N,00123.7631,W,1,03,0.9,47.5,M,46.9,M,,*66
t158264,157773
$GPRMC,135107,A,5055.9592,N,00123.7632,W,000.2,084.7,310116,002.9,W*73
$GPGGA,135107,5055.9592,N,00123.7632,W,1,03,0.9,47.5,M,46.9,M,,*64
t159256,158773
$GPRMC,135108,A,5055.9593,N,00123.7632,W,000.2,084.7,310116,002.9,W*7D
$GPGGA,135108,5055.9593,N,00123.7632,W,1,03,0.9,47.5,M,46.9,M,,*6A
t160269,159772
$GPRMC,135109,A,5055.9593,N,00123.7633,W,000.1,084.7,310116,002.9,W*7E
$GPGGA,135109,5055.9593,N,00123.7633,W,1,03,0.9,47.4,M,46.9,M,,*6B
t161262,160772
$GPRMC,135110,A,5055.9593,N,00123.7633,W,000.0,084.7,310116,002.9,W*77
$GPGGA,135110,5055.9593,N,00123.7633,W,1,03,0.9,47.4,M,46.9,M,,*63
t162268,161771
$GPRMC,135111,A,5055.9593,N,00123.7633,W,000.2,084.7,310116,002.9,W*74
$GPGGA,135111,5055.9593,N,00123.7633,W,1,03,0.9,47.4,M,46.9,M,,*62
t163257,162770
$GPRMC,135112,A,5055.9594,N,00123.7634,W,000.1,084.7,310116,002.9,W*74
$GPGGA,135112,5055.9594,N,00123.7634,W,1,03,0.9,47.4,M,46.9,M,,*61
t164260,163770
$GPRMC,135113,A,5055.9594,N,00123.7634,W,000.2,084.7,310116,002.9,W*76
$GPGGA,135113,5055.9594,N,00123.7634,W,1,03,0.9,47.4,M,46.9,M,,*60
t165357,164769
$GPRMC,135114,A,5055.9594,N,00123.7634,W,000.2,084.7,310116,002.9,W*71
$GPGGA,135114,5055.9594,N,00123.7634,W,1,03,0.9,47.4,M,46.9,M,,*67
t166255,165769
$GPRMC,135115,A,5055.9595,N,00123.7635,W,000.2,084.7,310116,002.9,W*70
$GPGGA,135115,5055.9595,N,00123.7635,W,1,03,0.9,47.4,M,46.9,M,,*66
t167260,166768
$GPRMC,135116,A,5055.9595,N,00123.7636,W,000.2,084.7,310116,002.9,W*70
$GPGGA,135116,5055.9595,N,00123.7636,W,1,04,0.9,47.3,M,46.9,M,,*66
t168263,167768
$GPRMC,135117,A,5055.9595,N,00123.7637,W,000.2,084.7,310116,002.9,W*70
$GPGGA,135117,5055.9595,N,00123.7637,W,1,03,0.9,47.3,M,46.9,M,,*61
t169252,168768
$GPRMC,135118,A,5055.9595,N,00123.7638,W,000.3,084.7,310116,002.9,W*71
$GPGGA,135118,5055.9595,N,00123.7638,W,1,03,0.9,47.3,M,46.9,M,,*61
t170252,169767
$GPRMC,135119,A,5055.9595,N,00123.7639,W,000.2,084.7,310116,002.9,W*70
$GPGGA,135119,5055.9595,N,00123.7639,W,1,03,0.9,47.3,M,46.9,M,,*61
t171251,170767
$GPRMC,135120,A,5055.9596,N,00123.7640,W,000.2,084.7,310116,002.9,W*77
$GPGGA,135120,5055.9596,N,00123.7640,W,1,03,0.9,47.3,M,46.9,M,,*66
t172276,171766
$GPRMC,135121,A,5055.9596,N,00123.7641,W,000.1,084.7,310116,002.9,W*74
$GPGGA,135121,5055.9596,N,00123.7641,W,1,03,0.9,47.3,M,46.9,M,,*66
t173250,172766
$GPRMC,135122,A,5055.9596,N,00123.7641,W,000.0,084.7,310116,002.9,W*76
$GPGGA,135122,5055.9596,N,00123.7641,W,1,03,1.0,47.3,M,46.9,M,,*6D
t174253,173765
$GPRMC,135123,A,5055.9596,N,00123.7641,W,000.2,084.7,310116,002.9,W*75
$GPGGA,135123,5055.9596,N,00123.7641,W,1,03,1.1,47.2,M,46.9,M,,*6C
t175246,174765
$GPRMC,135124,A,5055.9596,N,00123.7642,W,000.1,084.7,310116,002.9,W*72
$GPGGA,135124,5055.9596,N,00123.7642,W,1,03,1.0,47.2,M,46.9,M,,*69
t176266,175764
$GPRMC,135125,A,5055.9596,N,00123.7642,W,000.1,084.7,310116,002.9,W*73
$GPGGA,135125,5055.9596,N,00123.7642,W,1,03,0.9,47.2,M,46.9,M,,*60
t177263,176763
$GPRMC,135126,A,5055.9597,N,00123.7643,W,000.2,084.7,310116,002.9,W*73
$GPGGA,135126,5055.9597,N,00123.7643,W,1,03,0.9,47.2,M,46.9,M,,*63
t178252,177763
$GPRMC,135127,A,5055.9597,N,00123.7643,W,000.2,084.7,310116,002.9,W*72
$GPGGA,135127,5055.9597,N,00123.7643,W,1,03,0.9,47.2,M,46.9,M,,*62
t179253,178762
$GPRMC,135128,A,5055.9597,N,00123.7644,W,000.2,084.7,310116,002.9,W*7A
$GPGGA,135128,5055.9597,N,00123.7644,W,1,03,0.9,47.2,M,46.9,M,,*6A
t180242,179762
$GPRMC,135129,A,5055.9598,N,00123.7645,W,000.1,084.7,310116,002.9,W*76
$GPGGA,135129,5055.9598,N,00123.7645,W,1,03,0.9,47.2,M,46.9,M,,*65
t181252,180761
$GPRMC,135130,A,5055.9598,N,00123.7645,W,000.2,084.7,310116,002.9,W*7D
$GPGGA,135130,5055.9598,N,00123.7645,W,1,03,0.9,47.2,M,46.9,M,,*6D
t182260,181761
$GPRMC,135131,A,5055.9598,N,00123.7646,W,000.1,084.7,310116,002.9,W*7C
$GPGGA,135131,5055.9598,N,00123.7646,W,1,03,0.9,47.2,M,46.9,M,,*6F
t183242,182760
$GPRMC,135132,A,5055.9598,N,00123.7646,W,000.1,084.7,310116,002.9,W*7F
$GPGGA,135132,5055.9598,N,00123.7646,W,1,03,0.9,47.2,M,46.9,M,,*6C
t184352,183759
$GPRMC,135133,A,5055.9599,N,00123.7646,W,000.1,084.7,310116,002.9,W*7F
$GPGGA,135133,5055.9599,N,00123.7646,W,1,03,0.9,47.2,M,46.9,M,,*6C
t185250,184759
$GPRMC,135134,A,5055.9599,N,00123.7646,W,000.1,084.7,310116,002.9,W*78
$GPGGA,135134,5055.9599,N,00123.7646,W,1,03,0.9,47.2,M,46.9,M,,*6B
t186248,185758
$GPRMC,135135,A,5055.9599,N,00123.7646,W,000.2,084.7,310116,002.9,W*7A
$GPGGA,135135,5055.9599,N,00123.7646,W,1,03,0.9,47.2,M,46.9,M,,*6A
t187257,186758
$GPRMC,135136,A,5055.9600,N,00123.7646,W,000.2,084.7,310116,002.9,W*7A
$GPGGA,135136,5055.9600,N,00123.7646,W,1,03,0.9,47.1,M,46.9,M,,*69
t188239,187758
$GPRMC,135137,A,5055.9600,N,00123.7646,W,000.1,084.7,310116,002.9,W*78
$GPGGA,135137,5055.9600,N,00123.7646,W,1,03,0.9,47.1,M,46.9,M,,*68
t189246,188758
$GPRMC,135138,A,5055.9600,N,00123.7645,W,000.1,084.7,310116,002.9,W*74
$GPGGA,135138,5055.9600,N,00123.7645,W,1,03,0.9,47.1,M,46.9,M,,*64
t190252,189757
$GPRMC,135139,A,5055.9601,N,00123.7645,W,000.2,084.7,310116,002.9,W*77
$GPGGA,135139,5055.9601,N,00123.7645,W,1,03,0.9,47.1,M,46.9,M,,*64
t191238,190756
$GPRMC,135140,A,5055.9601,N,00123.7644,W,000.2,084.7,310116,002.9,W*78
$GPGGA,135140,5055.9601,N,00123.7644,W,1,03,0.9,47.1,M,46.9,M,,*6B
t192246,191756
$GPRMC,135141,A,5055.9601,N,00123.7643,W,000.2,084.7,310116,002.9,W*7E
$GPGGA,135141,5055.9601,N,00123.7643,W,1,03,0.9,47.1,M,46.9,M,,*6D
t193246,192755
$GPRMC,135142,A,5055.9601,N,00123.7642,W,000.3,084.7,310116,002.9,W*7D
$GPGGA,135142,5055.9601,N,00123.7642,W,1,03,0.9,47.1,M,46.9,M,,*6F
t194243,193755
$GPRMC,135143,A,5055.9602,N,00123.7641,W,000.3,084.7,310116,002.9,W*7C
$GPGGA,135143,5055.9602,N,00123.7641,W,1,03,0.9,47.1,M,46.9,M,,*6E
t195251,194754
$GPRMC,135144,A,5055.9602,N,00123.7639,W,000.3,084.7,310116,002.9,W*74
$GPGGA,135144,5055.9602,N,00123.7639,W,1,03,0.9,47.1,M,46.9,M,,*66
t196249,195753
$GPRMC,135145,A,5055.9602,N,00123.7638,W,000.3,084.7,310116,002.9,W*74
$GPGGA,135145,5055.9602,N,00123.7638,W,1,03,0.9,47.1,M,46.9,M,,*66
t197246,196753
$GPRMC,135146,A,5055.9603,N,00123.7637,W,000.2,084.7,310116,002.9,W*78
$GPGGA,135146,5055.9603,N,00123.7637,W,1,03,0.9,47.1,M,46.9,M,,*6B
t198251,197752
$GPRMC,135147,A,5055.9603,N,00123.7636,W,000.2,084.7,310116,002.9,W*78
$GPGGA,135147,5055.9603,N,00123.7636,W,1,03,0.9,47.1,M,46.9,M,,*6B
t199242,198752
$GPRMC,135148,A,5055.9603,N,00123.7635,W,000.2,084.7,310116,002.9,W*74
$GPGGA,135148,5055.9603,N,00123.7635,W,1,03,0.9,47.1,M,46.9,M,,*67
t200244,199751
$GPRMC,135149,A,5055.9604,N,00123.7635,W,000.2,084.7,310116,002.9,W*72
$GPGGA,135149,5055.9604,N,00123.7635,W,1,03,0.9,47.1,M,46.9,M,,*61
t201234,200751
$GPRMC,135150,A,5055.9604,N,00123.7634,W,000.2,084.7,310116,002.9,W*7B
$GPGGA,135150,5055.9604,N,00123.7634,W,1,03,0.9,47.1,M,46.9,M,,*68
t202260,201750
$GPRMC,135151,A,5055.9604,N,00123.7634,W,000.3,084.7,310116,002.9,W*7B
$GPGGA,135151,5055.9604,N,00123.7634,W,1,03,0.9,47.1,M,46.9,M,,*69
t203246,202749
$GPRMC,135152,A,5055.9605,N,00123.7632,W,000.3,084.7,310116,002.9,W*7F
$GPGGA,135152,5055.9605,N,00123.7632,W,1,03,1.0,47.1,M,46.9,M,,*65
t204243,203749
$GPRMC,135153,A,5055.9605,N,00123.7631,W,000.2,084.7,310116,002.9,W*7C
$GPGGA,135153,5055.9605,N,00123.7631,W,1,03,0.9,47.1,M,46.9,M,,*6F
t205239,204748
$GPRMC,135154,A,5055.9605,N,00123.7631,W,000.1,084.7,310116,002.9,W*78
$GPGGA,135154,5055.9605,N,00123.7631,W,1,03,0.9,47.1,M,46.9,M,,*68
t206244,205748
$GPRMC,135155,A,5055.9605,N,00123.7630,W,000.1,084.7,310116,002.9,W*78
$GPGGA,135155,5055.9605,N,00123.7630,W,1,03,0.9,47.1,M,46.9,M,,*68
t207246,206748
$GPRMC,135156,A,5055.9605,N,00123.7630,W,000.1,084.7,310116,002.9,W*7B
$GPGGA,135156,5055.9605,N,00123.7630,W,1,03,0.9,47.1,M,46.9,M,,*6B
t208244,207748
$GPRMC,135157,A,5055.9605,N,00123.7631,W,000.2,084.7,310116,002.9,W*78
$GPGGA,135157,5055.9605,N,00123.7631,W,1,03,0.9,47.1,M,46.9,M,,*6B
t209228,208747
$GPRMC,135158,A,5055.9605,N,00123.7631,W,000.1,084.7,310116,002.9,W*74
$GPGGA,135158,5055.9605,N,00123.7631,W,1,03,0.9,47.1,M,46.9,M,,*64
t210237,209746
$GPRMC,135159,A,5055.9604,N,00123.7631,W,000.0,084.7,310116,002.9,W*75
$GPGGA,135159,5055.9604,N,00123.7631,W,1,03,0.9,47.1,M,46.9,M,,*64
t211234,210746
$GPRMC,135200,A,5055.9604,N,00123.7631,W,000.1,084.7,310116,002.9,W*7B
$GPGGA,135200,5055.9604,N,00123.7631,W,1,03,0.9,47.1,M,46.9,M,,*6B
t212235,211745
$GPRMC,135201,A,5055.9604,N,00123.7631,W,000.1,084.7,310116,002.9,W*7A
$GPGGA,135201,5055.9604,N,00123.7631,W,1,03,0.9,47.1,M,46.9,M,,*6A
t213228,212745
$GPRMC,135202,A,5055.9604,N,00123.7631,W,000.1,084.7,310116,002.9,W*79
$GPGGA,135202,5055.9604,N,00123.7631,W,1,03,0.9,47.1,M,46.9,M,,*69
t214246,213744
$GPRMC,135203,A,5055.9605,N,00123.7631,W,000.1,084.7,310116,002.9,W*79
$GPGGA,135203,5055.9605,N,00123.7631,W,1,03,0.9,47.1,M,46.9,M,,*69
t215321,214744
$GPRMC,135204,A,5055.9605,N,00123.7631,W,000.1,084.7,310116,002.9,W*7E
$GPGGA,135204,5055.9605,N,00123.7631,W,1,03,0.9,47.1,M,46.9,M,,*6E
t216232,215743
$GPRMC,135205,A,5055.9605,N,00123.7630,W,000.1,084.7,310116,002.9,W*7E
$GPGGA,135205,5055.9605,N,00123.7630,W,1,03,0.9,47.1,M,46.9,M,,*6E
t217248,216742
$GPRMC,135206,A,5055.9605,N,00123.7631,W,000.1,084.7,310116,002.9,W*7C
$GPGGA,135206,5055.9605,N,00123.7631,W,1,03,0.9,47.1,M,46.9,M,,*6C
t218232,217742
$GPRMC,135207,A,5055.9605,N,00123.7630,W,000.1,084.7,310116,002.9,W*7C
$GPGGA,135207,5055.9605,N,00123.7630,W,1,03,0.9,47.1,M,46.9,M,,*6C
t219231,218741
$GPRMC,135208,A,5055.9606,N,00123.7631,W,000.2,084.7,310116,002.9,W*72
$GPGGA,135208,5055.9606,N,00123.7631,W,1,03,0.9,47.1,M,46.9,M,,*61
t220226,219741
$GPRMC,135209,A,5055.9606,N,00123.7631,W,000.1,084.7,310116,002.9,W*70
$GPGGA,135209,5055.9606,N,00123.7631,W,1,03,0.9,47.1,M,46.9,M,,*60
t221229,220740
$GPRMC,135210,A,5055.9606,N,00123.7632,W,000.1,084.7,310116,002.9,W*7B
$GPGGA,135210,5055.9606,N,00123.7632,W,1,03,0.9,47.1,M,46.9,M,,*6B
t222239,221740
$GPRMC,135211,A,5055.9606,N,00123.7631,W,000.1,084.7,310116,002.9,W*79
$GPGGA,135211,5055.9606,N,00123.7631,W,1,03,0.9,47.1,M,46.9,M,,*69
t223228,222739
$GPRMC,135212,A,5055.9606,N,00123.7631,W,000.1,084.7,310116,002.9,W*7A
$GPGGA,135212,5055.9606,N,00123.7631,W,1,03,0.9,47.1,M,46.9,M,,*6A
t224229,223738
$GPRMC,135213,A,5055.9606,N,00123.7631,W,000.1,084.7,310116,002.9,W*7B
$GPGGA,135213,5055.9606,N,00123.7631,W,1,03,0.9,47.1,M,46.9,M,,*6B
t225236,224738
$GPRMC,135214,A,5055.9605,N,00123.7630,W,000.1,084.7,310116,002.9,W*7E
$GPGGA,135214,5055.9605,N,00123.7630,W,1,03,0.9,47.1,M,46.9,M,,*6E
t226234,225738
$GPRMC,135215,A,5055.9605,N,00123.7630,W,000.2,084.7,310116,002.9,W*7C
$GPGGA,135215,5055.9605,N,00123.7630,W,1,03,0.9,47.1,M,46.9,M,,*6F
t227236,226738
$GPRMC,135216,A,5055.9606,N,00123.7629,W,000.3,084.7,310116,002.9,W*75
$GPGGA,135216,5055.9606,N,00123.7629,W,1,03,0.9,47.1,M,46.9,M,,*67
t228229,227737
$GPRMC,135217,A,5055.9606,N,00123.7628,W,000.3,084.7,310116,002.9,W*75
$GPGGA,135217,5055.9606,N,00123.7628,W,1,03,0.9,47.1,M,46.9,M,,*67
t229227,228737
$GPRMC,135218,A,5055.9606,N,00123.7626,W,000.4,084.7,310116,002.9,W*73
$GPGGA,135218,5055.9606,N,00123.7626,W,1,03,0.9,47.1,M,46.9,M,,*66
t230219,229736
$GPRMC,135219,A,5055.9607,N,00123.7625,W,000.3,084.7,310116,002.9,W*77
$GPGGA,135219,5055.9607,N,00123.7625,W,1,03,0.9,47.1,M,46.9,M,,*65
t231227,230735
$GPRMC,135220,A,5055.9607,N,00123.7624,W,000.3,084.7,310116,002.9,W*7C
$GPGGA,135220,5055.9607,N,00123.7624,W,1,03,0.9,47.1,M,46.9,M,,*6E
t232237,231735
$GPRMC,135221,A,5055.9608,N,00123.7623,W,000.1,084.7,310116,002.9,W*77
$GPGGA,135221,5055.9608,N,00123.7623,W,1,03,0.9,47.1,M,46.9,M,,*67
t233222,232734
$GPRMC,135222,A,5055.9608,N,00123.7622,W,000.2,084.7,310116,002.9,W*76
$GPGGA,135222,5055.9608,N,00123.7622,W,1,03,0.9,47.1,M,46.9,M,,*65
t234215,233734
$GPRMC,135223,A,5055.9608,N,00123.7621,W,000.3,084.7,310116,002.9,W*75
$GPGGA,135223,5055.9608,N,00123.7621,W,1,03,0.9,47.1,M,46.9,M,,*67
t235214,234733
$GPRMC,135224,A,5055.9608,N,00123.7620,W,000.2,084.7,310116,002.9,W*72
$GPGGA,135224,5055.9608,N,00123.7620,W,1,03,0.9,47.1,M,46.9,M,,*61
t236222,235732
$GPRMC,135225,A,5055.9608,N,00123.7619,W,000.1,084.7,310116,002.9,W*7A
$GPGGA,135225,5055.9608,N,00123.7619,W,1,03,0.9,47.1,M,46.9,M,,*6A
t237232,236732
$GPRMC,135226,A,5055.9608,N,00123.7618,W,000.1,084.7,310116,002.9,W*78
$GPGGA,135226,5055.9608,N,00123.7618,W,1,03,0.9,47.1,M,46.9,M,,*68
t238231,237731
$GPRMC,135227,A,5055.9608,N,00123.7619,W,000.2,084.7,310116,002.9,W*7B
$GPGGA,135227,5055.9608,N,00123.7619,W,1,03,0.9,47.1,M,46.9,M,,*68
t239222,238731
$GPRMC,135228,A,5055.9608,N,00123.7619,W,000.2,084.7,310116,002.9,W*74
$GPGGA,135228,5055.9608,N,00123.7619,W,1,03,0.9,47.1,M,46.9,M,,*67
t240222,239730
$GPRMC,135229,A,5055.9608,N,00123.7620,W,000.2,084.7,310116,002.9,W*7F
$GPGGA,135229,5055.9608,N,00123.7620,W,1,03,0.9,47.1,M,46.9,M,,*6C
t241326,240730
$GPRMC,135230,A,5055.9608,N,00123.7621,W,000.4,084.7,310116,002.9,W*70
$GPGGA,135230,5055.9608,N,00123.7621,W,1,03,0.9,47.1,M,46.9,M,,*65
t242222,241729
$GPRMC,135231,A,5055.9608,N,00123.7623,W,000.3,084.7,310116,002.9,W*74
$GPGGA,135231,5055.9608,N,00123.7623,W,1,03,0.9,47.1,M,46.9,M,,*66
t243220,242728
$GPRMC,135232,A,5055.9608,N,00123.7624,W,000.2,084.7,310116,002.9,W*71
$GPGGA,135232,5055.9608,N,00123.7624,W,1,02,1.1,47.1,M,46.9,M,,*6A
t244219,243729
$GPRMC,135233,A,5055.9608,N,00123.7625,W,000.1,084.7,310116,002.9,W*72
$GPGGA,135233,5055.9608,N,00123.7625,W,1,02,1.1,47.1,M,46.9,M,,*6A
t245206,244728
$GPRMC,135234,A,5055.9608,N,00123.7625,W,000.2,084.7,310116,002.9,W*76
$GPGGA,135234,5055.9608,N,00123.7625,W,1,03,1.0,47.1,M,46.9,M,,*6D
t246301,245728
$GPRMC,135235,A,5055.9607,N,00123.7625,W,000.1,084.7,310116,002.9,W*7B
$GPGGA,135235,5055.9607,N,00123.7625,W,1,02,1.1,47.1,M,46.9,M,,*63
t247212,246727
$GPRMC,135236,A,5055.9607,N,00123.7625,W,000.2,084.7,310116,002.9,W*7B
$GPGGA,135236,5055.9607,N,00123.7625,W,1,02,1.1,47.1,M,46.9,M,,*60
t248200,247727
$GPRMC,135237,A,5055.9607,N,00123.7625,W,000.1,084.7,310116,002.9,W*79
$GPGGA,135237,5055.9607,N,00123.7625,W,1,02,1.1,47.0,M,46.9,M,,*60
t249201,248726
$GPRMC,135238,A,5055.9607,N,00123.7625,W,000.1,084.7,310116,002.9,W*76
$GPGGA,135238,5055.9607,N,00123.7625,W,1,02,1.1,47.0,M,46.9,M,,*6F
t250206,249725
$GPRMC,135239,A,5055.9607,N,00123.7624,W,000.1,084.7,310116,002.9,W*76
$GPGGA,135239,5055.9607,N,00123.7624,W,1,03,1.0,47.0,M,46.9,M,,*6F
t251194,250725
$GPRMC,135240,A,5055.9607,N,00123.7624,W,000.1,084.7,310116,002.9,W*78
$GPGGA,135240,5055.9607,N,00123.7624,W,1,02,1.1,47.0,M,46.9,M,,*61
t252213,251724
$GPRMC,135241,A,5055.9607,N,00123.7623,W,000.3,084.7,310116,002.9,W*7C
$GPGGA,135241,5055.9607,N,00123.7623,W,1,02,1.1,47.0,M,46.9,M,,*67
t253201,252724
$GPRMC,135242,A,5055.9607,N,00123.7622,W,000.4,084.7,310116,002.9,W*79
$GPGGA,135242,5055.9607,N,00123.7622,W,1,02,1.1,47.0,M,46.9,M,,*65
t254202,253723
$GPRMC,135243,A,5055.9607,N,00123.7621,W,000.3,084.7,310116,002.9,W*7C
$GPGGA,135243,5055.9607,N,00123.7621,W,1,02,1.1,47.0,M,46.9,M,,*67
t255199,254723
$GPRMC,135244,A,5055.9607,N,00123.7619,W,000.3,084.7,310116,002.9,W*70
$GPGGA,135244,5055.9607,N,00123.7619,W,1,02,1.1,47.0,M,46.9,M,,*6B
t256206,255722
$GPRMC,135245,A,5055.9607,N,00123.7618,W,000.1,084.7,310116,002.9,W*72
$GPGGA,135245,5055.9607,N,00123.7618,W,1,03,0.9,47.0,M,46.9,M,,*63
t257214,256721
$GPRMC,135246,A,5055.9608,N,00123.7618,W,000.1,084.7,310116,002.9,W*7E
$GPGGA,135246,5055.9608,N,00123.7618,W,1,03,1.0,47.0,M,46.9,M,,*67
t258200,257721
$GPRMC,135247,A,5055.9608,N,00123.7617,W,000.2,084.7,310116,002.9,W*73
$GPGGA,135247,5055.9608,N,00123.7617,W,1,02,1.1,47.0,M,46.9,M,,*69
t259191,258720
$GPRMC,135248,A,5055.9608,N,00123.7616,W,000.2,084.7,310116,002.9,W*7D
$GPGGA,135248,5055.9608,N,00123.7616,W,1,02,1.1,47.0,M,46.9,M,,*67
t260190,259720
$GPRMC,135249,A,5055.9608,N,00123.7615,W,000.2,084.7,310116,002.9,W*7F
$GPGGA,135249,5055.9608,N,00123.7615,W,1,03,0.9,47.0,M,46.9,M,,*6D
t261213,260719
$GPRMC,135250,A,5055.9609,N,00123.7614,W,000.2,084.7,310116,002.9,W*77
$GPGGA,135250,5055.9609,N,00123.7614,W,1,03,1.0,47.0,M,46.9,M,,*6D
t262213,261719
$GPRMC,135251,A,5055.9609,N,00123.7613,W,000.2,084.7,310116,002.9,W*71
$GPGGA,135251,5055.9609,N,00123.7613,W,1,02,1.1,47.0,M,46.9,M,,*6B
t263194,262719
$GPRMC,135252,A,5055.9609,N,00123.7613,W,000.0,084.7,310116,002.9,W*70
$GPGGA,135252,5055.9609,N,00123.7613,W,1,03,0.9,46.9,M,46.9,M,,*68
t264211,263718
$GPRMC,135253,A,5055.9609,N,00123.7613,W,000.0,084.7,310116,002.9,W*71
$GPGGA,135253,5055.9609,N,00123.7613,W,1,02,1.1,46.9,M,46.9,M,,*61
t265193,264718
$GPRMC,135254,A,5055.9609,N,00123.7613,W,000.0,084.7,310116,002.9,W*76
$GPGGA,135254,5055.9609,N,00123.7613,W,1,03,1.0,46.9,M,46.9,M,,*66
t266202,265717
$GPRMC,135255,A,5055.9609,N,00123.7612,W,000.1,084.7,310116,002.9,W*77
$GPGGA,135255,5055.9609,N,00123.7612,W,1,02,1.1,46.9,M,46.9,M,,*66
t267203,266717
$GPRMC,135256,A,5055.9609,N,00123.7612,W,000.1,084.7,310116,002.9,W*74
$GPGGA,135256,5055.9609,N,00123.7612,W,1,02,1.1,46.9,M,46.9,M,,*65
t268191,267716
$GPRMC,135257,A,5055.9610,N,00123.7612,W,000.1,084.7,310116,002.9,W*7D
$GPGGA,135257,5055.9610,N,00123.7612,W,1,03,1.0,46.9,M,46.9,M,,*6C
t269195,268716
$GPRMC,135258,A,5055.9610,N,00123.7612,W,000.1,084.7,310116,002.9,W*72
$GPGGA,135258,5055.9610,N,00123.7612,W,1,03,1.0,46.9,M,46.9,M,,*63
t270192,269715
$GPRMC,135259,A,5055.9610,N,00123.7612,W,000.1,084.7,310116,002.9,W*73
$GPGGA,135259,5055.9610,N,00123.7612,W,1,03,1.0,46.9,M,46.9,M,,*62
t271184,270714
$GPRMC,135300,A,5055.9610,N,00123.7613,W,000.1,084.7,310116,002.9,W*7F
$GPGGA,135300,5055.9610,N,00123.7613,W,1,03,1.0,46.9,M,46.9,M,,*6E
t272192,271714
$GPRMC,135301,A,5055.9610,N,00123.7612,W,000.2,084.7,310116,002.9,W*7C
$GPGGA,135301,5055.9610,N,00123.7612,W,1,03,1.1,46.9,M,46.9,M,,*6F
t273185,272713
$GPRMC,135302,A,5055.9610,N,00123.7611,W,000.2,084.7,310116,002.9,W*7C
$GPGGA,135302,5055.9610,N,00123.7611,W,1,03,1.0,46.9,M,46.9,M,,*6E
t274202,273713
$GPRMC,135303,A,5055.9610,N,00123.7610,W,000.2,084.7,310116,002.9,W*7C
$GPGGA,135303,5055.9610,N,00123.7610,W,1,03,1.1,46.9,M,46.9,M,,*6F
t275183,274712
$GPRMC,135304,A,5055.9610,N,00123.7610,W,000.2,084.7,310116,002.9,W*7B
$GPGGA,135304,5055.9610,N,00123.7610,W,1,03,1.1,46.8,M,46.9,M,,*69
t276179,275712
$GPRMC,135305,A,5055.9610,N,00123.7609,W,000.1,084.7,310116,002.9,W*71
$GPGGA,135305,5055.9610,N,00123.7609,W,1,02,1.1,46.8,M,46.9,M,,*61
t277291,276711
$GPRMC,135306,A,5055.9610,N,00123.7608,W,000.2,084.7,310116,002.9,W*70
$GPGGA,135306,5055.9610,N,00123.7608,W,1,03,1.0,46.8,M,46.9,M,,*63
t278180,277710
$GPRMC,135307,A,5055.9610,N,00123.7608,W,000.2,084.7,310116,002.9,W*71
$GPGGA,135307,5055.9610,N,00123.7608,W,1,03,1.0,46.8,M,46.9,M,,*62
t279186,278710
$GPRMC,135308,A,5055.9611,N,00123.7607,W,000.2,084.7,310116,002.9,W*70
$GPGGA,135308,5055.9611,N,00123.7607,W,1,02,1.1,46.8,M,46.9,M,,*63
t280183,279709
$GPRMC,135309,A,5055.9611,N,00123.7606,W,000.3,084.7,310116,002.9,W*71
$GPGGA,135309,5055.9611,N,00123.7606,W,1,02,1.1,46.8,M,46.9,M,,*63
t281179,280709
$GPRMC,135310,A,5055.9611,N,00123.7605,W,000.2,084.7,310116,002.9,W*7B
$GPGGA,135310,5055.9611,N,00123.7605,W,1,02,1.1,46.8,M,46.9,M,,*68
t282201,281709
$GPRMC,135311,A,5055.9611,N,00123.7604,W,000.0,084.7,310116,002.9,W*79
$GPGGA,135311,5055.9611,N,00123.7604,W,1,02,1.1,46.8,M,46.9,M,,*68
t283186,282708
$GPRMC,135312,A,5055.9611,N,00123.7604,W,000.1,084.7,310116,002.9,W*7B
$GPGGA,135312,5055.9611,N,00123.7604,W,1,02,1.1,46.8,M,46.9,M,,*6B
t284177,283708
$GPRMC,135313,A,5055.9611,N,00123.7604,W,000.1,084.7,310116,002.9,W*7A
$GPGGA,135313,5055.9611,N,00123.7604,W,1,02,1.1,46.7,M,46.9,M,,*65
t285190,284707
$GPRMC,135314,A,5055.9611,N,00123.7604,W,000.0,084.7,310116,002.9,W*7C
$GPGGA,135314,5055.9611,N,00123.7604,W,1,02,1.1,46.7,M,46.9,M,,*62
t286190,285707
$GPRMC,135315,A,5055.9610,N,00123.7604,W,000.1,084.7,310116,002.9,W*7D
$GPGGA,135315,5055.9610,N,00123.7604,W,1,02,1.1,46.7,M,46.9,M,,*62
t287193,286706
$GPRMC,135316,A,5055.9610,N,00123.7604,W,000.1,084.7,310116,002.9,W*7E
$GPGGA,135316,5055.9610,N,00123.7604,W,1,02,1.1,46.7,M,46.9,M,,*61
t288183,287706
$GPRMC,135317,A,5055.9610,N,00123.7604,W,000.1,084.7,310116,002.9,W*7F
$GPGGA,135317,5055.9610,N,00123.7604,W,1,02,1.1,46.7,M,46.9,M,,*60
t289173,288705
$GPRMC,135318,A,5055.9610,N,00123.7604,W,000.1,084.7,310116,002.9,W*70
$GPGGA,135318,5055.9610,N,00123.7604,W,1,02,1.1,46.7,M,46.9,M,,*6F
t290186,289704
$GPRMC,135319,A,5055.9610,N,00123.7605,W,000.0,084.7,310116,002.9,W*71
$GPGGA,135319,5055.9610,N,00123.7605,W,1,02,1.1,46.7,M,46.9,M,,*6F
t291179,290704
$GPRMC,135320,A,5055.9609,N,00123.7604,W,000.1,084.7,310116,002.9,W*73
$GPGGA,135320,5055.9609,N,00123.7604,W,1,02,1.1,46.7,M,46.9,M,,*6C
t292189,291703
$GPRMC,135321,A,5055.9609,N,00123.7605,W,000.1,084.7,310116,002.9,W*73
$GPGGA,135321,5055.9609,N,00123.7605,W,1,02,1.1,46.7,M,46.9,M,,*6C
t293171,292703
$GPRMC,135322,A,5055.9610,N,00123.7605,W,000.1,084.7,310116,002.9,W*78
$GPGGA,135322,5055.9610,N,00123.7605,W,1,02,1.1,46.6,M,46.9,M,,*66
t294171,293702
$GPRMC,135323,A,5055.9609,N,00123.7605,W,000.2,084.7,310116,002.9,W*72
$GPGGA,135323,5055.9609,N,00123.7605,W,1,02,1.1,46.6,M,46.9,M,,*6F
t295178,294702
$GPRMC,135324,A,5055.9610,N,00123.7606,W,000.1,084.7,310116,002.9,W*7D
$GPGGA,135324,5055.9610,N,00123.7606,W,1,02,1.1,46.6,M,46.9,M,,*63
t296171,295701
$GPRMC,135325,A,5055.9610,N,00123.7606,W,000.1,084.7,310116,002.9,W*7C
$GPGGA,135325,5055.9610,N,00123.7606,W,1,02,1.1,46.6,M,46.9,M,,*62
t297178,296700
$GPRMC,135326,A,5055.9610,N,00123.7607,W,000.2,084.7,310116,002.9,W*7D
$GPGGA,135326,5055.9610,N,00123.7607,W,1,02,1.1,46.6,M,46.9,M,,*60
t298177,297700
$GPRMC,135327,A,5055.9610,N,00123.7608,W,000.1,084.7,310116,002.9,W*70
$GPGGA,135327,5055.9610,N,00123.7608,W,1,02,1.1,46.6,M,46.9,M,,*6E
t299174,298699
$GPRMC,135328,A,5055.9611,N,00123.7608,W,000.0,084.7,310116,002.9,W*7F
$GPGGA,135328,5055.9611,N,00123.7608,W,1,02,1.1,46.6,M,46.9,M,,*60
t300176,299699
$GPRMC,135329,A,5055.9610,N,00123.7608,W,000.1,084.7,310116,002.9,W*7E
$GPGGA,135329,5055.9610,N,00123.7608,W,1,02,1.1,46.6,M,46.9,M,,*60
t301167,300699
$GPRMC,135330,A,5055.9610,N,00123.7608,W,000.2,084.7,310116,002.9,W*75
$GPGGA,135330,5055.9610,N,00123.7608,W,1,03,0.9,46.6,M,46.9,M,,*60
t302193,301699
$GPRMC,135331,A,5055.9610,N,00123.7609,W,000.3,084.7,310116,002.9,W*74
$GPGGA,135331,5055.9610,N,00123.7609,W,1,03,0.9,46.6,M,46.9,M,,*60
t303190,302698
$GPRMC,135332,A,5055.9609,N,00123.7610,W,000.3,084.7,310116,002.9,W*77
$GPGGA,135332,5055.9609,N,00123.7610,W,1,03,0.9,46.6,M,46.9,M,,*63
t304196,303697
$GPRMC,135333,A,5055.9609,N,00123.7611,W,000.2,084.7,310116,002.9,W*76
$GPGGA,135333,5055.9609,N,00123.7611,W,1,02,1.1,46.6,M,46.9,M,,*6B
t305164,304697
$GPRMC,135334,A,5055.9608,N,00123.7612,W,000.1,084.7,310116,002.9,W*70
$GPGGA,135334,5055.9608,N,00123.7612,W,1,02,1.1,46.6,M,46.9,M,,*6E
t306170,305696
$GPRMC,135335,A,5055.9608,N,00123.7613,W,000.1,084.7,310116,002.9,W*70
$GPGGA,135335,5055.9608,N,00123.7613,W,1,02,1.1,46.6,M,46.9,M,,*6E
t307181,306696
$GPRMC,135336,A,5055.9608,N,00123.7612,W,000.1,084.7,310116,002.9,W*72
$GPGGA,135336,5055.9608,N,00123.7612,W,1,02,1.1,46.6,M,46.9,M,,*6C
t308265,307695
$GPRMC,135337,A,5055.9608,N,00123.7613,W,000.2,084.7,310116,002.9,W*71
$GPGGA,135337,5055.9608,N,00123.7613,W,1,02,1.1,46.6,M,46.9,M,,*6C
t309171,308695
$GPRMC,135338,A,5055.9608,N,00123.7613,W,000.1,084.7,310116,002.9,W*7D
$GPGGA,135338,5055.9608,N,00123.7613,W,1,02,1.1,46.5,M,46.9,M,,*60
t310172,309694
$GPRMC,135339,A,5055.9608,N,00123.7614,W,000.1,084.7,310116,002.9,W*7B
$GPGGA,135339,5055.9608,N,00123.7614,W,1,02,1.1,46.5,M,46.9,M,,*66
t311171,310693
$GPRMC,135340,A,5055.9608,N,00123.7613,W,000.1,084.7,310116,002.9,W*72
$GPGGA,135340,5055.9608,N,00123.7613,W,1,03,1.1,46.5,M,46.9,M,,*6E
t312178,311693
$GPRMC,135341,A,5055.9608,N,00123.7613,W,000.1,084.7,310116,002.9,W*73
$GPGGA,135341,5055.9608,N,00123.7613,W,1,02,1.1,46.5,M,46.9,M,,*6E
t313162,312692
$GPRMC,135342,A,5055.9608,N,00123.7612,W,000.1,084.7,310116,002.9,W*71
$GPGGA,135342,5055.9608,N,00123.7612,W,1,02,1.1,46.5,M,46.9,M,,*6C
t314162,313692
$GPRMC,135343,A,5055.9608,N,00123.7612,W,000.1,084.7,310116,002.9,W*70
$GPGGA,135343,5055.9608,N,00123.7612,W,1,02,1.1,46.5,M,46.9,M,,*6D
t315161,314691
$GPRMC,135344,A,5055.9607,N,00123.7612,W,000.2,084.7,310116,002.9,W*7B
$GPGGA,135344,5055.9607,N,00123.7612,W,1,02,1.1,46.5,M,46.9,M,,*65
t316174,315691
$GPRMC,135345,A,5055.9607,N,00123.7612,W,000.2,084.7,310116,002.9,W*7A
$GPGGA,135345,5055.9607,N,00123.7612,W,1,02,1.2,46.5,M,46.9,M,,*67
t317273,316690
$GPRMC,135346,A,5055.9607,N,00123.7612,W,000.1,084.7,310116,002.9,W*7A
$GPGGA,135346,5055.9607,N,00123.7612,W,1,03,1.1,46.5,M,46.9,M,,*66
t318159,317689
$GPRMC,135347,A,5055.9606,N,00123.7611,W,000.1,084.7,310116,002.9,W*79
$GPGGA,135347,5055.9606,N,00123.7611,W,1,02,1.1,46.5,M,46.9,M,,*64
t319159,318689
$GPRMC,135348,A,5055.9606,N,00123.7611,W,000.1,084.7,310116,002.9,W*76
$GPGGA,135348,5055.9606,N,00123.7611,W,1,02,1.1,46.5,M,46.9,M,,*6B
t320157,319689
$GPRMC,135349,A,5055.9606,N,00123.7611,W,000.2,084.7,310116,002.9,W*74
$GPGGA,135349,5055.9606,N,00123.7611,W,1,02,1.1,46.5,M,46.9,M,,*6A
t321164,320689
$GPRMC,135350,A,5055.9605,N,00123.7610,W,000.1,084.7,310116,002.9,W*7D
$GPGGA,135350,5055.9605,N,00123.7610,W,1,02,1.1,46.5,M,46.9,M,,*60
t322176,321688
$GPRMC,135351,A,5055.9605,N,00123.7611,W,000.2,084.7,310116,002.9,W*7E
$GPGGA,135351,5055.9605,N,00123.7611,W,1,02,1.1,46.4,M,46.9,M,,*61
t323158,322688
$GPRMC,135352,A,5055.9605,N,00123.7611,W,000.1,084.7,310116,002.9,W*7E
$GPGGA,135352,5055.9605,N,00123.7611,W,1,02,1.1,46.4,M,46.9,M,,*62
t324165,323687
$GPRMC,135353,A,5055.9604,N,00123.7611,W,000.2,084.7,310116,002.9,W*7D
$GPGGA,135353,5055.9604,N,00123.7611,W,1,03,0.9,46.4,M,46.9,M,,*6A
t325180,324686
$GPRMC,135354,A,5055.9604,N,00123.7612,W,000.1,084.7,310116,002.9,W*7A
$GPGGA,135354,5055.9604,N,00123.7612,W,1,03,0.9,46.4,M,46.9,M,,*6E
t326156,325686
$GPRMC,135355,A,5055.9604,N,00123.7612,W,000.1,084.7,310116,002.9,W*7B
$GPGGA,135355,5055.9604,N,00123.7612,W,1,03,0.9,46.4,M,46.9,M,,*6F
t327171,326685
$GPRMC,135356,A,5055.9604,N,00123.7612,W,000.1,084.7,310116,002.9,W*78
$GPGGA,135356,5055.9604,N,00123.7612,W,1,02,1.1,46.4,M,46.9,M,,*64
t328174,327685
$GPRMC,135357,A,5055.9604,N,00123.7611,W,000.2,084.7,310116,002.9,W*79
$GPGGA,135357,5055.9604,N,00123.7611,W,1,02,1.2,46.4,M,46.9,M,,*65
t329161,328684
$GPRMC,135358,A,5055.9604,N,00123.7610,W,000.2,084.7,310116,002.9,W*77
$GPGGA,135358,5055.9604,N,00123.7610,W,1,02,1.2,46.4,M,46.9,M,,*6B
t330162,329683
$GPRMC,135359,A,5055.9604,N,00123.7609,W,000.3,084.7,310116,002.9,W*7F
$GPGGA,135359,5055.9604,N,00123.7609,W,1,03,1.1,46.4,M,46.9,M,,*60
t331153,330683
$GPRMC,135400,A,5055.9604,N,00123.7608,W,000.3,084.7,310116,002.9,W*75
$GPGGA,135400,5055.9604,N,00123.7608,W,1,02,1.2,46.4,M,46.9,M,,*68
t332169,331682
$GPRMC,135401,A,5055.9603,N,00123.7607,W,000.3,084.7,310116,002.9,W*7C
$GPGGA,135401,5055.9603,N,00123.7607,W,1,02,1.3,46.4,M,46.9,M,,*60
t333148,332682
$GPRMC,135402,A,5055.9603,N,00123.7606,W,000.1,084.7,310116,002.9,W*7C
$GPGGA,135402,5055.9603,N,00123.7606,W,1,03,1.1,46.4,M,46.9,M,,*61
t334158,333681
$GPRMC,135403,A,5055.9603,N,00123.7605,W,000.1,084.7,310116,002.9,W*7E
$GPGGA,135403,5055.9603,N,00123.7605,W,1,02,1.2,46.4,M,46.9,M,,*61
t335157,334681
$GPRMC,135404,A,5055.9603,N,00123.7605,W,000.1,084.7,310116,002.9,W*79
$GPGGA,135404,5055.9603,N,00123.7605,W,1,02,1.2,46.4,M,46.9,M,,*66
t336149,335680
$GPRMC,135405,A,5055.9603,N,00123.7605,W,000.1,084.7,310116,002.9,W*78
$GPGGA,135405,5055.9603,N,00123.7605,W,1,03,0.9,46.4,M,46.9,M,,*6C
t337167,336679
$GPRMC,135406,A,5055.9602,N,00123.7605,W,000.1,084.7,310116,002.9,W*7A
$GPGGA,135406,5055.9602,N,00123.7605,W,1,02,1.2,46.4,M,46.9,M,,*65
t338150,337680
$GPRMC,135407,A,5055.9602,N,00123.7605,W,000.0,084.7,310116,002.9,W*7A
$GPGGA,135407,5055.9602,N,00123.7605,W,1,02,1.1,46.4,M,46.9,M,,*67
t339243,338679
$GPRMC,135408,A,5055.9602,N,00123.7605,W,000.1,084.7,310116,002.9,W*74
$GPGGA,135408,5055.9602,N,00123.7605,W,1,02,1.1,46.3,M,46.9,M,,*6F
t340150,339679
$GPRMC,135409,A,5055.9602,N,00123.7605,W,000.1,084.7,310116,002.9,W*75
$GPGGA,135409,5055.9602,N,00123.7605,W,1,02,1.2,46.3,M,46.9,M,,*6D
t341153,340678
$GPRMC,135410,A,5055.9602,N,00123.7606,W,000.1,084.7,310116,002.9,W*7E
$GPGGA,135410,5055.9602,N,00123.7606,W,1,03,0.9,46.3,M,46.9,M,,*6D
t342164,341678
$GPRMC,135411,A,5055.9602,N,00123.7605,W,000.1,084.7,310116,002.9,W*7C
$GPGGA,135411,5055.9602,N,00123.7605,W,1,02,1.2,46.3,M,46.9,M,,*64
t343146,342677
$GPRMC,135412,A,5055.9602,N,00123.7605,W,000.1,084.7,310116,002.9,W*7F
$GPGGA,135412,5055.9602,N,00123.7605,W,1,02,1.2,46.3,M,46.9,M,,*67
t344151,343676
$GPRMC,135413,A,5055.9601,N,00123.7605,W,000.1,084.7,310116,002.9,W*7D
$GPGGA,135413,5055.9601,N,00123.7605,W,1,03,0.9,46.3,M,46.9,M,,*6E
t345154,344676
$GPRMC,135414,A,5055.9601,N,00123.7605,W,000.1,084.7,310116,002.9,W*7A
$GPGGA,135414,5055.9601,N,00123.7605,W,1,03,1.1,46.3,M,46.9,M,,*60
t346157,345675
$GPRMC,135415,A,5055.9601,N,00123.7605,W,000.0,084.7,310116,002.9,W*7A
$GPGGA,135415,5055.9601,N,00123.7605,W,1,02,1.1,46.3,M,46.9,M,,*60
t347160,346675
$GPRMC,135416,A,5055.9601,N,00123.7605,W,000.1,084.7,310116,002.9,W*78
$GPGGA,135416,5055.9601,N,00123.7605,W,1,02,1.1,46.3,M,46.9,M,,*63
t348150,347674
$GPRMC,135417,A,5055.9601,N,00123.7605,W,000.0,084.7,310116,002.9,W*78
$GPGGA,135417,5055.9601,N,00123.7605,W,1,02,1.1,46.3,M,46.9,M,,*62
t349150,348674
$GPRMC,135418,A,5055.9601,N,00123.7605,W,000.1,084.7,310116,002.9,W*76
$GPGGA,135418,5055.9601,N,00123.7605,W,1,03,0.9,46.3,M,46.9,M,,*65
t350152,349673
$GPRMC,135419,A,5055.9601,N,00123.7604,W,000.1,084.7,310116,002.9,W*76
$GPGGA,135419,5055.9601,N,00123.7604,W,1,03,0.9,46.3,M,46.9,M,,*65
t351151,350672
$GPRMC,135420,A,5055.9601,N,00123.7604,W,000.0,084.7,310116,002.9,W*7D
$GPGGA,135420,5055.9601,N,00123.7604,W,1,03,0.9,46.3,M,46.9,M,,*6F
t352168,351672
$GPRMC,135421,A,5055.9601,N,00123.7604,W,000.2,084.7,310116,002.9,W*7E
$GPGGA,135421,5055.9601,N,00123.7604,W,1,02,1.1,46.3,M,46.9,M,,*66
t353148,352671
$GPRMC,135422,A,5055.9601,N,00123.7603,W,000.2,084.7,310116,002.9,W*7A
$GPGGA,135422,5055.9601,N,00123.7603,W,1,02,1.1,46.3,M,46.9,M,,*62
t354149,353671
$GPRMC,135423,A,5055.9602,N,00123.7603,W,000.1,084.7,310116,002.9,W*7B
$GPGGA,135423,5055.9602,N,00123.7603,W,1,03,0.9,46.3,M,46.9,M,,*68
t355148,354670
$GPRMC,135424,A,5055.9602,N,00123.7603,W,000.1,084.7,310116,002.9,W*7C
$GPGGA,135424,5055.9602,N,00123.7603,W,1,02,0.9,46.3,M,46.9,M,,*6E
t356153,355670
$GPRMC,135425,A,5055.9602,N,00123.7603,W,000.1,084.7,310116,002.9,W*7D
$GPGGA,135425,5055.9602,N,00123.7603,W,1,03,0.9,46.3,M,46.9,M,,*6E
t357153,356670
$GPRMC,135426,A,5055.9602,N,00123.7602,W,000.1,084.7,310116,002.9,W*7F
$GPGGA,135426,5055.9602,N,00123.7602,W,1,02,0.9,46.3,M,46.9,M,,*6D
t358161,357669
$GPRMC,135427,A,5055.9602,N,00123.7603,W,000.2,084.7,310116,002.9,W*7C
$GPGGA,135427,5055.9602,N,00123.7603,W,1,03,1.1,46.3,M,46.9,M,,*65
t359146,358669
$GPRMC,135428,A,5055.9602,N,00123.7603,W,000.1,084.7,310116,002.9,W*70
$GPGGA,135428,5055.9602,N,00123.7603,W,1,02,0.9,46.3,M,46.9,M,,*62
t360145,359668
$GPRMC,135429,A,5055.9602,N,00123.7603,W,000.1,084.7,310116,002.9,W*71
$GPGGA,135429,5055.9602,N,00123.7603,W,1,02,1.1,46.3,M,46.9,M,,*6A
t361145,360668
$GPRMC,135430,A,5055.9601,N,00123.7603,W,000.2,084.7,310116,002.9,W*79
$GPGGA,135430,5055.9601,N,00123.7603,W,1,02,0.9,46.3,M,46.9,M,,*68
t362152,361667
$GPRMC,135431,A,5055.9601,N,00123.7604,W,000.1,084.7,310116,002.9,W*7C
$GPGGA,135431,5055.9601,N,00123.7604,W,1,03,0.9,46.3,M,46.9,M,,*6F
t363145,362667
$GPRMC,135432,A,5055.9601,N,00123.7604,W,000.1,084.7,310116,002.9,W*7F
$GPGGA,135432,5055.9601,N,00123.7604,W,1,03,1.1,46.3,M,46.9,M,,*65
t364154,363666
$GPRMC,135433,A,5055.9600,N,00123.7604,W,000.1,084.7,310116,002.9,W*7F
$GPGGA,135433,5055.9600,N,00123.7604,W,1,02,0.9,46.4,M,46.9,M,,*6A
t365144,364665
$GPRMC,135434,A,5055.9600,N,00123.7604,W,000.1,084.7,310116,002.9,W*78
$GPGGA,135434,5055.9600,N,00123.7604,W,1,03,0.9,46.4,M,46.9,M,,*6C
t366135,365665
$GPRMC,135435,A,5055.9600,N,00123.7604,W,000.1,084.7,310116,002.9,W*79
$GPGGA,135435,5055.9600,N,00123.7604,W,1,03,0.9,46.4,M,46.9,M,,*6D
t367140,366664
$GPRMC,135436,A,5055.9599,N,00123.7604,W,000.0,084.7,310116,002.9,W*78
$GPGGA,135436,5055.9599,N,00123.7604,W,1,02,1.1,46.4,M,46.9,M,,*65
t368144,367664
$GPRMC,135437,A,5055.9599,N,00123.7604,W,000.0,084.7,310116,002.9,W*79
$GPGGA,135437,5055.9599,N,00123.7604,W,1,03,1.1,46.4,M,46.9,M,,*65
t369139,368663
$GPRMC,135438,A,5055.9599,N,00123.7605,W,000.1,084.7,310116,002.9,W*76
$GPGGA,135438,5055.9599,N,00123.7605,W,1,03,1.1,46.4,M,46.9,M,,*6B
t370237,369662
$GPRMC,135439,A,5055.9599,N,00123.7605,W,000.1,084.7,310116,002.9,W*77
$GPGGA,135439,5055.9599,N,00123.7605,W,1,03,0.9,46.4,M,46.9,M,,*63
t371133,370662
$GPRMC,135440,A,5055.9599,N,00123.7605,W,000.2,084.7,310116,002.9,W*7A
$GPGGA,135440,5055.9599,N,00123.7605,W,1,03,0.9,46.4,M,46.9,M,,*6D
t372148,371661
$GPRMC,135441,A,5055.9598,N,00123.7605,W,000.1,084.7,310116,002.9,W*79
$GPGGA,135441,5055.9598,N,00123.7605,W,1,03,1.1,46.4,M,46.9,M,,*64
t373139,372661
$GPRMC,135442,A,5055.9598,N,00123.7606,W,000.2,084.7,310116,002.9,W*7A
$GPGGA,135442,5055.9598,N,00123.7606,W,1,03,0.9,46.4,M,46.9,M,,*6D
t374141,373660
$GPRMC,135443,A,5055.9597,N,00123.7606,W,000.2,084.7,310116,002.9,W*74
$GPGGA,135443,5055.9597,N,00123.7606,W,1,03,0.9,46.4,M,46.9,M,,*63
t375136,374660
$GPRMC,135444,A,5055.9597,N,00123.7607,W,000.2,084.7,310116,002.9,W*72
$GPGGA,135444,5055.9597,N,00123.7607,W,1,03,0.9,46.4,M,46.9,M,,*65
t376140,375660
$GPRMC,135445,A,5055.9596,N,00123.7607,W,000.1,084.7,310116,002.9,W*71
$GPGGA,135445,5055.9596,N,00123.7607,W,1,03,0.9,46.4,M,46.9,M,,*65
t377146,376659
$GPRMC,135446,A,5055.9596,N,00123.7607,W,000.1,084.7,310116,002.9,W*72
$GPGGA,135446,5055.9596,N,00123.7607,W,1,04,1.0,46.4,M,46.9,M,,*69
t378139,377659
$GPRMC,135447,A,5055.9596,N,00123.7607,W,000.1,084.7,310116,002.9,W*73
$GPGGA,135447,5055.9596,N,00123.7607,W,1,02,1.1,46.4,M,46.9,M,,*6F
t379140,378658
$GPRMC,135448,A,5055.9596,N,00123.7607,W,000.1,084.7,310116,002.9,W*7C
$GPGGA,135448,5055.9596,N,00123.7607,W,1,03,0.9,46.5,M,46.9,M,,*69
t380140,379658
$GPRMC,135449,A,5055.9595,N,00123.7607,W,000.1,084.7,310116,002.9,W*7E
$GPGGA,135449,5055.9595,N,00123.7607,W,1,03,0.9,46.5,M,46.9,M,,*6B
t381129,380657
$GPRMC,135450,A,5055.9595,N,00123.7607,W,000.3,084.7,310116,002.9,W*74
$GPGGA,135450,5055.9595,N,00123.7607,W,1,03,0.9,46.5,M,46.9,M,,*63
t382156,381657
$GPRMC,135451,A,5055.9594,N,00123.7608,W,000.2,084.7,310116,002.9,W*7A
$GPGGA,135451,5055.9594,N,00123.7608,W,1,03,0.9,46.5,M,46.9,M,,*6C
t383136,382656
$GPRMC,135452,A,5055.9593,N,00123.7608,W,000.3,084.7,310116,002.9,W*7F
$GPGGA,135452,5055.9593,N,00123.7608,W,1,03,0.9,46.5,M,46.9,M,,*68
t384135,383655
$GPRMC,135453,A,5055.9593,N,00123.7609,W,000.2,084.7,310116,002.9,W*7E
$GPGGA,135453,5055.9593,N,00123.7609,W,1,03,0.9,46.5,M,46.9,M,,*68
t385136,384655
$GPRMC,135454,A,5055.9592,N,00123.7609,W,000.1,084.7,310116,002.9,W*7B
$GPGGA,135454,5055.9592,N,00123.7609,W,1,03,0.9,46.5,M,46.9,M,,*6E
t386128,385654
$GPRMC,135455,A,5055.9592,N,00123.7609,W,000.2,084.7,310116,002.9,W*79
$GPGGA,135455,5055.9592,N,00123.7609,W,1,04,1.0,46.5,M,46.9,M,,*60
t387135,386654
$GPRMC,135456,A,5055.9592,N,00123.7610,W,000.2,084.7,310116,002.9,W*72
$GPGGA,135456,5055.9592,N,00123.7610,W,1,02,1.1,46.4,M,46.9,M,,*6D
t388137,387653
$GPRMC,135457,A,5055.9591,N,00123.7611,W,000.2,084.7,310116,002.9,W*71
$GPGGA,135457,5055.9591,N,00123.7611,W,1,04,1.0,46.4,M,46.9,M,,*69
t389130,388653
$GPRMC,135458,A,5055.9590,N,00123.7611,W,000.2,084.7,310116,002.9,W*7F
$GPGGA,135458,5055.9590,N,00123.7611,W,1,03,0.9,46.4,M,46.9,M,,*68
t390135,389652
$GPRMC,135459,A,5055.9590,N,00123.7611,W,000.2,084.7,310116,002.9,W*7E
$GPGGA,135459,5055.9590,N,00123.7611,W,1,03,1.0,46.4,M,46.9,M,,*61
t391134,390651
$GPRMC,135500,A,5055.9589,N,00123.7612,W,000.4,084.7,310116,002.9,W*7E
$GPGGA,135500,5055.9589,N,00123.7612,W,1,03,1.1,46.4,M,46.9,M,,*66
t392135,391651
$GPRMC,135501,A,5055.9588,N,00123.7613,W,000.3,084.7,310116,002.9,W*78
$GPGGA,135501,5055.9588,N,00123.7613,W,1,02,1.1,46.4,M,46.9,M,,*66
t393225,392650
$GPRMC,135502,A,5055.9588,N,00123.7614,W,000.2,084.7,310116,002.9,W*7D
