$GPRMC,122711,A,5055.9579,N,00123.7577,W,000.0,161.5,120216,002.9,W*7B
$GPGGA,122711,5055.9579,N,00123.7577,W,1,03,1.2,51.7,M,46.9,M,,*6B
t1455,1085
$GPRMC,122712,A,5055.9578,N,00123.7577,W,000.0,161.5,120216,002.9,W*79
$GPGGA,122712,5055.9578,N,00123.7577,W,1,03,1.2,51.7,M,46.9,M,,*69
t2454,2084
$GPRMC,122713,A,5055.9578,N,00123.7577,W,000.1,161.5,120216,002.9,W*79
$GPGGA,122713,5055.9578,N,00123.7577,W,1,03,1.2,51.7,M,46.9,M,,*68
t3453,3084
$GPRMC,122714,A,5055.9579,N,00123.7577,W,000.1,161.5,120216,002.9,W*7F
$GPGGA,122714,5055.9579,N,00123.7577,W,1,03,1.2,51.7,M,46.9,M,,*6E
t4461,4083
$GPRMC,122715,A,5055.9579,N,00123.7577,W,000.1,161.5,120216,002.9,W*7E
$GPGGA,122715,5055.9579,N,00123.7577,W,1,03,1.2,51.7,M,46.9,M,,*6F
t5445,5083
$GPRMC,122716,A,5055.9579,N,00123.7576,W,000.1,161.5,120216,002.9,W*7C
$GPGGA,122716,5055.9579,N,00123.7576,W,1,03,1.2,51.7,M,46.9,M,,*6D
t6445,6082
$GPRMC,122717,A,5055.9579,N,00123.7576,W,000.2,161.5,120216,002.9,W*7E
$GPGGA,122717,5055.9579,N,00123.7576,W,1,03,1.2,51.7,M,46.9,M,,*6C
t7454,7081
$GPRMC,122718,A,5055.9579,N,00123.7575,W,000.2,161.5,120216,002.9,W*72
$GPGGA,122718,5055.9579,N,00123.7575,W,1,03,1.0,51.7,M,46.9,M,,*62
t8467,8081
$GPRMC,122719,A,5055.9579,N,00123.7575,W,000.3,161.5,120216,002.9,W*72
$GPGGA,122719,5055.9579,N,00123.7575,W,1,03,1.0,51.7,M,46.9,M,,*63
t9450,9080
$GPRMC,122720,A,5055.9580,N,00123.7574,W,000.2,161.5,120216,002.9,W*7E
$GPGGA,122720,5055.9580,N,00123.7574,W,1,03,1.0,51.7,M,46.9,M,,*6E
t10466,10080
$GPRMC,122721,A,5055.9580,N,00123.7573,W,000.2,161.5,120216,002.9,W*78
$GPGGA,122721,5055.9580,N,00123.7573,W,1,03,1.0,51.7,M,46.9,M,,*68
t11456,11079
$GPRMC,122722,A,5055.9581,N,00123.7572,W,000.2,161.5,120216,002.9,W*7B
$GPGGA,122722,5055.9581,N,00123.7572,W,1,03,1.0,51.6,M,46.9,M,,*6A
t12453,12080
$GPRMC,122723,A,5055.9581,N,00123.7571,W,000.2,161.5,120216,002.9,W*79
$GPGGA,122723,5055.9581,N,00123.7571,W,1,03,1.0,51.6,M,46.9,M,,*68
t13454,13079
$GPRMC,122724,A,5055.9582,N,00123.7571,W,000.2,161.5,120216,002.9,W*7D
$GPGGA,122724,5055.9582,N,00123.7571,W,1,03,1.0,51.6,M,46.9,M,,*6C
t14452,14078
$GPRMC,122725,A,5055.9582,N,00123.7570,W,000.1,161.5,120216,002.9,W*7E
$GPGGA,122725,5055.9582,N,00123.7570,W,1,03,1.0,51.6,M,46.9,M,,*6C
t15443,15078
$GPRMC,122726,A,5055.9582,N,00123.7570,W,000.1,161.5,120216,002.9,W*7D
$GPGGA,122726,5055.9582,N,00123.7570,W,1,03,1.0,51.6,M,46.9,M,,*6F
t16454,16077
$GPRMC,122727,A,5055.9582,N,00123.7570,W,000.1,161.5,120216,002.9,W*7C
$GPGGA,122727,5055.9582,N,00123.7570,W,1,03,1.0,51.5,M,46.9,M,,*6D
t17441,17077
$GPRMC,122728,A,5055.9583,N,00123.7570,W,000.2,161.5,120216,002.9,W*71
$GPGGA,122728,5055.9583,N,00123.7570,W,1,03,1.0,51.5,M,46.9,M,,*63
t18449,18076
$GPRMC,122729,A,5055.9583,N,00123.7570,W,000.1,161.5,120216,002.9,W*73
$GPGGA,122729,5055.9583,N,00123.7570,W,1,03,1.0,51.5,M,46.9,M,,*62
t19442,19076
$GPRMC,122730,A,5055.9583,N,00123.7569,W,000.1,161.5,120216,002.9,W*73
$GPGGA,122730,5055.9583,N,00123.7569,W,1,03,1.0,51.4,M,46.9,M,,*63
t20444,20075
$GPRMC,122731,A,5055.9584,N,00123.7569,W,000.1,161.5,120216,002.9,W*75
$GPGGA,122731,5055.9584,N,00123.7569,W,1,03,1.0,51.4,M,46.9,M,,*65
t21449,21074
$GPRMC,122732,A,5055.9584,N,00123.7568,W,000.1,161.5,120216,002.9,W*77
$GPGGA,122732,5055.9584,N,00123.7568,W,1,03,1.0,51.4,M,46.9,M,,*67
t22462,22074
$GPRMC,122733,A,5055.9583,N,00123.7568,W,000.1,161.5,120216,002.9,W*71
$GPGGA,122733,5055.9583,N,00123.7568,W,1,03,1.0,51.4,M,46.9,M,,*61
t23456,23073
$GPRMC,122734,A,5055.9583,N,00123.7568,W,000.1,161.5,120216,002.9,W*76
$GPGGA,122734,5055.9583,N,00123.7568,W,1,03,1.0,51.3,M,46.9,M,,*61
t24445,24073
$GPRMC,122735,A,5055.9583,N,00123.7568,W,000.1,161.5,120216,002.9,W*77
$GPGGA,122735,5055.9583,N,00123.7568,W,1,03,1.0,51.3,M,46.9,M,,*60
t25447,25072
$GPRMC,122736,A,5055.9584,N,00123.7568,W,000.2,161.5,120216,002.9,W*70
$GPGGA,122736,5055.9584,N,00123.7568,W,1,03,1.0,51.3,M,46.9,M,,*64
t26437,26073
$GPRMC,122737,A,5055.9583,N,00123.7569,W,000.2,161.5,120216,002.9,W*77
$GPGGA,122737,5055.9583,N,00123.7569,W,1,03,1.0,51.2,M,46.9,M,,*62
t27437,27072
$GPRMC,122738,A,5055.9584,N,00123.7569,W,000.2,161.5,120216,002.9,W*7F
$GPGGA,122738,5055.9584,N,00123.7569,W,1,03,1.0,51.2,M,46.9,M,,*6A
t28558,28071
$GPRMC,122739,A,5055.9584,N,00123.7570,W,000.1,161.5,120216,002.9,W*75
$GPGGA,122739,5055.9584,N,00123.7570,W,1,03,1.0,51.2,M,46.9,M,,*63
t29445,29071
$GPRMC,122740,A,5055.9584,N,00123.7570,W,000.0,161.5,120216,002.9,W*7A
$GPGGA,122740,5055.9584,N,00123.7570,W,1,03,1.0,51.2,M,46.9,M,,*6D
t30434,30070
$GPRMC,122741,A,5055.9584,N,00123.7570,W,000.2,161.5,120216,002.9,W*79
$GPGGA,122741,5055.9584,N,00123.7570,W,1,03,1.0,51.1,M,46.9,M,,*6F
t31442,31070
$GPRMC,122742,A,5055.9584,N,00123.7571,W,000.1,161.5,120216,002.9,W*78
$GPGGA,122742,5055.9584,N,00123.7571,W,1,03,1.0,51.1,M,46.9,M,,*6D
t32444,32069
$GPRMC,122743,A,5055.9584,N,00123.7571,W,000.1,161.5,120216,002.9,W*79
$GPGGA,122743,5055.9584,N,00123.7571,W,1,03,1.0,51.1,M,46.9,M,,*6C
t33452,33069
$GPRMC,122744,A,5055.9583,N,00123.7571,W,000.2,161.5,120216,002.9,W*7A
$GPGGA,122744,5055.9583,N,00123.7571,W,1,03,1.0,51.1,M,46.9,M,,*6C
t34441,34068
$GPRMC,122745,A,5055.9583,N,00123.7572,W,000.2,161.5,120216,002.9,W*78
$GPGGA,122745,5055.9583,N,00123.7572,W,1,03,1.0,51.0,M,46.9,M,,*6F
t35448,35067
$GPRMC,122746,A,5055.9583,N,00123.7573,W,000.2,161.5,120216,002.9,W*7A
$GPGGA,122746,5055.9583,N,00123.7573,W,1,03,1.0,51.0,M,46.9,M,,*6D
t36434,36067
$GPRMC,122747,A,5055.9583,N,00123.7573,W,000.1,161.5,120216,002.9,W*78
$GPGGA,122747,5055.9583,N,00123.7573,W,1,03,1.0,51.0,M,46.9,M,,*6C
t37435,37066
$GPRMC,122748,A,5055.9583,N,00123.7574,W,000.2,161.5,120216,002.9,W*73
$GPGGA,122748,5055.9583,N,00123.7574,W,1,03,1.0,50.9,M,46.9,M,,*6C
t38441,38066
$GPRMC,122749,A,5055.9583,N,00123.7574,W,000.2,161.5,120216,002.9,W*72
$GPGGA,122749,5055.9583,N,00123.7574,W,1,03,1.0,50.9,M,46.9,M,,*6D
t39433,39065
$GPRMC,122750,A,5055.9583,N,00123.7575,W,000.3,161.5,120216,002.9,W*7A
$GPGGA,122750,5055.9583,N,00123.7575,W,1,03,1.0,50.9,M,46.9,M,,*64
t40439,40065
$GPRMC,122751,A,5055.9583,N,00123.7577,W,000.2,161.5,120216,002.9,W*78
$GPGGA,122751,5055.9583,N,00123.7577,W,1,03,1.0,50.9,M,46.9,M,,*67
t41431,41065
$GPRMC,122752,A,5055.9583,N,00123.7578,W,000.1,161.5,120216,002.9,W*77
$GPGGA,122752,5055.9583,N,00123.7578,W,1,03,1.0,50.8,M,46.9,M,,*6A
t42439,42064
$GPRMC,122753,A,5055.9583,N,00123.7578,W,000.1,161.5,120216,002.9,W*76
$GPGGA,122753,5055.9583,N,00123.7578,W,1,03,1.0,50.8,M,46.9,M,,*6B
t43447,43064
$GPRMC,122754,A,5055.9583,N,00123.7578,W,000.1,161.5,120216,002.9,W*71
$GPGGA,122754,5055.9583,N,00123.7578,W,1,03,1.0,50.8,M,46.9,M,,*6C
t44429,44063
$GPRMC,122755,A,5055.9583,N,00123.7578,W,000.2,161.5,120216,002.9,W*73
$GPGGA,122755,5055.9583,N,00123.7578,W,1,03,1.0,50.8,M,46.9,M,,*6D
t45427,45063
$GPRMC,122756,A,5055.9583,N,00123.7579,W,000.1,161.5,120216,002.9,W*72
$GPGGA,122756,5055.9583,N,00123.7579,W,1,03,1.0,50.7,M,46.9,M,,*60
t46446,46062
$GPRMC,122757,A,5055.9583,N,00123.7579,W,000.1,161.5,120216,002.9,W*73
$GPGGA,122757,5055.9583,N,00123.7579,W,1,03,1.0,50.7,M,46.9,M,,*61
t47430,47062
$GPRMC,122758,A,5055.9583,N,00123.7580,W,000.1,161.5,120216,002.9,W*7A
$GPGGA,122758,5055.9583,N,00123.7580,W,1,03,1.0,50.7,M,46.9,M,,*68
t48438,48061
$GPRMC,122759,A,5055.9582,N,00123.7580,W,000.2,161.5,120216,002.9,W*79
$GPGGA,122759,5055.9582,N,00123.7580,W,1,03,1.0,50.6,M,46.9,M,,*69
t49437,49060
$GPRMC,122800,A,5055.9582,N,00123.7581,W,000.1,161.5,120216,002.9,W*78
$GPGGA,122800,5055.9582,N,00123.7581,W,1,03,1.0,50.6,M,46.9,M,,*6B
t50436,50060
$GPRMC,122801,A,5055.9582,N,00123.7581,W,000.3,161.5,120216,002.9,W*7B
$GPGGA,122801,5055.9582,N,00123.7581,W,1,03,1.0,50.6,M,46.9,M,,*6A
t51427,51059
$GPRMC,122802,A,5055.9582,N,00123.7582,W,000.5,161.5,120216,002.9,W*7D
$GPGGA,122802,5055.9582,N,00123.7582,W,1,03,1.0,50.5,M,46.9,M,,*69
t52447,52059
$GPRMC,122803,A,5055.9582,N,00123.7584,W,000.5,161.5,120216,002.9,W*7A
$GPGGA,122803,5055.9582,N,00123.7584,W,1,03,1.0,50.5,M,46.9,M,,*6E
t53444,53058
$GPRMC,122804,A,5055.9581,N,00123.7587,W,000.4,161.5,120216,002.9,W*7C
$GPGGA,122804,5055.9581,N,00123.7587,W,1,03,1.0,50.5,M,46.9,M,,*69
t54431,54057
$GPRMC,122805,A,5055.9581,N,00123.7588,W,000.3,161.5,120216,002.9,W*75
$GPGGA,122805,5055.9581,N,00123.7588,W,1,03,1.0,50.5,M,46.9,M,,*67
t55424,55058
$GPRMC,122806,A,5055.9581,N,00123.7590,W,000.2,161.5,120216,002.9,W*7E
$GPGGA,122806,5055.9581,N,00123.7590,W,1,03,1.0,50.5,M,46.9,M,,*6D
t56431,56057
$GPRMC,122807,A,5055.9581,N,00123.7590,W,000.2,161.5,120216,002.9,W*7F
$GPGGA,122807,5055.9581,N,00123.7590,W,1,03,1.0,50.4,M,46.9,M,,*6D
t57422,57057
$GPRMC,122808,A,5055.9581,N,00123.7591,W,000.1,161.5,120216,002.9,W*72
$GPGGA,122808,5055.9581,N,00123.7591,W,1,03,1.0,50.4,M,46.9,M,,*63
t58435,58056
$GPRMC,122809,A,5055.9581,N,00123.7590,W,000.1,161.5,120216,002.9,W*72
$GPGGA,122809,5055.9581,N,00123.7590,W,1,03,1.0,50.4,M,46.9,M,,*63
t59522,59056
$GPRMC,122810,A,5055.9580,N,00123.7590,W,000.1,161.5,120216,002.9,W*7B
$GPGGA,122810,5055.9580,N,00123.7590,W,1,03,1.0,50.4,M,46.9,M,,*6A
t60422,60055
$GPRMC,122811,A,5055.9580,N,00123.7590,W,000.2,161.5,120216,002.9,W*79
$GPGGA,122811,5055.9580,N,00123.7590,W,1,03,1.0,50.4,M,46.9,M,,*6B
t61423,61054
$GPRMC,122812,A,5055.9580,N,00123.7591,W,000.2,161.5,120216,002.9,W*7B
$GPGGA,122812,5055.9580,N,00123.7591,W,1,03,1.0,50.3,M,46.9,M,,*6E
t62419,62054
$GPRMC,122813,A,5055.9580,N,00123.7592,W,000.1,161.5,120216,002.9,W*7A
$GPGGA,122813,5055.9580,N,00123.7592,W,1,03,1.0,50.3,M,46.9,M,,*6C
t63440,63053
$GPRMC,122814,A,5055.9580,N,00123.7592,W,000.2,161.5,120216,002.9,W*7E
$GPGGA,122814,5055.9580,N,00123.7592,W,1,03,1.0,50.3,M,46.9,M,,*6B
t64436,64053
$GPRMC,122815,A,5055.9580,N,00123.7593,W,000.2,161.5,120216,002.9,W*7E
$GPGGA,122815,5055.9580,N,00123.7593,W,1,03,1.0,50.3,M,46.9,M,,*6B
t65427,65052
$GPRMC,122816,A,5055.9580,N,00123.7594,W,000.3,161.5,120216,002.9,W*7B
$GPGGA,122816,5055.9580,N,00123.7594,W,1,03,1.0,50.3,M,46.9,M,,*6F
t66425,66052
$GPRMC,122817,A,5055.9580,N,00123.7596,W,000.4,161.5,120216,002.9,W*7F
$GPGGA,122817,5055.9580,N,00123.7596,W,1,03,1.0,50.3,M,46.9,M,,*6C
t67427,67051
$GPRMC,122818,A,5055.9579,N,00123.7598,W,000.3,161.5,120216,002.9,W*7F
$GPGGA,122818,5055.9579,N,00123.7598,W,1,03,1.0,50.2,M,46.9,M,,*6A
t68425,68050
$GPRMC,122819,A,5055.9579,N,00123.7599,W,000.4,161.5,120216,002.9,W*78
$GPGGA,122819,5055.9579,N,00123.7599,W,1,03,1.0,50.2,M,46.9,M,,*6A
t69425,69051
$GPRMC,122820,A,5055.9578,N,00123.7601,W,000.3,161.5,120216,002.9,W*76
$GPGGA,122820,5055.9578,N,00123.7601,W,1,03,1.0,50.2,M,46.9,M,,*63
t70433,70050
$GPRMC,122821,A,5055.9578,N,00123.7602,W,000.2,161.5,120216,002.9,W*75
$GPGGA,122821,5055.9578,N,00123.7602,W,1,03,1.0,50.2,M,46.9,M,,*61
t71424,71050
$GPRMC,122822,A,5055.9578,N,00123.7603,W,000.1,161.5,120216,002.9,W*74
$GPGGA,122822,5055.9578,N,00123.7603,W,1,03,1.0,50.2,M,46.9,M,,*63
t72414,72049
$GPRMC,122823,A,5055.9578,N,00123.7603,W,000.1,161.5,120216,002.9,W*75
$GPGGA,122823,5055.9578,N,00123.7603,W,1,03,1.0,50.1,M,46.9,M,,*61
t73430,73049
$GPRMC,122824,A,5055.9579,N,00123.7603,W,000.3,161.5,120216,002.9,W*71
$GPGGA,122824,5055.9579,N,00123.7603,W,1,03,1.0,50.1,M,46.9,M,,*67
t74526,74048
$GPRMC,122825,A,5055.9579,N,00123.7604,W,000.3,161.5,120216,002.9,W*77
$GPGGA,122825,5055.9579,N,00123.7604,W,1,03,1.0,50.1,M,46.9,M,,*61
t75425,75047
$GPRMC,122826,A,5055.9579,N,00123.7605,W,000.4,161.5,120216,002.9,W*72
$GPGGA,122826,5055.9579,N,00123.7605,W,1,03,1.0,50.1,M,46.9,M,,*63
t76423,76047
$GPRMC,122827,A,5055.9578,N,00123.7607,W,000.3,161.5,120216,002.9,W*77
$GPGGA,122827,5055.9578,N,00123.7607,W,1,03,1.0,50.1,M,46.9,M,,*61
t77423,77046
$GPRMC,122828,A,5055.9578,N,00123.7607,W,000.2,161.5,120216,002.9,W*79
$GPGGA,122828,5055.9578,N,00123.7607,W,1,03,1.0,50.0,M,46.9,M,,*6F
t78430,78046
$GPRMC,122829,A,5055.9577,N,00123.7607,W,000.2,161.5,120216,002.9,W*77
$GPGGA,122829,5055.9577,N,00123.7607,W,1,03,1.0,50.0,M,46.9,M,,*61
t79413,79045
$GPRMC,122830,A,5055.9577,N,00123.7607,W,000.1,161.5,120216,002.9,W*7C
$GPGGA,122830,5055.9577,N,00123.7607,W,1,03,1.0,50.0,M,46.9,M,,*69
t80412,80045
$GPRMC,122831,A,5055.9576,N,00123.7607,W,000.1,161.5,120216,002.9,W*7C
$GPGGA,122831,5055.9576,N,00123.7607,W,1,03,1.0,50.0,M,46.9,M,,*69
t81420,81044
$GPRMC,122832,A,5055.9576,N,00123.7606,W,000.2,161.5,120216,002.9,W*7D
$GPGGA,122832,5055.9576,N,00123.7606,W,1,03,1.0,50.0,M,46.9,M,,*6B
t82422,82043
$GPRMC,122833,A,5055.9576,N,00123.7607,W,000.1,161.5,120216,002.9,W*7E
$GPGGA,122833,5055.9576,N,00123.7607,W,1,03,1.0,50.0,M,46.9,M,,*6B
t83429,83044
$GPRMC,122834,A,5055.9576,N,00123.7607,W,000.1,161.5,120216,002.9,W*79
$GPGGA,122834,5055.9576,N,00123.7607,W,1,03,1.0,49.9,M,46.9,M,,*6D
t84416,84043
$GPRMC,122835,A,5055.9576,N,00123.7608,W,000.1,161.5,120216,002.9,W*77
$GPGGA,122835,5055.9576,N,00123.7608,W,1,03,1.0,49.9,M,46.9,M,,*63
t85413,85043
$GPRMC,122836,A,5055.9577,N,00123.7608,W,000.1,161.5,120216,002.9,W*75
$GPGGA,122836,5055.9577,N,00123.7608,W,1,03,1.0,49.9,M,46.9,M,,*61
t86407,86042
$GPRMC,122837,A,5055.9577,N,00123.7607,W,000.0,161.5,120216,002.9,W*7A
$GPGGA,122837,5055.9577,N,00123.7607,W,1,03,1.0,49.9,M,46.9,M,,*6F
t87406,87042
$GPRMC,122838,A,5055.9577,N,00123.7608,W,000.0,161.5,120216,002.9,W*7A
$GPGGA,122838,5055.9577,N,00123.7608,W,1,03,1.0,49.8,M,46.9,M,,*6E
t88428,88041
$GPRMC,122839,A,5055.9577,N,00123.7608,W,000.0,161.5,120216,002.9,W*7B
$GPGGA,122839,5055.9577,N,00123.7608,W,1,03,1.0,49.8,M,46.9,M,,*6F
t89405,89040
$GPRMC,122840,A,5055.9577,N,00123.7608,W,000.2,161.5,120216,002.9,W*77
$GPGGA,122840,5055.9577,N,00123.7608,W,1,03,1.0,49.8,M,46.9,M,,*61
t90503,90040
$GPRMC,122841,A,5055.9577,N,00123.7608,W,000.2,161.5,120216,002.9,W*76
$GPGGA,122841,5055.9577,N,00123.7608,W,1,03,1.0,49.8,M,46.9,M,,*60
t91414,91039
$GPRMC,122842,A,5055.9578,N,00123.7608,W,000.3,161.5,120216,002.9,W*7B
$GPGGA,122842,5055.9578,N,00123.7608,W,1,03,1.0,49.7,M,46.9,M,,*63
t92413,92039
$GPRMC,122843,A,5055.9579,N,00123.7607,W,000.2,161.5,120216,002.9,W*75
$GPGGA,122843,5055.9579,N,00123.7607,W,1,03,1.0,49.7,M,46.9,M,,*6C
t93416,93038
$GPRMC,122844,A,5055.9579,N,00123.7607,W,000.1,161.5,120216,002.9,W*71
$GPGGA,122844,5055.9579,N,00123.7607,W,1,03,1.0,49.7,M,46.9,M,,*6B
t94420,94038
$GPRMC,122845,A,5055.9579,N,00123.7607,W,000.2,161.5,120216,002.9,W*73
$GPGGA,122845,5055.9579,N,00123.7607,W,1,03,1.0,49.6,M,46.9,M,,*6B
t95420,95037
$GPRMC,122846,A,5055.9578,N,00123.7608,W,000.3,161.5,120216,002.9,W*7F
$GPGGA,122846,5055.9578,N,00123.7608,W,1,03,1.0,49.6,M,46.9,M,,*66
t96411,96036
$GPRMC,122847,A,5055.9578,N,00123.7609,W,000.1,161.5,120216,002.9,W*7D
$GPGGA,122847,5055.9578,N,00123.7609,W,1,03,1.0,49.6,M,46.9,M,,*66
t97413,97036
$GPRMC,122848,A,5055.9578,N,00123.7609,W,000.1,161.5,120216,002.9,W*72
$GPGGA,122848,5055.9578,N,00123.7609,W,1,03,1.0,49.5,M,46.9,M,,*6A
t98403,98036
$GPRMC,122849,A,5055.9578,N,00123.7609,W,000.2,161.5,120216,002.9,W*70
$GPGGA,122849,5055.9578,N,00123.7609,W,1,03,1.0,49.5,M,46.9,M,,*6B
t99407,99036
$GPRMC,122850,A,5055.9579,N,00123.7609,W,000.3,161.5,120216,002.9,W*78
$GPGGA,122850,5055.9579,N,00123.7609,W,1,03,1.0,49.5,M,46.9,M,,*62
t100414,100035
$GPRMC,122851,A,5055.9580,N,00123.7608,W,000.6,161.5,120216,002.9,W*7B
$GPGGA,122851,5055.9580,N,00123.7608,W,1,03,1.0,49.5,M,46.9,M,,*64
t101409,101035
$GPRMC,122852,A,5055.9582,N,00123.7607,W,000.6,161.5,120216,002.9,W*75
$GPGGA,122852,5055.9582,N,00123.7607,W,1,03,1.0,49.4,M,46.9,M,,*6B
t102403,102034
$GPRMC,122853,A,5055.9589,N,00123.7608,W,000.7,161.5,120216,002.9,W*71
$GPGGA,122853,5055.9589,N,00123.7608,W,1,03,1.0,49.2,M,46.9,M,,*68
t103417,103033
$GPRMC,122854,A,5055.9595,N,00123.7602,W,000.7,161.5,120216,002.9,W*71
$GPGGA,122854,5055.9595,N,00123.7602,W,1,02,1.2,49.3,M,46.9,M,,*6A
t104383,104033
$GPRMC,122855,A,5055.9598,N,00123.7601,W,000.6,161.5,120216,002.9,W*7F
$GPGGA,122855,5055.9598,N,00123.7601,W,1,02,1.2,48.9,M,46.9,M,,*6E
t105392,105032
$GPRMC,122856,A,5055.9599,N,00123.7593,W,000.5,161.5,120216,002.9,W*76
$GPGGA,122856,5055.9599,N,00123.7593,W,1,03,1.0,48.7,M,46.9,M,,*69
t106414,106032
$GPRMC,122857,A,5055.9604,N,00123.7588,W,000.5,161.5,120216,002.9,W*7A
$GPGGA,122857,5055.9604,N,00123.7588,W,1,03,1.0,48.6,M,46.9,M,,*64
t107407,107031
$GPRMC,122858,A,5055.9610,N,00123.7581,W,000.5,161.5,120216,002.9,W*79
$GPGGA,122858,5055.9610,N,00123.7581,W,1,03,1.0,48.5,M,46.9,M,,*64
t108420,108030
$GPRMC,122859,A,5055.9610,N,00123.7580,W,000.4,161.5,120216,002.9,W*78
$GPGGA,122859,5055.9610,N,00123.7580,W,1,03,1.0,48.3,M,46.9,M,,*62
t109406,109030
$GPRMC,122900,A,5055.9612,N,00123.7580,W,000.4,161.5,120216,002.9,W*77
$GPGGA,122900,5055.9612,N,00123.7580,W,1,03,1.0,48.3,M,46.9,M,,*6D
t110403,110029
$GPRMC,122901,A,5055.9612,N,00123.7579,W,000.2,161.5,120216,002.9,W*76
$GPGGA,122901,5055.9612,N,00123.7579,W,1,03,1.0,48.3,M,46.9,M,,*6A
t111395,111029
$GPRMC,122902,A,5055.9613,N,00123.7578,W,000.1,161.5,120216,002.9,W*76
$GPGGA,122902,5055.9613,N,00123.7578,W,1,03,1.0,48.3,M,46.9,M,,*69
t112414,112029
$GPRMC,122903,A,5055.9613,N,00123.7578,W,000.2,161.5,120216,002.9,W*74
$GPGGA,122903,5055.9613,N,00123.7578,W,1,03,1.0,48.3,M,46.9,M,,*68
t113412,113029
$GPRMC,122904,A,5055.9613,N,00123.7578,W,000.2,161.5,120216,002.9,W*73
$GPGGA,122904,5055.9613,N,00123.7578,W,1,03,1.0,48.3,M,46.9,M,,*6F
t114402,114028
$GPRMC,122905,A,5055.9613,N,00123.7578,W,000.3,161.5,120216,002.9,W*73
$GPGGA,122905,5055.9613,N,00123.7578,W,1,03,1.0,48.3,M,46.9,M,,*6E
t115404,115027
$GPRMC,122906,A,5055.9614,N,00123.7578,W,000.4,161.5,120216,002.9,W*70
$GPGGA,122906,5055.9614,N,00123.7578,W,1,03,1.0,48.2,M,46.9,M,,*6B
t116406,116027
$GPRMC,122907,A,5055.9615,N,00123.7577,W,000.5,161.5,120216,002.9,W*7E
$GPGGA,122907,5055.9615,N,00123.7577,W,1,03,1.0,48.2,M,46.9,M,,*64
t117412,117026
$GPRMC,122908,A,5055.9617,N,00123.7577,W,000.5,161.5,120216,002.9,W*73
$GPGGA,122908,5055.9617,N,00123.7577,W,1,03,1.0,48.2,M,46.9,M,,*69
t118417,118026
$GPRMC,122909,A,5055.9618,N,00123.7576,W,000.3,161.5,120216,002.9,W*7A
$GPGGA,122909,5055.9618,N,00123.7576,W,1,03,1.0,48.2,M,46.9,M,,*66
t119395,119025
$GPRMC,122910,A,5055.9619,N,00123.7576,W,000.3,161.5,120216,002.9,W*73
$GPGGA,122910,5055.9619,N,00123.7576,W,1,03,1.0,48.2,M,46.9,M,,*6F
t120412,120025
$GPRMC,122911,A,5055.9620,N,00123.7575,W,000.0,161.5,120216,002.9,W*78
$GPGGA,122911,5055.9620,N,00123.7575,W,1,03,1.0,48.2,M,46.9,M,,*67
t121496,121024
$GPRMC,122912,A,5055.9620,N,00123.7575,W,000.2,161.5,120216,002.9,W*79
$GPGGA,122912,5055.9620,N,00123.7575,W,1,03,1.0,48.1,M,46.9,M,,*67
t122396,122023
$GPRMC,122913,A,5055.9620,N,00123.7574,W,000.2,161.5,120216,002.9,W*79
$GPGGA,122913,5055.9620,N,00123.7574,W,1,03,1.0,48.1,M,46.9,M,,*67
t123411,123023
$GPRMC,122914,A,5055.9620,N,00123.7573,W,000.1,161.5,120216,002.9,W*7A
$GPGGA,122914,5055.9620,N,00123.7573,W,1,03,1.0,48.1,M,46.9,M,,*67
t124401,124022
$GPRMC,122915,A,5055.9620,N,00123.7574,W,000.1,161.5,120216,002.9,W*7C
$GPGGA,122915,5055.9620,N,00123.7574,W,1,03,1.0,48.1,M,46.9,M,,*61
t125398,125022
$GPRMC,122916,A,5055.9619,N,00123.7574,W,000.3,161.5,120216,002.9,W*77
$GPGGA,122916,5055.9619,N,00123.7574,W,1,03,1.0,48.1,M,46.9,M,,*68
t126388,126022
$GPRMC,122917,A,5055.9619,N,00123.7575,W,000.2,161.5,120216,002.9,W*76
$GPGGA,122917,5055.9619,N,00123.7575,W,1,03,1.0,48.1,M,46.9,M,,*68
t127396,127022
$GPRMC,122918,A,5055.9618,N,00123.7575,W,000.2,161.5,120216,002.9,W*78
$GPGGA,122918,5055.9618,N,00123.7575,W,1,03,1.0,48.1,M,46.9,M,,*66
t128407,128021
$GPRMC,122919,A,5055.9618,N,00123.7575,W,000.1,161.5,120216,002.9,W*7A
$GPGGA,122919,5055.9618,N,00123.7575,W,1,03,1.0,48.1,M,46.9,M,,*67
t129397,129020
$GPRMC,122920,A,5055.9617,N,00123.7575,W,000.1,161.5,120216,002.9,W*7F
$GPGGA,122920,5055.9617,N,00123.7575,W,1,03,1.0,48.1,M,46.9,M,,*62
t130404,130020
$GPRMC,122921,A,5055.9617,N,00123.7575,W,000.1,161.5,120216,002.9,W*7E
$GPGGA,122921,5055.9617,N,00123.7575,W,1,03,1.0,48.1,M,46.9,M,,*63
t131398,131019
$GPRMC,122922,A,5055.9617,N,00123.7574,W,000.3,161.5,120216,002.9,W*7E
$GPGGA,122922,5055.9617,N,00123.7574,W,1,03,1.0,48.1,M,46.9,M,,*61
t132399,132019
$GPRMC,122923,A,5055.9618,N,00123.7573,W,000.2,161.5,120216,002.9,W*76
$GPGGA,122923,5055.9618,N,00123.7573,W,1,03,1.0,48.0,M,46.9,M,,*69
t133405,133018
$GPRMC,122924,A,5055.9618,N,00123.7572,W,000.4,161.5,120216,002.9,W*76
$GPGGA,122924,5055.9618,N,00123.7572,W,1,03,1.0,48.0,M,46.9,M,,*6F
t134407,134018
$GPRMC,122925,A,5055.9619,N,00123.7572,W,000.3,161.5,120216,002.9,W*71
$GPGGA,122925,5055.9619,N,00123.7572,W,1,03,1.0,48.0,M,46.9,M,,*6F
t135397,135017
$GPRMC,122926,A,5055.9620,N,00123.7572,W,000.2,161.5,120216,002.9,W*79
$GPGGA,122926,5055.9620,N,00123.7572,W,1,03,1.0,48.0,M,46.9,M,,*66
t136403,136016
$GPRMC,122927,A,5055.9621,N,00123.7571,W,000.4,161.5,120216,002.9,W*7C
$GPGGA,122927,5055.9621,N,00123.7571,W,1,03,1.0,48.0,M,46.9,M,,*65
t137396,137016
$GPRMC,122928,A,5055.9622,N,00123.7571,W,000.3,161.5,120216,002.9,W*77
$GPGGA,122928,5055.9622,N,00123.7571,W,1,03,1.0,48.0,M,46.9,M,,*69
t138401,138015
$GPRMC,122929,A,5055.9623,N,00123.7570,W,000.3,161.5,120216,002.9,W*76
$GPGGA,122929,5055.9623,N,00123.7570,W,1,03,1.0,47.9,M,46.9,M,,*6E
t139397,139015
$GPRMC,122930,A,5055.9623,N,00123.7570,W,000.3,161.5,120216,002.9,W*7E
$GPGGA,122930,5055.9623,N,00123.7570,W,1,03,1.0,47.9,M,46.9,M,,*66
t140389,140015
$GPRMC,122931,A,5055.9624,N,00123.7570,W,000.3,161.5,120216,002.9,W*78
$GPGGA,122931,5055.9624,N,00123.7570,W,1,03,1.0,47.9,M,46.9,M,,*60
t141391,141015
$GPRMC,122932,A,5055.9625,N,00123.7569,W,000.2,161.5,120216,002.9,W*73
$GPGGA,122932,5055.9625,N,00123.7569,W,1,03,1.0,47.9,M,46.9,M,,*6A
t142393,142014
$GPRMC,122933,A,5055.9625,N,00123.7568,W,000.2,161.5,120216,002.9,W*73
$GPGGA,122933,5055.9625,N,00123.7568,W,1,03,1.0,47.8,M,46.9,M,,*6B
t143390,143013
$GPRMC,122934,A,5055.9626,N,00123.7568,W,000.3,161.5,120216,002.9,W*76
$GPGGA,122934,5055.9626,N,00123.7568,W,1,03,1.0,47.8,M,46.9,M,,*6F
t144390,144013
$GPRMC,122935,A,5055.9627,N,00123.7567,W,000.2,161.5,120216,002.9,W*78
$GPGGA,122935,5055.9627,N,00123.7567,W,1,03,1.0,47.7,M,46.9,M,,*6F
t145391,145012
$GPRMC,122936,A,5055.9627,N,00123.7567,W,000.4,161.5,120216,002.9,W*7D
$GPGGA,122936,5055.9627,N,00123.7567,W,1,03,1.0,47.7,M,46.9,M,,*6C
t146382,146012
$GPRMC,122937,A,5055.9628,N,00123.7565,W,000.2,161.5,120216,002.9,W*77
$GPGGA,122937,5055.9628,N,00123.7565,W,1,03,1.0,47.7,M,46.9,M,,*60
t147383,147011
$GPRMC,122938,A,5055.9628,N,00123.7565,W,000.3,161.5,120216,002.9,W*79
$GPGGA,122938,5055.9628,N,00123.7565,W,1,03,1.0,47.7,M,46.9,M,,*6F
t148399,148011
$GPRMC,122939,A,5055.9629,N,00123.7565,W,000.2,161.5,120216,002.9,W*78
$GPGGA,122939,5055.9629,N,00123.7565,W,1,03,1.0,47.6,M,46.9,M,,*6E
t149387,149010
$GPRMC,122940,A,5055.9630,N,00123.7565,W,000.3,161.5,120216,002.9,W*7F
$GPGGA,122940,5055.9630,N,00123.7565,W,1,03,1.0,47.6,M,46.9,M,,*68
t150477,150009
$GPRMC,122941,A,5055.9630,N,00123.7565,W,000.1,161.5,120216,002.9,W*7C
$GPGGA,122941,5055.9630,N,00123.7565,W,1,03,1.0,47.6,M,46.9,M,,*69
t151379,151009
$GPRMC,122942,A,5055.9631,N,00123.7565,W,000.1,161.5,120216,002.9,W*7E
$GPGGA,122942,5055.9631,N,00123.7565,W,1,03,1.0,47.6,M,46.9,M,,*6B
t152486,152008
$GPRMC,122943,A,5055.9631,N,00123.7565,W,000.1,161.5,120216,002.9,W*7F
$GPGGA,122943,5055.9631,N,00123.7565,W,1,03,1.0,47.6,M,46.9,M,,*6A
t153401,153008
$GPRMC,122944,A,5055.9631,N,00123.7564,W,000.1,161.5,120216,002.9,W*79
$GPGGA,122944,5055.9631,N,00123.7564,W,1,03,1.0,47.5,M,46.9,M,,*6F
t154387,154008
$GPRMC,122945,A,5055.9631,N,00123.7564,W,000.2,161.5,120216,002.9,W*7B
$GPGGA,122945,5055.9631,N,00123.7564,W,1,03,1.0,47.5,M,46.9,M,,*6E
t155384,155008
$GPRMC,122946,A,5055.9631,N,00123.7563,W,000.2,161.5,120216,002.9,W*7F
$GPGGA,122946,5055.9631,N,00123.7563,W,1,03,1.0,47.5,M,46.9,M,,*6A
t156384,156007
$GPRMC,122947,A,5055.9631,N,00123.7562,W,000.1,161.5,120216,002.9,W*7C
$GPGGA,122947,5055.9631,N,00123.7562,W,1,03,1.0,47.5,M,46.9,M,,*6A
t157377,157006
$GPRMC,122948,A,5055.9631,N,00123.7562,W,000.1,161.5,120216,002.9,W*73
$GPGGA,122948,5055.9631,N,00123.7562,W,1,03,1.0,47.5,M,46.9,M,,*65
t158399,158006
$GPRMC,122949,A,5055.9631,N,00123.7561,W,000.2,161.5,120216,002.9,W*72
$GPGGA,122949,5055.9631,N,00123.7561,W,1,03,1.0,47.4,M,46.9,M,,*66
t159385,159005
$GPRMC,122950,A,5055.9631,N,00123.7560,W,000.0,161.5,120216,002.9,W*79
$GPGGA,122950,5055.9631,N,00123.7560,W,1,03,1.0,47.4,M,46.9,M,,*6F
t160385,160005
$GPRMC,122951,A,5055.9631,N,00123.7561,W,000.1,161.5,120216,002.9,W*78
$GPGGA,122951,5055.9631,N,00123.7561,W,1,03,1.0,47.4,M,46.9,M,,*6F
t161383,161004
$GPRMC,122952,A,5055.9631,N,00123.7561,W,000.2,161.5,120216,002.9,W*78
$GPGGA,122952,5055.9631,N,00123.7561,W,1,03,1.0,47.4,M,46.9,M,,*6C
t162380,162003
$GPRMC,122953,A,5055.9630,N,00123.7560,W,000.1,161.5,120216,002.9,W*7A
$GPGGA,122953,5055.9630,N,00123.7560,W,1,03,1.0,47.4,M,46.9,M,,*6D
t163384,163003
$GPRMC,122954,A,5055.9631,N,00123.7560,W,000.2,161.5,120216,002.9,W*7F
$GPGGA,122954,5055.9631,N,00123.7560,W,1,03,1.0,47.3,M,46.9,M,,*6C
t164382,164002
$GPRMC,122955,A,5055.9631,N,00123.7559,W,000.1,161.5,120216,002.9,W*77
$GPGGA,122955,5055.9631,N,00123.7559,W,1,03,1.0,47.3,M,46.9,M,,*67
t165373,165002
$GPRMC,122956,A,5055.9631,N,00123.7559,W,000.1,161.5,120216,002.9,W*74
$GPGGA,122956,5055.9631,N,00123.7559,W,1,03,1.0,47.3,M,46.9,M,,*64
t166385,166001
$GPRMC,122957,A,5055.9631,N,00123.7559,W,000.2,161.5,120216,002.9,W*76
$GPGGA,122957,5055.9631,N,00123.7559,W,1,03,1.0,47.3,M,46.9,M,,*65
t167370,167001
$GPRMC,122958,A,5055.9632,N,00123.7559,W,000.2,161.5,120216,002.9,W*7A
$GPGGA,122958,5055.9632,N,00123.7559,W,1,03,1.0,47.3,M,46.9,M,,*69
t168377,168000
$GPRMC,122959,A,5055.9632,N,00123.7559,W,000.1,161.5,120216,002.9,W*78
$GPGGA,122959,5055.9632,N,00123.7559,W,1,03,1.0,47.3,M,46.9,M,,*68
t169367,169000
$GPRMC,123000,A,5055.9632,N,00123.7559,W,000.1,161.5,120216,002.9,W*7C
$GPGGA,123000,5055.9632,N,00123.7559,W,1,03,1.0,47.3,M,46.9,M,,*6C
t170377,170000
$GPRMC,123001,A,5055.9632,N,00123.7560,W,000.1,161.5,120216,002.9,W*77
$GPGGA,123001,5055.9632,N,00123.7560,W,1,03,1.0,47.3,M,46.9,M,,*67
t171369,170999
$GPRMC,123002,A,5055.9633,N,00123.7560,W,000.4,161.5,120216,002.9,W*70
$GPGGA,123002,5055.9633,N,00123.7560,W,1,03,1.0,47.2,M,46.9,M,,*64
t172386,171999
$GPRMC,123003,A,5055.9634,N,00123.7560,W,000.1,161.5,120216,002.9,W*73
$GPGGA,123003,5055.9634,N,00123.7560,W,1,03,1.0,47.2,M,46.9,M,,*62
t173384,172998
$GPRMC,123004,A,5055.9634,N,00123.7559,W,000.1,161.5,120216,002.9,W*7E
$GPGGA,123004,5055.9634,N,00123.7559,W,1,03,1.0,47.2,M,46.9,M,,*6F
t174383,173998
$GPRMC,123005,A,5055.9634,N,00123.7558,W,000.1,161.5,120216,002.9,W*7E
$GPGGA,123005,5055.9634,N,00123.7558,W,1,03,1.0,47.2,M,46.9,M,,*6F
t175377,174997
$GPRMC,123006,A,5055.9634,N,00123.7559,W,000.3,161.5,120216,002.9,W*7E
$GPGGA,123006,5055.9634,N,00123.7559,W,1,03,1.0,47.2,M,46.9,M,,*6D
t176376,175996
$GPRMC,123007,A,5055.9635,N,00123.7560,W,000.4,161.5,120216,002.9,W*73
$GPGGA,123007,5055.9635,N,00123.7560,W,1,03,1.0,47.2,M,46.9,M,,*67
t177375,176996
$GPRMC,123008,A,5055.9636,N,00123.7561,W,000.3,161.5,120216,002.9,W*79
$GPGGA,123008,5055.9636,N,00123.7561,W,1,03,1.0,47.2,M,46.9,M,,*6A
t178378,177995
$GPRMC,123009,A,5055.9636,N,00123.7561,W,000.3,161.5,120216,002.9,W*78
$GPGGA,123009,5055.9636,N,00123.7561,W,1,03,1.0,47.2,M,46.9,M,,*6B
t179374,178995
$GPRMC,123010,A,5055.9637,N,00123.7562,W,000.1,161.5,120216,002.9,W*70
$GPGGA,123010,5055.9637,N,00123.7562,W,1,03,1.0,47.2,M,46.9,M,,*61
t180372,179994
$GPRMC,123011,A,5055.9637,N,00123.7563,W,000.1,161.5,120216,002.9,W*70
$GPGGA,123011,5055.9637,N,00123.7563,W,1,03,1.0,47.2,M,46.9,M,,*61
t181363,180994
$GPRMC,123012,A,5055.9637,N,00123.7563,W,000.2,161.5,120216,002.9,W*70
$GPGGA,123012,5055.9637,N,00123.7563,W,1,03,1.0,47.2,M,46.9,M,,*62
t182371,181993
$GPRMC,123013,A,5055.9636,N,00123.7562,W,000.1,161.5,120216,002.9,W*72
$GPGGA,123013,5055.9636,N,00123.7562,W,1,03,1.0,47.2,M,46.9,M,,*63
t183489,182993
$GPRMC,123014,A,5055.9636,N,00123.7562,W,000.1,161.5,120216,002.9,W*75
$GPGGA,123014,5055.9636,N,00123.7562,W,1,04,1.0,47.2,M,46.9,M,,*63
t184375,183993
$GPRMC,123015,A,5055.9636,N,00123.7562,W,000.0,161.5,120216,002.9,W*75
$GPGGA,123015,5055.9636,N,00123.7562,W,1,04,1.0,47.2,M,46.9,M,,*62
t185366,184992
$GPRMC,123016,A,5055.9636,N,00123.7562,W,000.1,161.5,120216,002.9,W*77
$GPGGA,123016,5055.9636,N,00123.7562,W,1,04,1.0,47.1,M,46.9,M,,*62
t186359,185992
$GPRMC,123017,A,5055.9636,N,00123.7562,W,000.1,161.5,120216,002.9,W*76
$GPGGA,123017,5055.9636,N,00123.7562,W,1,04,1.0,47.1,M,46.9,M,,*63
t187368,186991
$GPRMC,123018,A,5055.9636,N,00123.7563,W,000.2,161.5,120216,002.9,W*7B
$GPGGA,123018,5055.9636,N,00123.7563,W,1,04,1.0,47.1,M,46.9,M,,*6D
t188376,187991
$GPRMC,123019,A,5055.9636,N,00123.7563,W,000.1,161.5,120216,002.9,W*79
$GPGGA,123019,5055.9636,N,00123.7563,W,1,04,1.0,47.1,M,46.9,M,,*6C
t189367,188990
$GPRMC,123020,A,5055.9636,N,00123.7563,W,000.1,161.5,120216,002.9,W*73
$GPGGA,123020,5055.9636,N,00123.7563,W,1,04,1.0,47.1,M,46.9,M,,*66
t190365,189989
$GPRMC,123021,A,5055.9636,N,00123.7563,W,000.1,161.5,120216,002.9,W*72
$GPGGA,123021,5055.9636,N,00123.7563,W,1,04,1.0,47.1,M,46.9,M,,*67
t191373,190989
$GPRMC,123022,A,5055.9636,N,00123.7563,W,000.1,161.5,120216,002.9,W*71
$GPGGA,123022,5055.9636,N,00123.7563,W,1,04,1.0,47.1,M,46.9,M,,*64
t192356,191988
$GPRMC,123023,A,5055.9636,N,00123.7563,W,000.1,161.5,120216,002.9,W*70
$GPGGA,123023,5055.9636,N,00123.7563,W,1,04,1.0,47.1,M,46.9,M,,*65
t193364,192988
$GPRMC,123024,A,5055.9636,N,00123.7563,W,000.2,161.5,120216,002.9,W*74
$GPGGA,123024,5055.9636,N,00123.7563,W,1,04,1.0,47.1,M,46.9,M,,*62
t194369,193987
$GPRMC,123025,A,5055.9635,N,00123.7563,W,000.2,161.5,120216,002.9,W*76
$GPGGA,123025,5055.9635,N,00123.7563,W,1,04,1.0,47.0,M,46.9,M,,*61
t195361,194987
$GPRMC,123026,A,5055.9634,N,00123.7563,W,000.4,161.5,120216,002.9,W*72
$GPGGA,123026,5055.9634,N,00123.7563,W,1,04,1.0,47.0,M,46.9,M,,*63
t196364,195986
$GPRMC,123027,A,5055.9633,N,00123.7563,W,000.2,161.5,120216,002.9,W*72
$GPGGA,123027,5055.9633,N,00123.7563,W,1,04,1.0,47.0,M,46.9,M,,*65
t197361,196986
$GPRMC,123028,A,5055.9633,N,00123.7563,W,000.3,161.5,120216,002.9,W*7C
$GPGGA,123028,5055.9633,N,00123.7563,W,1,04,1.0,47.0,M,46.9,M,,*6A
t198369,197986
$GPRMC,123029,A,5055.9632,N,00123.7562,W,000.3,161.5,120216,002.9,W*7D
$GPGGA,123029,5055.9632,N,00123.7562,W,1,04,1.0,47.0,M,46.9,M,,*6B
t199352,198985
$GPRMC,123030,A,5055.9631,N,00123.7562,W,000.1,161.5,120216,002.9,W*74
$GPGGA,123030,5055.9631,N,00123.7562,W,1,04,1.0,47.0,M,46.9,M,,*60
t200361,199985
$GPRMC,123031,A,5055.9632,N,00123.7562,W,000.1,161.5,120216,002.9,W*76
$GPGGA,123031,5055.9632,N,00123.7562,W,1,04,1.0,47.0,M,46.9,M,,*62
t201360,200984
$GPRMC,123032,A,5055.9632,N,00123.7562,W,000.2,161.5,120216,002.9,W*76
$GPGGA,123032,5055.9632,N,00123.7562,W,1,04,1.0,47.0,M,46.9,M,,*61
t202359,201984
$GPRMC,123033,A,5055.9632,N,00123.7561,W,000.2,161.5,120216,002.9,W*74
$GPGGA,123033,5055.9632,N,00123.7561,W,1,04,1.0,47.0,M,46.9,M,,*63
t203367,202983
$GPRMC,123034,A,5055.9632,N,00123.7561,W,000.1,161.5,120216,002.9,W*70
$GPGGA,123034,5055.9632,N,00123.7561,W,1,04,1.0,47.0,M,46.9,M,,*64
t204357,203982
$GPRMC,123035,A,5055.9631,N,00123.7560,W,000.1,161.5,120216,002.9,W*73
$GPGGA,123035,5055.9631,N,00123.7560,W,1,04,1.0,47.0,M,46.9,M,,*67
t205359,204982
$GPRMC,123036,A,5055.9631,N,00123.7560,W,000.1,161.5,120216,002.9,W*70
$GPGGA,123036,5055.9631,N,00123.7560,W,1,04,1.0,47.0,M,46.9,M,,*64
t206349,205981
$GPRMC,123037,A,5055.9632,N,00123.7559,W,000.1,161.5,120216,002.9,W*78
$GPGGA,123037,5055.9632,N,00123.7559,W,1,04,1.0,47.0,M,46.9,M,,*6C
t207355,206981
$GPRMC,123038,A,5055.9631,N,00123.7560,W,000.2,161.5,120216,002.9,W*7D
$GPGGA,123038,5055.9631,N,00123.7560,W,1,04,1.0,46.9,M,46.9,M,,*62
t208364,207980
$GPRMC,123039,A,5055.9631,N,00123.7560,W,000.2,161.5,120216,002.9,W*7C
$GPGGA,123039,5055.9631,N,00123.7560,W,1,04,1.0,46.9,M,46.9,M,,*63
t209347,208979
$GPRMC,123040,A,5055.9630,N,00123.7561,W,000.1,161.5,120216,002.9,W*71
$GPGGA,123040,5055.9630,N,00123.7561,W,1,04,1.0,46.9,M,46.9,M,,*6D
t210347,209979
$GPRMC,123041,A,5055.9630,N,00123.7561,W,000.2,161.5,120216,002.9,W*73
$GPGGA,123041,5055.9630,N,00123.7561,W,1,04,1.0,46.9,M,46.9,M,,*6C
t211354,210979
$GPRMC,123042,A,5055.9629,N,00123.7561,W,000.3,161.5,120216,002.9,W*79
$GPGGA,123042,5055.9629,N,00123.7561,W,1,04,1.0,46.9,M,46.9,M,,*67
t212354,211979
$GPRMC,123043,A,5055.9629,N,00123.7562,W,000.2,161.5,120216,002.9,W*7A
$GPGGA,123043,5055.9629,N,00123.7562,W,1,04,1.0,46.9,M,46.9,M,,*65
t213353,212978
$GPRMC,123044,A,5055.9629,N,00123.7562,W,000.0,161.5,120216,002.9,W*7F
$GPGGA,123044,5055.9629,N,00123.7562,W,1,04,1.0,46.9,M,46.9,M,,*62
t214454,213978
$GPRMC,123045,A,5055.9629,N,00123.7562,W,000.1,161.5,120216,002.9,W*7F
$GPGGA,123045,5055.9629,N,00123.7562,W,1,04,1.0,46.9,M,46.9,M,,*63
t215354,214977
$GPRMC,123046,A,5055.9629,N,00123.7562,W,000.1,161.5,120216,002.9,W*7C
$GPGGA,123046,5055.9629,N,00123.7562,W,1,04,1.0,46.9,M,46.9,M,,*60
t216360,215976
$GPRMC,123047,A,5055.9629,N,00123.7562,W,000.1,161.5,120216,002.9,W*7D
$GPGGA,123047,5055.9629,N,00123.7562,W,1,04,1.0,46.9,M,46.9,M,,*61
t217345,216976
$GPRMC,123048,A,5055.9629,N,00123.7562,W,000.1,161.5,120216,002.9,W*72
$GPGGA,123048,5055.9629,N,00123.7562,W,1,04,1.0,46.9,M,46.9,M,,*6E
t218361,217975
$GPRMC,123049,A,5055.9629,N,00123.7562,W,000.1,161.5,120216,002.9,W*73
$GPGGA,123049,5055.9629,N,00123.7562,W,1,04,1.0,46.9,M,46.9,M,,*6F
t219352,218975
$GPRMC,123050,A,5055.9629,N,00123.7562,W,000.1,161.5,120216,002.9,W*7B
$GPGGA,123050,5055.9629,N,00123.7562,W,1,04,1.0,46.9,M,46.9,M,,*67
t220352,219974
$GPRMC,123051,A,5055.9629,N,00123.7561,W,000.1,161.5,120216,002.9,W*79
$GPGGA,123051,5055.9629,N,00123.7561,W,1,04,1.0,46.9,M,46.9,M,,*65
t221351,220974
$GPRMC,123052,A,5055.9629,N,00123.7562,W,000.2,161.5,120216,002.9,W*7A
$GPGGA,123052,5055.9629,N,00123.7562,W,1,04,1.0,46.9,M,46.9,M,,*65
t222346,221973
$GPRMC,123053,A,5055.9629,N,00123.7563,W,000.1,161.5,120216,002.9,W*79
$GPGGA,123053,5055.9629,N,00123.7563,W,1,04,1.0,46.9,M,46.9,M,,*65
t223353,222972
$GPRMC,123054,A,5055.9629,N,00123.7563,W,000.1,161.5,120216,002.9,W*7E
$GPGGA,123054,5055.9629,N,00123.7563,W,1,04,1.0,46.9,M,46.9,M,,*62
t224347,223972
$GPRMC,123055,A,5055.9628,N,00123.7563,W,000.0,161.5,120216,002.9,W*7F
$GPGGA,123055,5055.9628,N,00123.7563,W,1,04,1.0,46.9,M,46.9,M,,*62
t225340,224972
$GPRMC,123056,A,5055.9628,N,00123.7563,W,000.1,161.5,120216,002.9,W*7D
$GPGGA,123056,5055.9628,N,00123.7563,W,1,04,1.0,46.9,M,46.9,M,,*61
t226461,225972
$GPRMC,123057,A,5055.9628,N,00123.7563,W,000.1,161.5,120216,002.9,W*7C
$GPGGA,123057,5055.9628,N,00123.7563,W,1,04,1.0,46.9,M,46.9,M,,*60
t227338,226971
$GPRMC,123058,A,5055.9628,N,00123.7563,W,000.2,161.5,120216,002.9,W*70
$GPGGA,123058,5055.9628,N,00123.7563,W,1,04,1.0,46.8,M,46.9,M,,*6E
t228347,227971
$GPRMC,123059,A,5055.9628,N,00123.7563,W,000.2,161.5,120216,002.9,W*71
$GPGGA,123059,5055.9628,N,00123.7563,W,1,04,1.0,46.8,M,46.9,M,,*6F
t229339,228970
$GPRMC,123100,A,5055.9627,N,00123.7563,W,000.1,161.5,120216,002.9,W*70
$GPGGA,123100,5055.9627,N,00123.7563,W,1,04,1.0,46.8,M,46.9,M,,*6D
t230338,229969
$GPRMC,123101,A,5055.9627,N,00123.7563,W,000.1,161.5,120216,002.9,W*71
$GPGGA,123101,5055.9627,N,00123.7563,W,1,04,1.0,46.8,M,46.9,M,,*6C
t231343,230969
$GPRMC,123102,A,5055.9627,N,00123.7563,W,000.0,161.5,120216,002.9,W*73
$GPGGA,123102,5055.9627,N,00123.7563,W,1,04,1.0,46.8,M,46.9,M,,*6F
t232356,231968
$GPRMC,123103,A,5055.9627,N,00123.7563,W,000.1,161.5,120216,002.9,W*73
$GPGGA,123103,5055.9627,N,00123.7563,W,1,04,1.0,46.8,M,46.9,M,,*6E
t233352,232968
$GPRMC,123104,A,5055.9627,N,00123.7563,W,000.0,161.5,120216,002.9,W*75
$GPGGA,123104,5055.9627,N,00123.7563,W,1,04,1.0,46.8,M,46.9,M,,*69
t234335,233967
$GPRMC,123105,A,5055.9627,N,00123.7563,W,000.2,161.5,120216,002.9,W*76
$GPGGA,123105,5055.9627,N,00123.7563,W,1,04,1.0,46.8,M,46.9,M,,*68
t235342,234967
$GPRMC,123106,A,5055.9626,N,00123.7564,W,000.2,161.5,120216,002.9,W*73
$GPGGA,123106,5055.9626,N,00123.7564,W,1,04,1.0,46.8,M,46.9,M,,*6D
t236341,235966
$GPRMC,123107,A,5055.9626,N,00123.7564,W,000.2,161.5,120216,002.9,W*72
$GPGGA,123107,5055.9626,N,00123.7564,W,1,04,1.0,46.8,M,46.9,M,,*6C
t237340,236965
$GPRMC,123108,A,5055.9625,N,00123.7564,W,000.2,161.5,120216,002.9,W*7E
$GPGGA,123108,5055.9625,N,00123.7564,W,1,04,1.0,46.8,M,46.9,M,,*60
t238355,237965
$GPRMC,123109,A,5055.9625,N,00123.7565,W,000.2,161.5,120216,002.9,W*7E
$GPGGA,123109,5055.9625,N,00123.7565,W,1,04,1.0,46.8,M,46.9,M,,*60
t239338,238965
$GPRMC,123110,A,5055.9625,N,00123.7566,W,000.2,161.5,120216,002.9,W*75
$GPGGA,123110,5055.9625,N,00123.7566,W,1,04,1.0,46.8,M,46.9,M,,*6B
t240346,239965
$GPRMC,123111,A,5055.9625,N,00123.7567,W,000.2,161.5,120216,002.9,W*75
$GPGGA,123111,5055.9625,N,00123.7567,W,1,04,1.0,46.7,M,46.9,M,,*64
t241330,240964
$GPRMC,123112,A,5055.9625,N,00123.7567,W,000.1,161.5,120216,002.9,W*75
$GPGGA,123112,5055.9625,N,00123.7567,W,1,04,1.0,46.7,M,46.9,M,,*67
t242338,241964
$GPRMC,123113,A,5055.9625,N,00123.7567,W,000.2,161.5,120216,002.9,W*77
$GPGGA,123113,5055.9625,N,00123.7567,W,1,04,1.0,46.7,M,46.9,M,,*66
t243346,242963
$GPRMC,123114,A,5055.9625,N,00123.7566,W,000.1,161.5,120216,002.9,W*72
$GPGGA,123114,5055.9625,N,00123.7566,W,1,04,1.0,46.7,M,46.9,M,,*60
t244337,243962
$GPRMC,123115,A,5055.9625,N,00123.7566,W,000.2,161.5,120216,002.9,W*70
$GPGGA,123115,5055.9625,N,00123.7566,W,1,04,1.0,46.7,M,46.9,M,,*61
t245432,244962
$GPRMC,123116,A,5055.9625,N,00123.7565,W,000.2,161.5,120216,002.9,W*70
$GPGGA,123116,5055.9625,N,00123.7565,W,1,04,1.0,46.7,M,46.9,M,,*61
t246330,245961
$GPRMC,123117,A,5055.9624,N,00123.7565,W,000.2,161.5,120216,002.9,W*70
$GPGGA,123117,5055.9624,N,00123.7565,W,1,04,1.0,46.7,M,46.9,M,,*61
t247336,246961
$GPRMC,123118,A,5055.9624,N,00123.7564,W,000.2,161.5,120216,002.9,W*7E
$GPGGA,123118,5055.9624,N,00123.7564,W,1,04,1.0,46.7,M,46.9,M,,*6F
t248335,247960
$GPRMC,123119,A,5055.9623,N,00123.7563,W,000.1,161.5,120216,002.9,W*7C
$GPGGA,123119,5055.9623,N,00123.7563,W,1,04,1.0,46.7,M,46.9,M,,*6E
t249325,248960
$GPRMC,123120,A,5055.9623,N,00123.7563,W,000.2,161.5,120216,002.9,W*75
$GPGGA,123120,5055.9623,N,00123.7563,W,1,04,1.0,46.7,M,46.9,M,,*64
t250336,249959
$GPRMC,123121,A,5055.9623,N,00123.7564,W,000.2,161.5,120216,002.9,W*73
$GPGGA,123121,5055.9623,N,00123.7564,W,1,04,1.0,46.6,M,46.9,M,,*63
t251330,250958
$GPRMC,123122,A,5055.9623,N,00123.7565,W,000.0,161.5,120216,002.9,W*73
$GPGGA,123122,5055.9623,N,00123.7565,W,1,04,1.0,46.6,M,46.9,M,,*61
t252323,251958
$GPRMC,123123,A,5055.9623,N,00123.7565,W,000.1,161.5,120216,002.9,W*73
$GPGGA,123123,5055.9623,N,00123.7565,W,1,04,1.0,46.6,M,46.9,M,,*60
t253339,252957
$GPRMC,123124,A,5055.9623,N,00123.7565,W,000.1,161.5,120216,002.9,W*74
$GPGGA,123124,5055.9623,N,00123.7565,W,1,04,1.0,46.6,M,46.9,M,,*67
t254327,253958
$GPRMC,123125,A,5055.9623,N,00123.7566,W,000.2,161.5,120216,002.9,W*75
$GPGGA,123125,5055.9623,N,00123.7566,W,1,04,1.0,46.6,M,46.9,M,,*65
t255330,254957
$GPRMC,123126,A,5055.9623,N,00123.7567,W,000.0,161.5,120216,002.9,W*75
$GPGGA,123126,5055.9623,N,00123.7567,W,1,04,1.0,46.6,M,46.9,M,,*67
t256334,255956
$GPRMC,123127,A,5055.9623,N,00123.7567,W,000.1,161.5,120216,002.9,W*75
$GPGGA,123127,5055.9623,N,00123.7567,W,1,04,1.0,46.6,M,46.9,M,,*66
t257332,256956
$GPRMC,123128,A,5055.9623,N,00123.7567,W,000.2,161.5,120216,002.9,W*79
$GPGGA,123128,5055.9623,N,00123.7567,W,1,04,1.0,46.6,M,46.9,M,,*69
t258328,257955
$GPRMC,123129,A,5055.9623,N,00123.7568,W,000.2,161.5,120216,002.9,W*77
$GPGGA,123129,5055.9623,N,00123.7568,W,1,04,1.0,46.6,M,46.9,M,,*67
t259331,258955
$GPRMC,123130,A,5055.9623,N,00123.7568,W,000.1,161.5,120216,002.9,W*7C
$GPGGA,123130,5055.9623,N,00123.7568,W,1,04,1.0,46.6,M,46.9,M,,*6F
t260330,259954
$GPRMC,123131,A,5055.9623,N,00123.7568,W,000.1,161.5,120216,002.9,W*7D
$GPGGA,123131,5055.9623,N,00123.7568,W,1,04,1.0,46.6,M,46.9,M,,*6E
t261328,260954
$GPRMC,123132,A,5055.9622,N,00123.7569,W,000.2,161.5,120216,002.9,W*7D
$GPGGA,123132,5055.9622,N,00123.7569,W,1,04,1.0,46.6,M,46.9,M,,*6D
t262336,261953
$GPRMC,123133,A,5055.9621,N,00123.7569,W,000.4,161.5,120216,002.9,W*79
$GPGGA,123133,5055.9621,N,00123.7569,W,1,04,1.0,46.5,M,46.9,M,,*6C
t263335,262952
$GPRMC,123134,A,5055.9620,N,00123.7569,W,000.3,161.5,120216,002.9,W*78
$GPGGA,123134,5055.9620,N,00123.7569,W,1,04,1.0,46.5,M,46.9,M,,*6A
t264327,263952
$GPRMC,123135,A,5055.9619,N,00123.7569,W,000.3,161.5,120216,002.9,W*73
$GPGGA,123135,5055.9619,N,00123.7569,W,1,04,1.0,46.5,M,46.9,M,,*61
t265326,264951
$GPRMC,123136,A,5055.9619,N,00123.7570,W,000.2,161.5,120216,002.9,W*79
$GPGGA,123136,5055.9619,N,00123.7570,W,1,04,1.0,46.5,M,46.9,M,,*6A
t266324,265951
$GPRMC,123137,A,5055.9618,N,00123.7571,W,000.2,161.5,120216,002.9,W*78
$GPGGA,123137,5055.9618,N,00123.7571,W,1,04,1.0,46.5,M,46.9,M,,*6B
t267323,266950
$GPRMC,123138,A,5055.9618,N,00123.7571,W,000.1,161.5,120216,002.9,W*74
$GPGGA,123138,5055.9618,N,00123.7571,W,1,04,1.0,46.5,M,46.9,M,,*64
t268340,267951
$GPRMC,123139,A,5055.9618,N,00123.7571,W,000.2,161.5,120216,002.9,W*76
$GPGGA,123139,5055.9618,N,00123.7571,W,1,04,1.0,46.4,M,46.9,M,,*64
t269315,268950
$GPRMC,123140,A,5055.9617,N,00123.7571,W,000.3,161.5,120216,002.9,W*76
$GPGGA,123140,5055.9617,N,00123.7571,W,1,04,1.0,46.4,M,46.9,M,,*65
t270316,269949
$GPRMC,123141,A,5055.9617,N,00123.7570,W,000.1,161.5,120216,002.9,W*74
$GPGGA,123141,5055.9617,N,00123.7570,W,1,04,1.0,46.4,M,46.9,M,,*65
t271315,270949
$GPRMC,123142,A,5055.9617,N,00123.7570,W,000.2,161.5,120216,002.9,W*74
$GPGGA,123142,5055.9617,N,00123.7570,W,1,04,1.0,46.4,M,46.9,M,,*66
t272329,271948
$GPRMC,123143,A,5055.9617,N,00123.7569,W,000.2,161.5,120216,002.9,W*7D
$GPGGA,123143,5055.9617,N,00123.7569,W,1,04,1.0,46.4,M,46.9,M,,*6F
t273325,272948
$GPRMC,123144,A,5055.9616,N,00123.7568,W,000.2,161.5,120216,002.9,W*7A
$GPGGA,123144,5055.9616,N,00123.7568,W,1,04,1.0,46.4,M,46.9,M,,*68
t274327,273947
$GPRMC,123145,A,5055.9615,N,00123.7568,W,000.2,161.5,120216,002.9,W*78
$GPGGA,123145,5055.9615,N,00123.7568,W,1,04,1.0,46.4,M,46.9,M,,*6A
t275314,274947
$GPRMC,123146,A,5055.9615,N,00123.7569,W,000.3,161.5,120216,002.9,W*7B
$GPGGA,123146,5055.9615,N,00123.7569,W,1,04,1.0,46.4,M,46.9,M,,*68
t276415,275946
$GPRMC,123147,A,5055.9614,N,00123.7569,W,000.2,161.5,120216,002.9,W*7A
$GPGGA,123147,5055.9614,N,00123.7569,W,1,04,1.0,46.3,M,46.9,M,,*6F
t277320,276945
$GPRMC,123148,A,5055.9614,N,00123.7570,W,000.1,161.5,120216,002.9,W*7E
$GPGGA,123148,5055.9614,N,00123.7570,W,1,04,1.0,46.3,M,46.9,M,,*68
t278328,277945
$GPRMC,123149,A,5055.9614,N,00123.7571,W,000.1,161.5,120216,002.9,W*7E
$GPGGA,123149,5055.9614,N,00123.7571,W,1,04,1.0,46.3,M,46.9,M,,*68
t279318,278944
$GPRMC,123150,A,5055.9614,N,00123.7571,W,000.1,161.5,120216,002.9,W*76
$GPGGA,123150,5055.9614,N,00123.7571,W,1,04,1.0,46.3,M,46.9,M,,*60
t280331,279944
$GPRMC,123151,A,5055.9614,N,00123.7571,W,000.2,161.5,120216,002.9,W*74
$GPGGA,123151,5055.9614,N,00123.7571,W,1,04,1.0,46.3,M,46.9,M,,*61
t281318,280943
$GPRMC,123152,A,5055.9614,N,00123.7572,W,000.1,161.5,120216,002.9,W*77
$GPGGA,123152,5055.9614,N,00123.7572,W,1,04,1.0,46.3,M,46.9,M,,*61
t282315,281944
$GPRMC,123153,A,5055.9614,N,00123.7572,W,000.1,161.5,120216,002.9,W*76
$GPGGA,123153,5055.9614,N,00123.7572,W,1,04,1.0,46.3,M,46.9,M,,*60
t283326,282943
$GPRMC,123154,A,5055.9615,N,00123.7572,W,000.1,161.5,120216,002.9,W*70
$GPGGA,123154,5055.9615,N,00123.7572,W,1,04,1.0,46.3,M,46.9,M,,*66
t284317,283942
$GPRMC,123155,A,5055.9615,N,00123.7572,W,000.1,161.5,120216,002.9,W*71
$GPGGA,123155,5055.9615,N,00123.7572,W,1,04,1.0,46.3,M,46.9,M,,*67
t285318,284942
$GPRMC,123156,A,5055.9615,N,00123.7573,W,000.2,161.5,120216,002.9,W*70
$GPGGA,123156,5055.9615,N,00123.7573,W,1,04,1.0,46.3,M,46.9,M,,*65
t286329,285941
$GPRMC,123157,A,5055.9614,N,00123.7572,W,000.3,161.5,120216,002.9,W*70
$GPGGA,123157,5055.9614,N,00123.7572,W,1,04,1.0,46.3,M,46.9,M,,*64
t287314,286941
$GPRMC,123158,A,5055.9614,N,00123.7571,W,000.1,161.5,120216,002.9,W*7E
$GPGGA,123158,5055.9614,N,00123.7571,W,1,04,1.0,46.2,M,46.9,M,,*69
t288324,287940
$GPRMC,123159,A,5055.9613,N,00123.7570,W,000.1,161.5,120216,002.9,W*79
$GPGGA,123159,5055.9613,N,00123.7570,W,1,04,1.0,46.2,M,46.9,M,,*6E
t289316,288940
$GPRMC,123200,A,5055.9613,N,00123.7570,W,000.1,161.5,120216,002.9,W*76
$GPGGA,123200,5055.9613,N,00123.7570,W,1,04,1.0,46.2,M,46.9,M,,*61
t290312,289939
$GPRMC,123201,A,5055.9613,N,00123.7570,W,000.0,161.5,120216,002.9,W*76
$GPGGA,123201,5055.9613,N,00123.7570,W,1,04,1.0,46.2,M,46.9,M,,*60
t291314,290938
$GPRMC,123202,A,5055.9613,N,00123.7570,W,000.1,161.5,120216,002.9,W*74
$GPGGA,123202,5055.9613,N,00123.7570,W,1,04,1.0,46.2,M,46.9,M,,*63
t292320,291938
$GPRMC,123203,A,5055.9613,N,00123.7570,W,000.2,161.5,120216,002.9,W*76
$GPGGA,123203,5055.9613,N,00123.7570,W,1,04,1.0,46.2,M,46.9,M,,*62
t293319,292937
$GPRMC,123204,A,5055.9613,N,00123.7570,W,000.0,161.5,120216,002.9,W*73
$GPGGA,123204,5055.9613,N,00123.7570,W,1,04,1.0,46.2,M,46.9,M,,*65
t294315,293937
$GPRMC,123205,A,5055.9613,N,00123.7570,W,000.1,161.5,120216,002.9,W*73
$GPGGA,123205,5055.9613,N,00123.7570,W,1,04,1.0,46.2,M,46.9,M,,*64
t295310,294936
$GPRMC,123206,A,5055.9613,N,00123.7571,W,000.1,161.5,120216,002.9,W*71
$GPGGA,123206,5055.9613,N,00123.7571,W,1,04,1.0,46.2,M,46.9,M,,*66
t296309,295937
$GPRMC,123207,A,5055.9613,N,00123.7571,W,000.1,161.5,120216,002.9,W*70
$GPGGA,123207,5055.9613,N,00123.7571,W,1,04,1.0,46.2,M,46.9,M,,*67
t297300,296936
$GPRMC,123208,A,5055.9612,N,00123.7571,W,000.1,161.5,120216,002.9,W*7E
$GPGGA,123208,5055.9612,N,00123.7571,W,1,04,1.0,46.2,M,46.9,M,,*69
t298326,297935
$GPRMC,123209,A,5055.9612,N,00123.7571,W,000.2,161.5,120216,002.9,W*7C
$GPGGA,123209,5055.9612,N,00123.7571,W,1,04,1.0,46.2,M,46.9,M,,*68
t299300,298935
$GPRMC,123210,A,5055.9613,N,00123.7572,W,000.1,161.5,120216,002.9,W*75
$GPGGA,123210,5055.9613,N,00123.7572,W,1,04,1.0,46.1,M,46.9,M,,*61
t300302,299934
$GPRMC,123211,A,5055.9613,N,00123.7572,W,000.2,161.5,120216,002.9,W*77
$GPGGA,123211,5055.9613,N,00123.7572,W,1,04,1.0,46.1,M,46.9,M,,*60
t301309,300934
$GPRMC,123212,A,5055.9613,N,00123.7573,W,000.3,161.5,120216,002.9,W*74
$GPGGA,123212,5055.9613,N,00123.7573,W,1,04,1.0,46.1,M,46.9,M,,*62
t302398,301933
$GPRMC,123213,A,5055.9613,N,00123.7574,W,000.1,161.5,120216,002.9,W*70
$GPGGA,123213,5055.9613,N,00123.7574,W,1,04,1.0,46.1,M,46.9,M,,*64
t303308,302932
$GPRMC,123214,A,5055.9613,N,00123.7574,W,000.1,161.5,120216,002.9,W*77
$GPGGA,123214,5055.9613,N,00123.7574,W,1,04,1.0,46.1,M,46.9,M,,*63
t304314,303932
$GPRMC,123215,A,5055.9613,N,00123.7574,W,000.1,161.5,120216,002.9,W*76
$GPGGA,123215,5055.9613,N,00123.7574,W,1,04,1.0,46.1,M,46.9,M,,*62
t305299,304931
$GPRMC,123216,A,5055.9613,N,00123.7575,W,000.2,161.5,120216,002.9,W*77
$GPGGA,123216,5055.9613,N,00123.7575,W,1,04,1.0,46.0,M,46.9,M,,*61
t306305,305931
$GPRMC,123217,A,5055.9613,N,00123.7575,W,000.1,161.5,120216,002.9,W*75
$GPGGA,123217,5055.9613,N,00123.7575,W,1,04,1.0,46.0,M,46.9,M,,*60
t307400,306930
$GPRMC,123218,A,5055.9613,N,00123.7575,W,000.0,161.5,120216,002.9,W*7B
$GPGGA,123218,5055.9613,N,00123.7575,W,1,04,1.0,46.0,M,46.9,M,,*6F
t308303,307930
$GPRMC,123219,A,5055.9613,N,00123.7575,W,000.1,161.5,120216,002.9,W*7B
$GPGGA,123219,5055.9613,N,00123.7575,W,1,04,1.0,46.0,M,46.9,M,,*6E
t309305,308929
$GPRMC,123220,A,5055.9613,N,00123.7575,W,000.3,161.5,120216,002.9,W*73
$GPGGA,123220,5055.9613,N,00123.7575,W,1,04,1.0,46.0,M,46.9,M,,*64
t310306,309929
$GPRMC,123221,A,5055.9612,N,00123.7576,W,000.4,161.5,120216,002.9,W*77
$GPGGA,123221,5055.9612,N,00123.7576,W,1,04,1.0,45.9,M,46.9,M,,*6D
t311304,310929
$GPRMC,123222,A,5055.9612,N,00123.7577,W,000.5,161.5,120216,002.9,W*74
$GPGGA,123222,5055.9612,N,00123.7577,W,1,04,1.0,45.9,M,46.9,M,,*6F
t312306,311928
$GPRMC,123223,A,5055.9611,N,00123.7579,W,000.3,161.5,120216,002.9,W*7E
$GPGGA,123223,5055.9611,N,00123.7579,W,1,04,1.0,45.9,M,46.9,M,,*63
t313318,312928
$GPRMC,123224,A,5055.9610,N,00123.7580,W,000.3,161.5,120216,002.9,W*7E
$GPGGA,123224,5055.9610,N,00123.7580,W,1,04,1.0,45.9,M,46.9,M,,*63
t314295,313927
$GPRMC,123225,A,5055.9610,N,00123.7581,W,000.2,161.5,120216,002.9,W*7F
$GPGGA,123225,5055.9610,N,00123.7581,W,1,04,1.0,45.9,M,46.9,M,,*63
t315305,314927
$GPRMC,123226,A,5055.9610,N,00123.7582,W,000.3,161.5,120216,002.9,W*7E
$GPGGA,123226,5055.9610,N,00123.7582,W,1,04,1.0,45.9,M,46.9,M,,*63
t316307,315926
$GPRMC,123227,A,5055.9610,N,00123.7582,W,000.2,161.5,120216,002.9,W*7E
$GPGGA,123227,5055.9610,N,00123.7582,W,1,04,1.0,45.9,M,46.9,M,,*62
t317302,316925
$GPRMC,123228,A,5055.9610,N,00123.7583,W,000.3,161.5,120216,002.9,W*71
$GPGGA,123228,5055.9610,N,00123.7583,W,1,04,1.0,45.9,M,46.9,M,,*6C
t318307,317925
$GPRMC,123229,A,5055.9611,N,00123.7584,W,000.3,161.5,120216,002.9,W*76
$GPGGA,123229,5055.9611,N,00123.7584,W,1,04,1.0,45.9,M,46.9,M,,*6B
t319300,318924
$GPRMC,123230,A,5055.9611,N,00123.7585,W,000.2,161.5,120216,002.9,W*7E
$GPGGA,123230,5055.9611,N,00123.7585,W,1,04,1.0,45.9,M,46.9,M,,*62
t320289,319924
$GPRMC,123231,A,5055.9610,N,00123.7585,W,000.0,161.5,120216,002.9,W*7C
$GPGGA,123231,5055.9610,N,00123.7585,W,1,04,1.0,45.9,M,46.9,M,,*62
t321295,320923
$GPRMC,123232,A,5055.9610,N,00123.7585,W,000.1,161.5,120216,002.9,W*7E
$GPGGA,123232,5055.9610,N,00123.7585,W,1,04,1.0,45.9,M,46.9,M,,*61
t322302,321923
$GPRMC,123233,A,5055.9610,N,00123.7586,W,000.1,161.5,120216,002.9,W*7C
$GPGGA,123233,5055.9610,N,00123.7586,W,1,04,1.0,45.9,M,46.9,M,,*63
t323300,322922
$GPRMC,123234,A,5055.9610,N,00123.7586,W,000.3,161.5,120216,002.9,W*79
$GPGGA,123234,5055.9610,N,00123.7586,W,1,04,1.0,45.9,M,46.9,M,,*64
t324294,323922
$GPRMC,123235,A,5055.9609,N,00123.7587,W,000.2,161.5,120216,002.9,W*70
$GPGGA,123235,5055.9609,N,00123.7587,W,1,04,1.0,45.9,M,46.9,M,,*6C
t325295,324922
$GPRMC,123236,A,5055.9609,N,00123.7587,W,000.3,161.5,120216,002.9,W*72
$GPGGA,123236,5055.9609,N,00123.7587,W,1,04,1.0,45.9,M,46.9,M,,*6F
t326292,325921
$GPRMC,123237,A,5055.9608,N,00123.7588,W,000.4,161.5,120216,002.9,W*7A
$GPGGA,123237,5055.9608,N,00123.7588,W,1,04,1.0,45.9,M,46.9,M,,*60
t327305,326921
$GPRMC,123238,A,5055.9608,N,00123.7590,W,000.3,161.5,120216,002.9,W*7B
$GPGGA,123238,5055.9608,N,00123.7590,W,1,04,1.0,45.9,M,46.9,M,,*66
t328308,327920
$GPRMC,123239,A,5055.9608,N,00123.7591,W,000.3,161.5,120216,002.9,W*7B
$GPGGA,123239,5055.9608,N,00123.7591,W,1,04,1.0,45.9,M,46.9,M,,*66
t329293,328920
$GPRMC,123240,A,5055.9607,N,00123.7591,W,000.1,161.5,120216,002.9,W*78
$GPGGA,123240,5055.9607,N,00123.7591,W,1,04,1.0,45.9,M,46.9,M,,*67
t330304,329919
$GPRMC,123241,A,5055.9607,N,00123.7591,W,000.2,161.5,120216,002.9,W*7A
$GPGGA,123241,5055.9607,N,00123.7591,W,1,04,1.0,45.9,M,46.9,M,,*66
t331287,330918
$GPRMC,123242,A,5055.9606,N,00123.7591,W,000.3,161.5,120216,002.9,W*79
$GPGGA,123242,5055.9606,N,00123.7591,W,1,04,1.0,45.9,M,46.9,M,,*64
t332293,331918
$GPRMC,123243,A,5055.9606,N,00123.7592,W,000.4,161.5,120216,002.9,W*7C
$GPGGA,123243,5055.9606,N,00123.7592,W,1,04,1.0,45.9,M,46.9,M,,*66
t333306,332917
$GPRMC,123244,A,5055.9605,N,00123.7594,W,000.6,161.5,120216,002.9,W*7C
$GPGGA,123244,5055.9605,N,00123.7594,W,1,04,1.0,45.9,M,46.9,M,,*64
t334305,333917
$GPRMC,123245,A,5055.9603,N,00123.7591,W,000.5,161.5,120216,002.9,W*7D
$GPGGA,123245,5055.9603,N,00123.7591,W,1,04,1.0,45.9,M,46.9,M,,*66
t335288,334916
$GPRMC,123246,A,5055.9605,N,00123.7585,W,000.2,161.5,120216,002.9,W*7A
$GPGGA,123246,5055.9605,N,00123.7585,W,1,03,1.1,45.8,M,46.9,M,,*61
t336281,335916
$GPRMC,123247,A,5055.9607,N,00123.7585,W,000.2,161.5,120216,002.9,W*79
$GPGGA,123247,5055.9607,N,00123.7585,W,1,04,1.0,45.3,M,46.9,M,,*6F
t337288,336915
$GPRMC,123248,A,5055.9609,N,00123.7578,W,000.0,161.5,120216,002.9,W*78
$GPGGA,123248,5055.9609,N,00123.7578,W,1,04,1.0,45.1,M,46.9,M,,*6E
t338388,337915
$GPRMC,123249,A,5055.9609,N,00123.7578,W,000.0,161.5,120216,002.9,W*79
$GPGGA,123249,5055.9609,N,00123.7578,W,1,04,1.0,45.1,M,46.9,M,,*6F
t339294,338915
$GPRMC,123250,A,5055.9609,N,00123.7578,W,000.1,161.5,120216,002.9,W*70
$GPGGA,123250,5055.9609,N,00123.7578,W,1,04,1.0,45.1,M,46.9,M,,*67
t340303,339914
$GPRMC,123251,A,5055.9609,N,00123.7578,W,000.2,161.5,120216,002.9,W*72
$GPGGA,123251,5055.9609,N,00123.7578,W,1,04,1.0,45.1,M,46.9,M,,*66
t341294,340914
$GPRMC,123252,A,5055.9608,N,00123.7577,W,000.2,161.5,120216,002.9,W*7F
$GPGGA,123252,5055.9608,N,00123.7577,W,1,04,1.0,45.1,M,46.9,M,,*6B
t342287,341913
$GPRMC,123253,A,5055.9608,N,00123.7578,W,000.2,161.5,120216,002.9,W*71
$GPGGA,123253,5055.9608,N,00123.7578,W,1,04,1.0,45.1,M,46.9,M,,*65
t343303,342913
$GPRMC,123254,A,5055.9607,N,00123.7578,W,000.2,161.5,120216,002.9,W*79
$GPGGA,123254,5055.9607,N,00123.7578,W,1,04,1.0,45.1,M,46.9,M,,*6D
t344285,343912
$GPRMC,123255,A,5055.9607,N,00123.7578,W,000.2,161.5,120216,002.9,W*78
$GPGGA,123255,5055.9607,N,00123.7578,W,1,04,1.0,45.1,M,46.9,M,,*6C
t345283,344911
$GPRMC,123256,A,5055.9606,N,00123.7577,W,000.2,161.5,120216,002.9,W*75
$GPGGA,123256,5055.9606,N,00123.7577,W,1,04,1.0,45.0,M,46.9,M,,*60
t346305,345911
$GPRMC,123257,A,5055.9607,N,00123.7576,W,000.3,161.5,120216,002.9,W*75
$GPGGA,123257,5055.9607,N,00123.7576,W,1,04,1.0,45.0,M,46.9,M,,*61
t347284,346910
$GPRMC,123258,A,5055.9607,N,00123.7575,W,000.3,161.5,120216,002.9,W*79
$GPGGA,123258,5055.9607,N,00123.7575,W,1,04,1.0,45.0,M,46.9,M,,*6D
t348298,347910
$GPRMC,123259,A,5055.9607,N,00123.7574,W,000.4,161.5,120216,002.9,W*7E
$GPGGA,123259,5055.9607,N,00123.7574,W,1,04,1.0,45.0,M,46.9,M,,*6D
t349290,348909
$GPRMC,123300,A,5055.9607,N,00123.7572,W,000.3,161.5,120216,002.9,W*72
$GPGGA,123300,5055.9607,N,00123.7572,W,1,04,1.0,45.0,M,46.9,M,,*66
t350278,349908
$GPRMC,123301,A,5055.9607,N,00123.7571,W,000.2,161.5,120216,002.9,W*71
$GPGGA,123301,5055.9607,N,00123.7571,W,1,04,1.0,45.0,M,46.9,M,,*64
t351289,350908
$GPRMC,123302,A,5055.9607,N,00123.7570,W,000.0,161.5,120216,002.9,W*71
$GPGGA,123302,5055.9607,N,00123.7570,W,1,04,1.0,45.0,M,46.9,M,,*66
t352286,351908
$GPRMC,123303,A,5055.9607,N,00123.7570,W,000.1,161.5,120216,002.9,W*71
$GPGGA,123303,5055.9607,N,00123.7570,W,1,04,1.0,45.0,M,46.9,M,,*67
t353292,352908
$GPRMC,123304,A,5055.9607,N,00123.7570,W,000.1,161.5,120216,002.9,W*76
$GPGGA,123304,5055.9607,N,00123.7570,W,1,04,1.0,45.0,M,46.9,M,,*60
t354293,353907
$GPRMC,123305,A,5055.9607,N,00123.7570,W,000.3,161.5,120216,002.9,W*75
$GPGGA,123305,5055.9607,N,00123.7570,W,1,04,1.0,44.9,M,46.9,M,,*69
t355287,354907
$GPRMC,123306,A,5055.9608,N,00123.7570,W,000.2,161.5,120216,002.9,W*78
$GPGGA,123306,5055.9608,N,00123.7570,W,1,04,1.0,44.9,M,46.9,M,,*65
t356278,355906
$GPRMC,123307,A,5055.9609,N,00123.7569,W,000.2,161.5,120216,002.9,W*70
$GPGGA,123307,5055.9609,N,00123.7569,W,1,04,1.0,44.9,M,46.9,M,,*6D
t357287,356905
$GPRMC,123308,A,5055.9609,N,00123.7569,W,000.3,161.5,120216,002.9,W*7E
$GPGGA,123308,5055.9609,N,00123.7569,W,1,04,1.0,44.9,M,46.9,M,,*62
t358293,357905
$GPRMC,123309,A,5055.9610,N,00123.7569,W,000.2,161.5,120216,002.9,W*76
$GPGGA,123309,5055.9610,N,00123.7569,W,1,04,1.0,44.9,M,46.9,M,,*6B
t359283,358904
$GPRMC,123310,A,5055.9610,N,00123.7570,W,000.5,161.5,120216,002.9,W*71
$GPGGA,123310,5055.9610,N,00123.7570,W,1,04,1.0,44.9,M,46.9,M,,*6B
t360287,359904
$GPRMC,123311,A,5055.9609,N,00123.7572,W,000.4,161.5,120216,002.9,W*7B
$GPGGA,123311,5055.9609,N,00123.7572,W,1,04,1.0,44.9,M,46.9,M,,*60
t361285,360903
$GPRMC,123312,A,5055.9609,N,00123.7574,W,000.4,161.5,120216,002.9,W*7E
$GPGGA,123312,5055.9609,N,00123.7574,W,1,04,1.0,44.9,M,46.9,M,,*65
t362274,361903
$GPRMC,123313,A,5055.9609,N,00123.7575,W,000.2,161.5,120216,002.9,W*78
$GPGGA,123313,5055.9609,N,00123.7575,W,1,04,1.0,44.9,M,46.9,M,,*65
t363283,362902
$GPRMC,123314,A,5055.9609,N,00123.7576,W,000.1,161.5,120216,002.9,W*7F
$GPGGA,123314,5055.9609,N,00123.7576,W,1,04,1.0,44.9,M,46.9,M,,*61
t364291,363901
$GPRMC,123315,A,5055.9609,N,00123.7576,W,000.1,161.5,120216,002.9,W*7E
$GPGGA,123315,5055.9609,N,00123.7576,W,1,04,1.0,44.9,M,46.9,M,,*60
t365280,364901
$GPRMC,123316,A,5055.9609,N,00123.7576,W,000.1,161.5,120216,002.9,W*7D
$GPGGA,123316,5055.9609,N,00123.7576,W,1,04,1.0,44.9,M,46.9,M,,*63
t366271,365901
$GPRMC,123317,A,5055.9609,N,00123.7576,W,000.1,161.5,120216,002.9,W*7C
$GPGGA,123317,5055.9609,N,00123.7576,W,1,04,1.0,44.9,M,46.9,M,,*62
t367280,366901
$GPRMC,123318,A,5055.9609,N,00123.7576,W,000.1,161.5,120216,002.9,W*73
$GPGGA,123318,5055.9609,N,00123.7576,W,1,04,1.0,44.8,M,46.9,M,,*6C
t368285,367900
$GPRMC,123319,A,5055.9608,N,00123.7576,W,000.2,161.5,120216,002.9,W*70
$GPGGA,123319,5055.9608,N,00123.7576,W,1,04,1.0,44.8,M,46.9,M,,*6C
t369376,368900
$GPRMC,123320,A,5055.9608,N,00123.7576,W,000.3,161.5,120216,002.9,W*7B
$GPGGA,123320,5055.9608,N,00123.7576,W,1,04,1.0,44.8,M,46.9,M,,*66
t370291,369899
$GPRMC,123321,A,5055.9607,N,00123.7576,W,000.2,161.5,120216,002.9,W*74
$GPGGA,123321,5055.9607,N,00123.7576,W,1,04,1.0,44.8,M,46.9,M,,*68
t371272,370898
$GPRMC,123322,A,5055.9606,N,00123.7576,W,000.2,161.5,120216,002.9,W*76
$GPGGA,123322,5055.9606,N,00123.7576,W,1,04,1.0,44.8,M,46.9,M,,*6A
t372280,371898
$GPRMC,123323,A,5055.9606,N,00123.7576,W,000.2,161.5,120216,002.9,W*77
$GPGGA,123323,5055.9606,N,00123.7576,W,1,04,1.0,44.8,M,46.9,M,,*6B
t373279,372897
$GPRMC,123324,A,5055.9605,N,00123.7576,W,000.0,161.5,120216,002.9,W*71
$GPGGA,123324,5055.9605,N,00123.7576,W,1,04,1.0,44.8,M,46.9,M,,*6F
t374270,373897
$GPRMC,123325,A,5055.9605,N,00123.7576,W,000.2,161.5,120216,002.9,W*72
$GPGGA,123325,5055.9605,N,00123.7576,W,1,04,1.0,44.7,M,46.9,M,,*61
t375270,374896
$GPRMC,123326,A,5055.9605,N,00123.7577,W,000.2,161.5,120216,002.9,W*70
$GPGGA,123326,5055.9605,N,00123.7577,W,1,04,1.0,44.7,M,46.9,M,,*63
t376286,375896
$GPRMC,123327,A,5055.9605,N,00123.7576,W,000.4,161.5,120216,002.9,W*76
$GPGGA,123327,5055.9605,N,00123.7576,W,1,04,1.0,44.7,M,46.9,M,,*63
t377268,376895
$GPRMC,123328,A,5055.9604,N,00123.7575,W,000.4,161.5,120216,002.9,W*7B
$GPGGA,123328,5055.9604,N,00123.7575,W,1,04,1.0,44.7,M,46.9,M,,*6E
t378383,377894
$GPRMC,123329,A,5055.9603,N,00123.7574,W,000.1,161.5,120216,002.9,W*79
$GPGGA,123329,5055.9603,N,00123.7574,W,1,04,1.0,44.7,M,46.9,M,,*69
t379267,378894
$GPRMC,123330,A,5055.9603,N,00123.7573,W,000.1,161.5,120216,002.9,W*76
$GPGGA,123330,5055.9603,N,00123.7573,W,1,04,1.0,44.7,M,46.9,M,,*66
t380266,379894
$GPRMC,123331,A,5055.9603,N,00123.7573,W,000.1,161.5,120216,002.9,W*77
$GPGGA,123331,5055.9603,N,00123.7573,W,1,04,1.0,44.7,M,46.9,M,,*67
t381274,380894
$GPRMC,123332,A,5055.9603,N,00123.7572,W,000.3,161.5,120216,002.9,W*77
$GPGGA,123332,5055.9603,N,00123.7572,W,1,04,1.0,44.7,M,46.9,M,,*65
t382280,381893
$GPRMC,123333,A,5055.9603,N,00123.7571,W,000.2,161.5,120216,002.9,W*74
$GPGGA,123333,5055.9603,N,00123.7571,W,1,04,1.0,44.6,M,46.9,M,,*66
t383276,382893
$GPRMC,123334,A,5055.9603,N,00123.7570,W,000.2,161.5,120216,002.9,W*72
$GPGGA,123334,5055.9603,N,00123.7570,W,1,04,1.0,44.6,M,46.9,M,,*60
t384274,383892
$GPRMC,123335,A,5055.9602,N,00123.7569,W,000.3,161.5,120216,002.9,W*7B
$GPGGA,123335,5055.9602,N,00123.7569,W,1,04,1.0,44.6,M,46.9,M,,*68
t385274,384891
$GPRMC,123336,A,5055.9602,N,00123.7568,W,000.1,161.5,120216,002.9,W*7B
$GPGGA,123336,5055.9602,N,00123.7568,W,1,04,1.0,44.6,M,46.9,M,,*6A
t386263,385891
$GPRMC,123337,A,5055.9602,N,00123.7567,W,000.1,161.5,120216,002.9,W*75
$GPGGA,123337,5055.9602,N,00123.7567,W,1,04,1.0,44.6,M,46.9,M,,*64
t387280,386890
$GPRMC,123338,A,5055.9602,N,00123.7567,W,000.1,161.5,120216,002.9,W*7A
$GPGGA,123338,5055.9602,N,00123.7567,W,1,04,1.0,44.6,M,46.9,M,,*6B
t388288,387890
$GPRMC,123339,A,5055.9602,N,00123.7566,W,000.1,161.5,120216,002.9,W*7A
$GPGGA,123339,5055.9602,N,00123.7566,W,1,04,1.0,44.6,M,46.9,M,,*6B
t389269,388889
$GPRMC,123340,A,5055.9603,N,00123.7566,W,000.1,161.5,120216,002.9,W*75
$GPGGA,123340,5055.9603,N,00123.7566,W,1,04,1.0,44.6,M,46.9,M,,*64
t390269,389889
$GPRMC,123341,A,5055.9602,N,00123.7565,W,000.2,161.5,120216,002.9,W*75
$GPGGA,123341,5055.9602,N,00123.7565,W,1,04,1.0,44.5,M,46.9,M,,*64
t391269,390888
$GPRMC,123342,A,5055.9602,N,00123.7565,W,000.4,161.5,120216,002.9,W*70
$GPGGA,123342,5055.9602,N,00123.7565,W,1,04,1.0,44.5,M,46.9,M,,*67
t392262,391887
$GPRMC,123343,A,5055.9601,N,00123.7564,W,000.3,161.5,120216,002.9,W*74
$GPGGA,123343,5055.9601,N,00123.7564,W,1,04,1.0,44.5,M,46.9,M,,*64
t393278,392887
$GPRMC,123344,A,5055.9600,N,00123.7563,W,000.1,161.5,120216,002.9,W*77
