$GPGGA,170836.000,5055.9574,N,00123.7544,W,1,8,1.15,45.0,M,47.6,M,,*74
$GPRMC,170836.000,A,5055.9574,N,00123.7544,W,0.05,121.14,021215,,,A*78
t1244,793
$GPGGA,170837.000,5055.9574,N,00123.7538,W,1,8,1.15,44.8,M,47.6,M,,*77
$GPRMC,170837.000,A,5055.9574,N,00123.7538,W,0.21,121.14,021215,,,A*74
t2228,1794
$GPGGA,170838.000,5055.9573,N,00123.7534,W,1,8,1.15,44.4,M,47.6,M,,*7F
$GPRMC,170838.000,A,5055.9573,N,00123.7534,W,0.24,121.14,021215,,,A*75
t3250,2794
$GPGGA,170839.000,5055.9573,N,00123.7533,W,1,8,1.15,44.4,M,47.6,M,,*79
$GPRMC,170839.000,A,5055.9573,N,00123.7533,W,0.44,121.14,021215,,,A*75
t4183,3794
$GPGGA,170840.000,5055.9574,N,00123.7531,W,1,8,1.15,44.4,M,47.6,M,,*72
$GPRMC,170840.000,A,5055.9574,N,00123.7531,W,0.54,121.14,021215,,,A*7F
t5185,4795
$GPGGA,170841.000,5055.9573,N,00123.7534,W,1,8,1.15,44.7,M,47.6,M,,*72
$GPRMC,170841.000,A,5055.9573,N,00123.7534,W,0.26,121.14,021215,,,A*79
t6236,5795
$GPGGA,170842.000,5055.9572,N,00123.7534,W,1,8,1.15,44.9,M,47.6,M,,*7E
$GPRMC,170842.000,A,5055.9572,N,00123.7534,W,0.27,121.14,021215,,,A*7A
t7184,6796
$GPGGA,170843.000,5055.9572,N,00123.7534,W,1,8,1.15,45.0,M,47.6,M,,*77
$GPRMC,170843.000,A,5055.9572,N,00123.7534,W,0.29,121.14,021215,,,A*75
t8257,7796
$GPGGA,170844.000,5055.9571,N,00123.7533,W,1,8,1.15,45.3,M,47.6,M,,*77
$GPRMC,170844.000,A,5055.9571,N,00123.7533,W,0.28,121.14,021215,,,A*77
t9246,8797
$GPGGA,170845.000,5055.9570,N,00123.7533,W,1,8,1.15,45.4,M,47.6,M,,*70
$GPRMC,170845.000,A,5055.9570,N,00123.7533,W,0.26,121.14,021215,,,A*79
t10250,9797
$GPGGA,170846.000,5055.9570,N,00123.7533,W,1,8,1.15,45.4,M,47.6,M,,*73
$GPRMC,170846.000,A,5055.9570,N,00123.7533,W,0.33,121.14,021215,,,A*7E
t11181,10798
$GPGGA,170847.000,5055.9571,N,00123.7531,W,1,8,1.15,45.4,M,47.6,M,,*71
$GPRMC,170847.000,A,5055.9571,N,00123.7531,W,0.59,118.22,021215,,,A*7F
t12194,11798
$GPGGA,170848.000,5055.9572,N,00123.7528,W,1,7,1.30,45.5,M,47.6,M,,*7C
$GPRMC,170848.000,A,5055.9572,N,00123.7528,W,0.76,114.83,021215,,,A*71
t13184,12799
$GPGGA,170849.000,5055.9571,N,00123.7527,W,1,7,1.30,45.5,M,47.6,M,,*71
$GPRMC,170849.000,A,5055.9571,N,00123.7527,W,0.71,111.06,021215,,,A*73
t14194,13799
$GPGGA,170850.000,5055.9572,N,00123.7525,W,1,7,1.30,45.6,M,47.6,M,,*7B
$GPRMC,170850.000,A,5055.9572,N,00123.7525,W,0.64,109.28,021215,,,A*7B
t15202,14800
$GPGGA,170851.000,5055.9571,N,00123.7525,W,1,7,1.30,45.6,M,47.6,M,,*79
$GPRMC,170851.000,A,5055.9571,N,00123.7525,W,0.39,108.00,021215,,,A*7A
t16192,15801
$GPGGA,170852.000,5055.9570,N,00123.7525,W,1,7,1.30,45.8,M,47.6,M,,*75
$GPRMC,170852.000,A,5055.9570,N,00123.7525,W,0.22,107.74,021215,,,A*7E
t17196,16801
$GPGGA,170853.000,5055.9569,N,00123.7526,W,1,7,1.30,46.0,M,47.6,M,,*74
$GPRMC,170853.000,A,5055.9569,N,00123.7526,W,0.16,107.74,021215,,,A*73
t18191,17802
$GPGGA,170854.000,5055.9570,N,00123.7526,W,1,7,1.30,45.9,M,47.6,M,,*71
$GPRMC,170854.000,A,5055.9570,N,00123.7526,W,0.12,107.74,021215,,,A*78
t19192,18802
$GPGGA,170855.000,5055.9570,N,00123.7527,W,1,7,1.30,45.9,M,47.6,M,,*71
$GPRMC,170855.000,A,5055.9570,N,00123.7527,W,0.21,107.74,021215,,,A*78
t20255,19803
$GPGGA,170856.000,5055.9570,N,00123.7528,W,1,7,1.30,45.9,M,47.6,M,,*7D
$GPRMC,170856.000,A,5055.9570,N,00123.7528,W,0.22,107.74,021215,,,A*77
t21198,20803
$GPGGA,170857.000,5055.9570,N,00123.7528,W,1,7,1.30,45.9,M,47.6,M,,*7C
$GPRMC,170857.000,A,5055.9570,N,00123.7528,W,0.23,107.74,021215,,,A*77
t22194,21804
$GPGGA,170858.000,5055.9571,N,00123.7528,W,1,7,1.30,45.9,M,47.6,M,,*72
$GPRMC,170858.000,A,5055.9571,N,00123.7528,W,0.44,107.74,021215,,,A*78
t23232,22804
$GPGGA,170859.000,5055.9571,N,00123.7526,W,1,7,1.30,45.9,M,47.6,M,,*7D
$GPRMC,170859.000,A,5055.9571,N,00123.7526,W,0.64,80.52,021215,,,A*4F
t24231,23804
$GPGGA,170900.000,5055.9570,N,00123.7527,W,1,7,1.30,45.9,M,47.6,M,,*70
$GPRMC,170900.000,A,5055.9570,N,00123.7527,W,0.68,82.01,021215,,,A*4A
t25187,24805
$GPGGA,170901.000,5055.9571,N,00123.7528,W,1,7,1.30,45.9,M,47.6,M,,*7F
$GPRMC,170901.000,A,5055.9571,N,00123.7528,W,0.72,81.02,021215,,,A*4E
t26233,25805
$GPGGA,170902.000,5055.9572,N,00123.7528,W,1,7,1.30,45.8,M,47.6,M,,*7E
$GPRMC,170902.000,A,5055.9572,N,00123.7528,W,0.94,79.65,021215,,,A*40
t27260,26806
$GPGGA,170903.000,5055.9572,N,00123.7528,W,1,7,1.30,45.9,M,47.6,M,,*7E
$GPRMC,170903.000,A,5055.9572,N,00123.7528,W,0.92,78.46,021215,,,A*47
t28196,27806
$GPGGA,170904.000,5055.9573,N,00123.7528,W,1,7,1.30,46.0,M,47.6,M,,*72
$GPRMC,170904.000,A,5055.9573,N,00123.7528,W,0.89,77.34,021215,,,A*41
t29259,28807
$GPGGA,170905.000,5055.9574,N,00123.7528,W,1,7,1.30,46.1,M,47.6,M,,*75
$GPRMC,170905.000,A,5055.9574,N,00123.7528,W,0.82,76.06,021215,,,A*4C
t30243,29807
$GPGGA,170906.000,5055.9574,N,00123.7530,W,1,7,1.30,46.1,M,47.6,M,,*7F
$GPRMC,170906.000,A,5055.9574,N,00123.7530,W,0.50,76.06,021215,,,A*49
t31237,30808
$GPGGA,170907.000,5055.9573,N,00123.7532,W,1,7,1.30,46.2,M,47.6,M,,*78
$GPRMC,170907.000,A,5055.9573,N,00123.7532,W,0.14,76.06,021215,,,A*4D
t32202,31808
$GPGGA,170908.000,5055.9573,N,00123.7533,W,1,7,1.30,46.2,M,47.6,M,,*76
$GPRMC,170908.000,A,5055.9573,N,00123.7533,W,0.16,76.06,021215,,,A*41
t33174,32809
$GPGGA,170909.000,5055.9573,N,00123.7535,W,1,7,1.30,46.3,M,47.6,M,,*70
$GPRMC,170909.000,A,5055.9573,N,00123.7535,W,0.21,76.06,021215,,,A*42
t34202,33809
$GPGGA,170910.000,5055.9572,N,00123.7536,W,1,7,1.30,46.3,M,47.6,M,,*7A
$GPRMC,170910.000,A,5055.9572,N,00123.7536,W,0.13,76.06,021215,,,A*49
t35180,34810
$GPGGA,170911.000,5055.9572,N,00123.7537,W,1,7,1.30,46.2,M,47.6,M,,*7B
$GPRMC,170911.000,A,5055.9572,N,00123.7537,W,0.29,76.06,021215,,,A*40
t36182,35811
$GPGGA,170912.000,5055.9571,N,00123.7538,W,1,7,1.30,46.2,M,47.6,M,,*74
$GPRMC,170912.000,A,5055.9571,N,00123.7538,W,0.67,242.87,021215,,,A*79
t37206,36811
$GPGGA,170913.000,5055.9571,N,00123.7542,W,1,7,1.30,46.3,M,47.6,M,,*79
$GPRMC,170913.000,A,5055.9571,N,00123.7542,W,1.04,249.24,021215,,,A*73
t38188,37812
$GPGGA,170914.000,5055.9571,N,00123.7546,W,1,7,1.30,46.5,M,47.6,M,,*7C
$GPRMC,170914.000,A,5055.9571,N,00123.7546,W,1.22,247.81,021215,,,A*75
t39195,38812
$GPGGA,170915.000,5055.9570,N,00123.7552,W,1,7,1.30,46.7,M,47.6,M,,*7B
$GPRMC,170915.000,A,5055.9570,N,00123.7552,W,1.28,248.69,021215,,,A*73
t40202,39813
$GPGGA,170916.000,5055.9570,N,00123.7558,W,1,7,1.30,46.9,M,47.6,M,,*7C
$GPRMC,170916.000,A,5055.9570,N,00123.7558,W,1.33,247.47,021215,,,A*73
t41249,40813
$GPGGA,170917.000,5055.9569,N,00123.7562,W,1,7,1.30,47.0,M,47.6,M,,*74
$GPRMC,170917.000,A,5055.9569,N,00123.7562,W,1.30,244.69,021215,,,A*7F
t42200,41814
$GPGGA,170918.000,5055.9569,N,00123.7566,W,1,7,1.30,47.1,M,47.6,M,,*7E
$GPRMC,170918.000,A,5055.9569,N,00123.7566,W,1.25,245.10,021215,,,A*7F
t43209,42814
$GPGGA,170919.000,5055.9569,N,00123.7569,W,1,7,1.30,47.2,M,47.6,M,,*73
$GPRMC,170919.000,A,5055.9569,N,00123.7569,W,1.19,243.65,021215,,,A*7A
t44246,43815
$GPGGA,170920.000,5055.9569,N,00123.7573,W,1,7,1.30,47.3,M,47.6,M,,*73
$GPRMC,170920.000,A,5055.9569,N,00123.7573,W,1.15,248.30,021215,,,A*7C
t45258,44816
$GPGGA,170921.000,5055.9569,N,00123.7575,W,1,7,1.30,47.4,M,47.6,M,,*73
$GPRMC,170921.000,A,5055.9569,N,00123.7575,W,0.98,246.49,021215,,,A*7F
t46198,45816
$GPGGA,170922.000,5055.9569,N,00123.7577,W,1,7,1.30,47.5,M,47.6,M,,*73
$GPRMC,170922.000,A,5055.9569,N,00123.7577,W,0.95,247.83,021215,,,A*74
t47249,46817
$GPGGA,170923.000,5055.9568,N,00123.7580,W,1,7,1.30,47.6,M,47.6,M,,*78
$GPRMC,170923.000,A,5055.9568,N,00123.7580,W,0.76,247.67,021215,,,A*7B
t48242,47817
$GPGGA,170924.000,5055.9567,N,00123.7581,W,1,7,1.30,47.8,M,47.6,M,,*7F
$GPRMC,170924.000,A,5055.9567,N,00123.7581,W,0.72,233.09,021215,,,A*7D
t49210,48818
$GPGGA,170925.000,5055.9566,N,00123.7584,W,1,7,1.30,48.0,M,47.6,M,,*7D
$GPRMC,170925.000,A,5055.9566,N,00123.7584,W,0.72,233.90,021215,,,A*78
t50260,49818
$GPGGA,170926.000,5055.9566,N,00123.7586,W,1,8,0.98,48.1,M,47.6,M,,*71
$GPRMC,170926.000,A,5055.9566,N,00123.7586,W,0.72,234.52,021215,,,A*70
t51281,50819
$GPGGA,170927.000,5055.9566,N,00123.7587,W,1,8,0.98,48.2,M,47.6,M,,*72
$GPRMC,170927.000,A,5055.9566,N,00123.7587,W,0.47,234.52,021215,,,A*76
t52277,51819
$GPGGA,170928.000,5055.9566,N,00123.7587,W,1,8,0.98,48.2,M,47.6,M,,*7D
$GPRMC,170928.000,A,5055.9566,N,00123.7587,W,0.28,234.52,021215,,,A*70
t53257,52820
$GPGGA,170929.000,5055.9568,N,00123.7587,W,1,8,0.98,48.2,M,47.6,M,,*72
$GPRMC,170929.000,A,5055.9568,N,00123.7587,W,0.30,234.52,021215,,,A*76
t54183,53821
$GPGGA,170930.000,5055.9569,N,00123.7587,W,1,8,0.98,48.2,M,47.6,M,,*7B
$GPRMC,170930.000,A,5055.9569,N,00123.7587,W,0.26,234.64,021215,,,A*7D
t55197,54821
$GPGGA,170931.000,5055.9569,N,00123.7588,W,1,8,0.98,48.2,M,47.6,M,,*75
$GPRMC,170931.000,A,5055.9569,N,00123.7588,W,0.94,78.38,021215,,,A*49
t56184,55822
$GPGGA,170932.000,5055.9570,N,00123.7585,W,1,8,0.98,48.1,M,47.6,M,,*70
$GPRMC,170932.000,A,5055.9570,N,00123.7585,W,1.20,77.59,021215,,,A*49
t57230,56822
$GPGGA,170933.000,5055.9571,N,00123.7583,W,1,8,0.98,48.1,M,47.6,M,,*76
$GPRMC,170933.000,A,5055.9571,N,00123.7583,W,1.18,75.01,021215,,,A*4B
t58200,57823
$GPGGA,170934.000,5055.9571,N,00123.7582,W,1,8,0.98,48.1,M,47.6,M,,*70
$GPRMC,170934.000,A,5055.9571,N,00123.7582,W,1.24,71.66,021215,,,A*47
t59185,58823
$GPGGA,170935.000,5055.9572,N,00123.7581,W,1,8,0.98,48.1,M,47.6,M,,*71
$GPRMC,170935.000,A,5055.9572,N,00123.7581,W,1.39,67.29,021215,,,A*46
t60168,59824
$GPGGA,170936.000,5055.9573,N,00123.7578,W,1,8,0.98,48.1,M,47.6,M,,*75
$GPRMC,170936.000,A,5055.9573,N,00123.7578,W,1.39,65.22,021215,,,A*4B
t61216,60824
$GPGGA,170937.000,5055.9574,N,00123.7576,W,1,8,0.98,48.0,M,47.6,M,,*7C
$GPRMC,170937.000,A,5055.9574,N,00123.7576,W,1.34,65.09,021215,,,A*47
t62274,61825
$GPGGA,170938.000,5055.9575,N,00123.7573,W,1,8,0.98,48.0,M,47.6,M,,*77
$GPRMC,170938.000,A,5055.9575,N,00123.7573,W,0.95,63.95,021215,,,A*45
t63242,62826
$GPGGA,170939.000,5055.9575,N,00123.7572,W,1,8,0.98,47.9,M,47.6,M,,*71
$GPRMC,170939.000,A,5055.9575,N,00123.7572,W,0.67,63.30,021215,,,A*47
t64164,63826
$GPGGA,170940.000,5055.9575,N,00123.7573,W,1,8,0.98,47.8,M,47.6,M,,*7F
$GPRMC,170940.000,A,5055.9575,N,00123.7573,W,0.33,63.30,021215,,,A*49
t65281,64827
$GPGGA,170941.000,5055.9575,N,00123.7573,W,1,8,0.98,47.8,M,47.6,M,,*7E
$GPRMC,170941.000,A,5055.9575,N,00123.7573,W,0.08,63.30,021215,,,A*40
t66257,65827
$GPGGA,170942.000,5055.9575,N,00123.7574,W,1,8,0.98,47.7,M,47.6,M,,*75
$GPRMC,170942.000,A,5055.9575,N,00123.7574,W,0.31,63.30,021215,,,A*4E
t67204,66828
$GPGGA,170943.000,5055.9575,N,00123.7574,W,1,8,0.98,47.6,M,47.6,M,,*75
$GPRMC,170943.000,A,5055.9575,N,00123.7574,W,0.08,63.30,021215,,,A*45
t68275,67828
$GPGGA,170944.000,5055.9575,N,00123.7574,W,1,8,0.98,47.6,M,47.6,M,,*72
$GPRMC,170944.000,A,5055.9575,N,00123.7574,W,0.20,63.30,021215,,,A*48
t69289,68829
$GPGGA,170945.000,5055.9575,N,00123.7573,W,1,8,0.98,47.6,M,47.6,M,,*74
$GPRMC,170945.000,A,5055.9575,N,00123.7573,W,0.49,63.30,021215,,,A*41
t70217,69829
$GPGGA,170946.000,5055.9575,N,00123.7571,W,1,8,0.98,47.6,M,47.6,M,,*75
$GPRMC,170946.000,A,5055.9575,N,00123.7571,W,0.46,63.30,021215,,,A*4F
t71240,70830
$GPGGA,170947.000,5055.9575,N,00123.7569,W,1,8,0.98,47.6,M,47.6,M,,*7D
$GPRMC,170947.000,A,5055.9575,N,00123.7569,W,0.23,63.30,021215,,,A*44
t72205,71830
$GPGGA,170948.000,5055.9575,N,00123.7568,W,1,8,0.98,47.6,M,47.6,M,,*73
$GPRMC,170948.000,A,5055.9575,N,00123.7568,W,0.05,63.30,021215,,,A*4E
t73279,72831
$GPGGA,170949.000,5055.9575,N,00123.7568,W,1,8,0.98,47.6,M,47.6,M,,*72
$GPRMC,170949.000,A,5055.9575,N,00123.7568,W,0.13,63.30,021215,,,A*48
t74272,73831
$GPGGA,170950.000,5055.9575,N,00123.7569,W,1,8,0.98,47.6,M,47.6,M,,*7B
$GPRMC,170950.000,A,5055.9575,N,00123.7569,W,0.19,63.30,021215,,,A*4B
t75201,74831
$GPGGA,170951.000,5055.9574,N,00123.7569,W,1,8,0.98,47.5,M,47.6,M,,*78
$GPRMC,170951.000,A,5055.9574,N,00123.7569,W,0.22,63.30,021215,,,A*43
t76228,75832
$GPGGA,170952.000,5055.9574,N,00123.7568,W,1,8,0.98,47.5,M,47.6,M,,*7A
$GPRMC,170952.000,A,5055.9574,N,00123.7568,W,0.22,63.30,021215,,,A*41
t77229,76832
$GPGGA,170953.000,5055.9574,N,00123.7567,W,1,8,0.98,47.5,M,47.6,M,,*74
$GPRMC,170953.000,A,5055.9574,N,00123.7567,W,0.22,63.30,021215,,,A*4F
t78229,77833
$GPGGA,170954.000,5055.9573,N,00123.7567,W,1,8,0.98,47.5,M,47.6,M,,*74
$GPRMC,170954.000,A,5055.9573,N,00123.7567,W,0.16,63.30,021215,,,A*48
t79171,78833
$GPGGA,170955.000,5055.9573,N,00123.7567,W,1,8,0.98,47.5,M,47.6,M,,*75
$GPRMC,170955.000,A,5055.9573,N,00123.7567,W,0.32,63.30,021215,,,A*4F
t80218,79834
$GPGGA,170956.000,5055.9573,N,00123.7568,W,1,8,0.98,47.5,M,47.6,M,,*79
$GPRMC,170956.000,A,5055.9573,N,00123.7568,W,0.47,63.30,021215,,,A*41
t81210,80834
$GPGGA,170957.000,5055.9572,N,00123.7570,W,1,8,0.98,47.5,M,47.6,M,,*70
$GPRMC,170957.000,A,5055.9572,N,00123.7570,W,0.79,253.19,021215,,,A*7F
t81907,81835
$GPGGA,170958.000,5055.9572,N,00123.7575,W,1,8,0.98,47.5,M,47.6,M,,*7A
$GPRMC,170958.000,A,5055.9572,N,00123.7575,W,2.00,256.51,021215,,,A*70
t82918,82835
$GPGGA,170959.000,5055.9570,N,00123.7587,W,1,8,0.98,47.4,M,47.6,M,,*75
$GPRMC,170959.000,A,5055.9570,N,00123.7587,W,3.69,255.87,021215,,,A*78
t83920,83836
$GPGGA,171000.000,5055.9569,N,00123.7594,W,1,8,0.98,47.5,M,47.6,M,,*7A
$GPRMC,171000.000,A,5055.9569,N,00123.7594,W,3.73,254.12,021215,,,A*70
t84906,84836
$GPGGA,171001.000,5055.9571,N,00123.7599,W,1,8,0.98,47.6,M,47.6,M,,*7C
$GPRMC,171001.000,A,5055.9571,N,00123.7599,W,2.46,259.31,021215,,,A*7E
t85920,85836
$GPGGA,171002.000,5055.9572,N,00123.7603,W,1,9,0.91,47.9,M,47.6,M,,*7B
$GPRMC,171002.000,A,5055.9572,N,00123.7603,W,1.51,264.91,021215,,,A*7F
t86938,86837
$GPGGA,171003.000,5055.9572,N,00123.7603,W,1,8,0.98,48.1,M,47.6,M,,*75
$GPRMC,171003.000,A,5055.9572,N,00123.7603,W,0.79,274.10,021215,,,A*7D
t87920,87837
$GPGGA,171004.000,5055.9573,N,00123.7604,W,1,8,0.98,48.3,M,47.6,M,,*76
$GPRMC,171004.000,A,5055.9573,N,00123.7604,W,0.59,280.23,021215,,,A*75
t88908,88838
$GPGGA,171005.000,5055.9574,N,00123.7605,W,1,8,0.98,48.6,M,47.6,M,,*74
$GPRMC,171005.000,A,5055.9574,N,00123.7605,W,0.80,278.82,021215,,,A*7A
t89909,89838
$GPGGA,171006.000,5055.9573,N,00123.7605,W,1,8,0.98,48.8,M,47.6,M,,*7E
$GPRMC,171006.000,A,5055.9573,N,00123.7605,W,0.79,276.46,021215,,,A*7E
t90908,90839
$GPGGA,171007.000,5055.9572,N,00123.7605,W,1,8,0.98,49.0,M,47.6,M,,*77
$GPRMC,171007.000,A,5055.9572,N,00123.7605,W,0.79,253.23,021215,,,A*7A
t91922,91839
$GPGGA,171008.000,5055.9572,N,00123.7605,W,1,8,0.98,49.2,M,47.6,M,,*7A
$GPRMC,171008.000,A,5055.9572,N,00123.7605,W,0.97,255.39,021215,,,A*78
t92915,92840
$GPGGA,171009.000,5055.9573,N,00123.7607,W,1,8,0.98,49.3,M,47.6,M,,*79
$GPRMC,171009.000,A,5055.9573,N,00123.7607,W,1.16,264.48,021215,,,A*76
t93911,93840
$GPGGA,171010.000,5055.9574,N,00123.7608,W,1,8,0.98,49.5,M,47.6,M,,*7F
$GPRMC,171010.000,A,5055.9574,N,00123.7608,W,1.21,263.96,021215,,,A*76
t94924,94840
$GPGGA,171011.000,5055.9573,N,00123.7609,W,1,8,0.98,49.7,M,47.6,M,,*7A
$GPRMC,171011.000,A,5055.9573,N,00123.7609,W,0.93,264.99,021215,,,A*71
t95918,95841
$GPGGA,171012.000,5055.9574,N,00123.7611,W,1,8,0.98,49.9,M,47.6,M,,*79
$GPRMC,171012.000,A,5055.9574,N,00123.7611,W,0.47,264.99,021215,,,A*75
t96918,96841
$GPGGA,171013.000,5055.9574,N,00123.7609,W,1,8,0.98,49.8,M,47.6,M,,*70
$GPRMC,171013.000,A,5055.9574,N,00123.7609,W,0.08,264.99,021215,,,A*76
t97918,97842
$GPGGA,171014.000,5055.9574,N,00123.7607,W,1,8,0.98,49.7,M,47.6,M,,*76
$GPRMC,171014.000,A,5055.9574,N,00123.7607,W,0.08,264.99,021215,,,A*7F
t98930,98842
$GPGGA,171015.000,5055.9573,N,00123.7604,W,1,8,0.98,49.5,M,47.6,M,,*71
$GPRMC,171015.000,A,5055.9573,N,00123.7604,W,0.11,265.18,021215,,,A*7A
t99906,99843
$GPGGA,171016.000,5055.9573,N,00123.7604,W,1,8,0.98,49.7,M,47.6,M,,*70
$GPRMC,171016.000,A,5055.9573,N,00123.7604,W,0.15,265.09,021215,,,A*7D
t100907,100843
$GPGGA,171017.000,5055.9573,N,00123.7604,W,1,8,0.98,49.8,M,47.6,M,,*7E
$GPRMC,171017.000,A,5055.9573,N,00123.7604,W,0.10,265.09,021215,,,A*79
t101927,101844
$GPGGA,171018.000,5055.9573,N,00123.7604,W,1,8,0.98,49.9,M,47.6,M,,*70
$GPRMC,171018.000,A,5055.9573,N,00123.7604,W,0.80,76.88,021215,,,A*46
t102919,102844
$GPGGA,171019.000,5055.9575,N,00123.7598,W,1,8,0.98,49.9,M,47.6,M,,*71
$GPRMC,171019.000,A,5055.9575,N,00123.7598,W,1.50,70.01,021215,,,A*4C
t103927,103845
$GPGGA,171020.000,5055.9577,N,00123.7593,W,1,8,0.98,49.9,M,47.6,M,,*72
$GPRMC,171020.000,A,5055.9577,N,00123.7593,W,1.81,69.22,021215,,,A*4A
t104932,104845
$GPGGA,171021.000,5055.9577,N,00123.7588,W,1,8,0.98,49.9,M,47.6,M,,*79
$GPRMC,171021.000,A,5055.9577,N,00123.7588,W,2.06,69.46,021215,,,A*4F
t106216,105845
$GPGGA,171022.000,5055.9579,N,00123.7577,W,1,8,0.98,49.8,M,47.6,M,,*75
$GPRMC,171022.000,A,5055.9579,N,00123.7577,W,3.13,74.73,021215,,,A*4D
t107250,106846
$GPGGA,171023.000,5055.9581,N,00123.7568,W,1,8,0.98,49.7,M,47.6,M,,*72
$GPRMC,171023.000,A,5055.9581,N,00123.7568,W,4.53,71.70,021215,,,A*40
t108208,107846
$GPGGA,171024.000,5055.9583,N,00123.7557,W,1,7,1.20,49.5,M,47.6,M,,*74
$GPRMC,171024.000,A,5055.9583,N,00123.7557,W,4.13,68.63,021215,,,A*47
t109237,108847
$GPGGA,171025.000,5055.9586,N,00123.7547,W,1,7,1.20,49.2,M,47.6,M,,*76
$GPRMC,171025.000,A,5055.9586,N,00123.7547,W,3.33,67.09,021215,,,A*44
t110185,109848
$GPGGA,171026.000,5055.9588,N,00123.7540,W,1,8,0.98,48.8,M,47.6,M,,*7A
$GPRMC,171026.000,A,5055.9588,N,00123.7540,W,2.30,74.91,021215,,,A*4F
t111275,110849
$GPGGA,171027.000,5055.9589,N,00123.7535,W,1,8,0.98,48.4,M,47.6,M,,*74
$GPRMC,171027.000,A,5055.9589,N,00123.7535,W,1.60,73.11,021215,,,A*44
t112245,111849
$GPGGA,171028.000,5055.9588,N,00123.7532,W,1,8,0.98,48.0,M,47.6,M,,*79
$GPRMC,171028.000,A,5055.9588,N,00123.7532,W,1.13,74.33,021215,,,A*4E
t113244,112850
$GPGGA,171029.000,5055.9588,N,00123.7529,W,1,8,0.98,47.5,M,47.6,M,,*78
$GPRMC,171029.000,A,5055.9588,N,00123.7529,W,1.10,75.50,021215,,,A*42
t114251,113850
$GPGGA,171030.000,5055.9589,N,00123.7526,W,1,8,0.98,47.0,M,47.6,M,,*7B
$GPRMC,171030.000,A,5055.9589,N,00123.7526,W,1.31,74.32,021215,,,A*42
t115263,114850
$GPGGA,171031.000,5055.9590,N,00123.7524,W,1,8,0.98,46.5,M,47.6,M,,*74
$GPRMC,171031.000,A,5055.9590,N,00123.7524,W,1.30,71.95,021215,,,A*40
t116191,115851
$GPGGA,171032.000,5055.9592,N,00123.7522,W,1,8,0.98,46.1,M,47.6,M,,*77
$GPRMC,171032.000,A,5055.9592,N,00123.7522,W,1.26,68.49,021215,,,A*49
t117208,116851
$GPGGA,171033.000,5055.9592,N,00123.7521,W,1,8,0.98,45.7,M,47.6,M,,*70
$GPRMC,171033.000,A,5055.9592,N,00123.7521,W,0.63,63.03,021215,,,A*4E
t118209,117852
$GPGGA,171034.000,5055.9591,N,00123.7520,W,1,8,0.98,45.3,M,47.6,M,,*71
$GPRMC,171034.000,A,5055.9591,N,00123.7520,W,0.11,63.03,021215,,,A*4E
t119201,118853
$GPGGA,171035.000,5055.9590,N,00123.7522,W,1,8,0.98,45.3,M,47.6,M,,*73
$GPRMC,171035.000,A,5055.9590,N,00123.7522,W,0.17,63.03,021215,,,A*4A
t120201,119854
$GPGGA,171036.000,5055.9590,N,00123.7524,W,1,8,0.98,45.3,M,47.6,M,,*76
$GPRMC,171036.000,A,5055.9590,N,00123.7524,W,0.14,63.03,021215,,,A*4C
t121211,120854
$GPGGA,171037.000,5055.9590,N,00123.7526,W,1,8,0.98,45.3,M,47.6,M,,*75
$GPRMC,171037.000,A,5055.9590,N,00123.7526,W,0.12,63.03,021215,,,A*49
t122195,121855
$GPGGA,171038.000,5055.9590,N,00123.7527,W,1,8,0.98,45.1,M,47.6,M,,*79
$GPRMC,171038.000,A,5055.9590,N,00123.7527,W,0.09,63.03,021215,,,A*4D
t123266,122855
$GPGGA,171039.000,5055.9590,N,00123.7527,W,1,8,0.98,45.0,M,47.6,M,,*79
$GPRMC,171039.000,A,5055.9590,N,00123.7527,W,0.10,63.03,021215,,,A*44
t124192,123856
$GPGGA,171040.000,5055.9591,N,00123.7527,W,1,8,0.98,44.9,M,47.6,M,,*7E
$GPRMC,171040.000,A,5055.9591,N,00123.7527,W,0.06,63.03,021215,,,A*4C
t125235,124856
$GPGGA,171041.000,5055.9590,N,00123.7527,W,1,7,1.20,44.8,M,47.6,M,,*72
$GPRMC,171041.000,A,5055.9590,N,00123.7527,W,0.22,63.03,021215,,,A*4A
t126177,125856
$GPGGA,171042.000,5055.9591,N,00123.7527,W,1,7,1.20,44.7,M,47.6,M,,*7F
$GPRMC,171042.000,A,5055.9591,N,00123.7527,W,0.45,63.03,021215,,,A*49
t127179,126857
$GPGGA,171043.000,5055.9591,N,00123.7525,W,1,7,1.20,44.7,M,47.6,M,,*7C
$GPRMC,171043.000,A,5055.9591,N,00123.7525,W,0.50,63.03,021215,,,A*4E
t128239,127858
$GPGGA,171044.000,5055.9592,N,00123.7523,W,1,7,1.20,44.6,M,47.6,M,,*7F
$GPRMC,171044.000,A,5055.9592,N,00123.7523,W,0.42,63.03,021215,,,A*4F
t129211,128859
$GPGGA,171045.000,5055.9593,N,00123.7522,W,1,7,1.20,44.6,M,47.6,M,,*7E
$GPRMC,171045.000,A,5055.9593,N,00123.7522,W,0.25,63.03,021215,,,A*4F
t130244,129859
$GPGGA,171046.000,5055.9593,N,00123.7521,W,1,7,1.20,44.5,M,47.6,M,,*7D
$GPRMC,171046.000,A,5055.9593,N,00123.7521,W,0.15,63.03,021215,,,A*4C
t131210,130860
$GPGGA,171047.000,5055.9594,N,00123.7521,W,1,7,1.34,44.5,M,47.6,M,,*7E
$GPRMC,171047.000,A,5055.9594,N,00123.7521,W,0.15,63.03,021215,,,A*4A
t132242,131860
$GPGGA,171048.000,5055.9594,N,00123.7521,W,1,7,1.34,44.4,M,47.6,M,,*70
$GPRMC,171048.000,A,5055.9594,N,00123.7521,W,0.36,63.03,021215,,,A*44
t133254,132861
$GPGGA,171049.000,5055.9595,N,00123.7520,W,1,7,1.20,44.4,M,47.6,M,,*74
$GPRMC,171049.000,A,5055.9595,N,00123.7520,W,0.62,63.83,021215,,,A*4C
t134254,133861
$GPGGA,171050.000,5055.9595,N,00123.7522,W,1,7,1.20,44.3,M,47.6,M,,*79
$GPRMC,171050.000,A,5055.9595,N,00123.7522,W,0.45,63.83,021215,,,A*43
t135224,134861
$GPGGA,171051.000,5055.9596,N,00123.7525,W,1,7,1.20,44.2,M,47.6,M,,*7D
$GPRMC,171051.000,A,5055.9596,N,00123.7525,W,0.28,63.83,021215,,,A*4D
t136254,135862
$GPGGA,171052.000,5055.9595,N,00123.7528,W,1,7,1.34,44.2,M,47.6,M,,*75
$GPRMC,171052.000,A,5055.9595,N,00123.7528,W,0.32,63.83,021215,,,A*4B
t137247,136863
$GPGGA,171053.000,5055.9594,N,00123.7531,W,1,7,1.20,44.1,M,47.6,M,,*7B
$GPRMC,171053.000,A,5055.9594,N,00123.7531,W,0.32,63.83,021215,,,A*43
t138193,137864
$GPGGA,171054.000,5055.9594,N,00123.7532,W,1,7,1.20,44.1,M,47.6,M,,*7F
$GPRMC,171054.000,A,5055.9594,N,00123.7532,W,0.03,63.83,021215,,,A*45
t139212,138864
$GPGGA,171055.000,5055.9594,N,00123.7532,W,1,7,1.20,44.1,M,47.6,M,,*7E
$GPRMC,171055.000,A,5055.9594,N,00123.7532,W,0.26,63.83,021215,,,A*43
t140218,139865
$GPGGA,171056.000,5055.9594,N,00123.7531,W,1,7,1.20,44.1,M,47.6,M,,*7E
$GPRMC,171056.000,A,5055.9594,N,00123.7531,W,0.44,63.83,021215,,,A*47
t141229,140865
$GPGGA,171057.000,5055.9595,N,00123.7530,W,1,7,1.20,44.0,M,47.6,M,,*7E
$GPRMC,171057.000,A,5055.9595,N,00123.7530,W,0.42,63.83,021215,,,A*40
t142198,141866
$GPGGA,171058.000,5055.9596,N,00123.7529,W,1,8,0.98,44.0,M,47.6,M,,*77
$GPRMC,171058.000,A,5055.9596,N,00123.7529,W,0.19,63.83,021215,,,A*4A
t143208,142866
$GPGGA,171059.000,5055.9596,N,00123.7528,W,1,8,0.98,44.0,M,47.6,M,,*77
$GPRMC,171059.000,A,5055.9596,N,00123.7528,W,0.10,63.83,021215,,,A*43
t144279,143867
$GPGGA,171100.000,5055.9596,N,00123.7529,W,1,8,0.98,44.0,M,47.6,M,,*7B
$GPRMC,171100.000,A,5055.9596,N,00123.7529,W,0.05,63.83,021215,,,A*4B
t145217,144867
$GPGGA,171101.000,5055.9596,N,00123.7529,W,1,8,0.98,44.0,M,47.6,M,,*7A
$GPRMC,171101.000,A,5055.9596,N,00123.7529,W,0.08,63.83,021215,,,A*47
t146262,145868
$GPGGA,171102.000,5055.9596,N,00123.7529,W,1,8,0.98,44.0,M,47.6,M,,*79
$GPRMC,171102.000,A,5055.9596,N,00123.7529,W,0.10,63.83,021215,,,A*4D
t147231,146869
$GPGGA,171103.000,5055.9596,N,00123.7529,W,1,8,0.98,44.0,M,47.6,M,,*78
$GPRMC,171103.000,A,5055.9596,N,00123.7529,W,0.40,63.83,021215,,,A*49
t148219,147869
$GPGGA,171104.000,5055.9596,N,00123.7531,W,1,8,0.98,44.0,M,47.6,M,,*76
$GPRMC,171104.000,A,5055.9596,N,00123.7531,W,0.73,260.50,021215,,,A*78
t149220,148870
$GPGGA,171105.000,5055.9595,N,00123.7535,W,1,8,0.98,44.0,M,47.6,M,,*70
$GPRMC,171105.000,A,5055.9595,N,00123.7535,W,0.74,251.91,021215,,,A*76
t150222,149870
$GPGGA,171106.000,5055.9595,N,00123.7539,W,1,8,0.98,44.0,M,47.6,M,,*7F
$GPRMC,171106.000,A,5055.9595,N,00123.7539,W,0.80,251.04,021215,,,A*7E
t151266,150871
$GPGGA,171107.000,5055.9594,N,00123.7543,W,1,8,0.98,44.1,M,47.6,M,,*73
$GPRMC,171107.000,A,5055.9594,N,00123.7543,W,0.85,251.11,021215,,,A*72
t152282,151871
$GPGGA,171108.000,5055.9594,N,00123.7548,W,1,8,0.98,44.2,M,47.6,M,,*74
$GPRMC,171108.000,A,5055.9594,N,00123.7548,W,1.03,257.51,021215,,,A*7B
t153296,152872
$GPGGA,171109.000,5055.9594,N,00123.7553,W,1,8,0.98,44.2,M,47.6,M,,*7F
$GPRMC,171109.000,A,5055.9594,N,00123.7553,W,1.00,261.70,021215,,,A*75
t154283,153872
$GPGGA,171110.000,5055.9592,N,00123.7559,W,1,8,0.98,44.4,M,47.6,M,,*7D
$GPRMC,171110.000,A,5055.9592,N,00123.7559,W,0.78,260.30,021215,,,A*7A
t155238,154873
$GPGGA,171111.000,5055.9590,N,00123.7563,W,1,7,1.20,44.5,M,47.6,M,,*7B
$GPRMC,171111.000,A,5055.9590,N,00123.7563,W,0.75,257.85,021215,,,A*77
t156276,155873
$GPGGA,171112.000,5055.9588,N,00123.7567,W,1,8,0.98,44.6,M,47.6,M,,*7B
$GPRMC,171112.000,A,5055.9588,N,00123.7567,W,0.55,257.85,021215,,,A*7B
t157247,156873
$GPGGA,171113.000,5055.9587,N,00123.7569,W,1,8,0.98,44.6,M,47.6,M,,*7B
$GPRMC,171113.000,A,5055.9587,N,00123.7569,W,0.26,257.85,021215,,,A*7F
t158276,157874
$GPGGA,171114.000,5055.9587,N,00123.7571,W,1,8,0.98,44.6,M,47.6,M,,*75
$GPRMC,171114.000,A,5055.9587,N,00123.7571,W,0.19,257.85,021215,,,A*7D
t159246,158874
$GPGGA,171115.000,5055.9587,N,00123.7573,W,1,8,0.98,44.5,M,47.6,M,,*75
$GPRMC,171115.000,A,5055.9587,N,00123.7573,W,0.16,257.85,021215,,,A*71
t160218,159875
$GPGGA,171116.000,5055.9587,N,00123.7572,W,1,8,0.98,44.5,M,47.6,M,,*77
$GPRMC,171116.000,A,5055.9587,N,00123.7572,W,0.22,257.85,021215,,,A*74
t161234,160875
$GPGGA,171117.000,5055.9588,N,00123.7572,W,1,8,0.98,44.6,M,47.6,M,,*7A
$GPRMC,171117.000,A,5055.9588,N,00123.7572,W,0.23,257.85,021215,,,A*7B
t162225,161876
$GPGGA,171118.000,5055.9588,N,00123.7571,W,1,7,1.19,44.6,M,47.6,M,,*71
$GPRMC,171118.000,A,5055.9588,N,00123.7571,W,0.00,257.85,021215,,,A*76
t163208,162876
$GPGGA,171119.000,5055.9587,N,00123.7570,W,1,8,1.09,44.5,M,47.6,M,,*73
$GPRMC,171119.000,A,5055.9587,N,00123.7570,W,0.26,257.85,021215,,,A*7D
t164279,163877
$GPGGA,171120.000,5055.9587,N,00123.7571,W,1,7,1.19,44.5,M,47.6,M,,*76
$GPRMC,171120.000,A,5055.9587,N,00123.7571,W,0.29,257.85,021215,,,A*79
t165294,164877
$GPGGA,171121.000,5055.9587,N,00123.7572,W,1,7,1.19,44.4,M,47.6,M,,*75
$GPRMC,171121.000,A,5055.9587,N,00123.7572,W,0.27,257.85,021215,,,A*75
t166217,165877
$GPGGA,171122.000,5055.9588,N,00123.7574,W,1,7,1.19,44.3,M,47.6,M,,*78
$GPRMC,171122.000,A,5055.9588,N,00123.7574,W,0.25,257.85,021215,,,A*7D
t167272,166878
$GPGGA,171123.000,5055.9588,N,00123.7575,W,1,8,1.09,44.3,M,47.6,M,,*76
$GPRMC,171123.000,A,5055.9588,N,00123.7575,W,0.04,257.85,021215,,,A*7E
t168264,167878
$GPGGA,171124.000,5055.9587,N,00123.7576,W,1,7,1.19,44.2,M,47.6,M,,*72
$GPRMC,171124.000,A,5055.9587,N,00123.7576,W,0.27,257.85,021215,,,A*74
t169213,168879
$GPGGA,171125.000,5055.9586,N,00123.7577,W,1,8,0.98,44.2,M,47.6,M,,*74
$GPRMC,171125.000,A,5055.9586,N,00123.7577,W,0.57,257.85,021215,,,A*72
t170234,169879
$GPGGA,171126.000,5055.9586,N,00123.7576,W,1,7,1.19,44.1,M,47.6,M,,*72
$GPRMC,171126.000,A,5055.9586,N,00123.7576,W,0.60,72.99,021215,,,A*4C
t171256,170880
$GPGGA,171127.000,5055.9587,N,00123.7576,W,1,7,1.19,44.0,M,47.6,M,,*73
$GPRMC,171127.000,A,5055.9587,N,00123.7576,W,0.62,71.86,021215,,,A*43
t172269,171881
$GPGGA,171128.000,5055.9589,N,00123.7574,W,1,7,1.19,43.9,M,47.6,M,,*7E
$GPRMC,171128.000,A,5055.9589,N,00123.7574,W,0.64,69.67,021215,,,A*40
t173223,172882
$GPGGA,171129.000,5055.9589,N,00123.7572,W,1,7,1.19,43.8,M,47.6,M,,*78
$GPRMC,171129.000,A,5055.9589,N,00123.7572,W,0.47,69.67,021215,,,A*46
t174286,173882
$GPGGA,171130.000,5055.9589,N,00123.7571,W,1,7,1.20,43.7,M,47.6,M,,*76
$GPRMC,171130.000,A,5055.9589,N,00123.7571,W,0.20,69.67,021215,,,A*4C
t175268,174883
$GPGGA,171131.000,5055.9589,N,00123.7571,W,1,7,1.19,43.7,M,47.6,M,,*7D
$GPRMC,171131.000,A,5055.9589,N,00123.7571,W,0.16,69.67,021215,,,A*48
t176223,175883
$GPGGA,171132.000,5055.9588,N,00123.7572,W,1,7,1.19,43.6,M,47.6,M,,*7D
$GPRMC,171132.000,A,5055.9588,N,00123.7572,W,0.21,69.26,021215,,,A*48
t177280,176883
$GPGGA,171133.000,5055.9588,N,00123.7573,W,1,7,1.19,43.6,M,47.6,M,,*7D
$GPRMC,171133.000,A,5055.9588,N,00123.7573,W,0.22,69.45,021215,,,A*4E
t178278,177884
$GPGGA,171134.000,5055.9588,N,00123.7572,W,1,7,1.19,43.6,M,47.6,M,,*7B
$GPRMC,171134.000,A,5055.9588,N,00123.7572,W,0.55,69.45,021215,,,A*48
t179232,178884
$GPGGA,171135.000,5055.9588,N,00123.7569,W,1,6,1.38,43.5,M,47.6,M,,*71
$GPRMC,171135.000,A,5055.9588,N,00123.7569,W,0.99,64.09,021215,,,A*46
t180279,179885
$GPGGA,171136.000,5055.9589,N,00123.7570,W,1,6,1.38,43.4,M,47.6,M,,*7A
$GPRMC,171136.000,A,5055.9589,N,00123.7570,W,1.19,55.13,021215,,,A*4C
t181272,180886
$GPGGA,171137.000,5055.9592,N,00123.7568,W,1,7,1.19,43.1,M,47.6,M,,*7F
$GPRMC,171137.000,A,5055.9592,N,00123.7568,W,1.02,49.43,021215,,,A*4C
t182239,181887
$GPGGA,171138.000,5055.9594,N,00123.7566,W,1,6,1.38,42.9,M,47.6,M,,*73
$GPRMC,171138.000,A,5055.9594,N,00123.7566,W,0.76,45.87,021215,,,A*4D
t183242,182887
$GPGGA,171139.000,5055.9595,N,00123.7564,W,1,7,1.19,42.7,M,47.6,M,,*7D
$GPRMC,171139.000,A,5055.9595,N,00123.7564,W,0.50,45.87,021215,,,A*4B
t184241,183888
$GPGGA,171140.000,5055.9596,N,00123.7564,W,1,7,1.19,42.7,M,47.6,M,,*70
$GPRMC,171140.000,A,5055.9596,N,00123.7564,W,0.27,45.87,021215,,,A*46
t185228,184888
$GPGGA,171141.000,5055.9596,N,00123.7563,W,1,7,1.19,42.6,M,47.6,M,,*77
$GPRMC,171141.000,A,5055.9596,N,00123.7563,W,0.08,45.87,021215,,,A*4D
t186295,185888
$GPGGA,171142.000,5055.9596,N,00123.7562,W,1,8,1.09,42.4,M,47.6,M,,*79
$GPRMC,171142.000,A,5055.9596,N,00123.7562,W,0.25,45.87,021215,,,A*40
t187266,186889
$GPGGA,171143.000,5055.9596,N,00123.7563,W,1,6,1.38,42.4,M,47.6,M,,*75
$GPRMC,171143.000,A,5055.9596,N,00123.7563,W,0.19,45.87,021215,,,A*4F
t188276,187889
$GPGGA,171144.000,5055.9596,N,00123.7564,W,1,7,1.19,42.3,M,47.6,M,,*70
$GPRMC,171144.000,A,5055.9596,N,00123.7564,W,0.17,45.87,021215,,,A*41
t189254,188890
$GPGGA,171145.000,5055.9596,N,00123.7564,W,1,7,1.18,42.3,M,47.6,M,,*70
$GPRMC,171145.000,A,5055.9596,N,00123.7564,W,0.41,45.87,021215,,,A*43
t190316,189891
$GPGGA,171146.000,5055.9597,N,00123.7562,W,1,7,1.18,42.3,M,47.6,M,,*74
$GPRMC,171146.000,A,5055.9597,N,00123.7562,W,0.62,61.35,021215,,,A*49
t191263,190892
$GPGGA,171147.000,5055.9597,N,00123.7561,W,1,7,1.19,42.2,M,47.6,M,,*76
$GPRMC,171147.000,A,5055.9597,N,00123.7561,W,0.58,61.35,021215,,,A*42
t192255,191892
$GPGGA,171148.000,5055.9597,N,00123.7561,W,1,6,1.38,42.1,M,47.6,M,,*78
$GPRMC,171148.000,A,5055.9597,N,00123.7561,W,0.52,61.35,021215,,,A*47
t193281,192893
$GPGGA,171149.000,5055.9598,N,00123.7562,W,1,7,1.18,42.0,M,47.6,M,,*77
$GPRMC,171149.000,A,5055.9598,N,00123.7562,W,0.21,61.35,021215,,,A*4E
t194315,193893
$GPGGA,171150.000,5055.9598,N,00123.7562,W,1,6,1.38,42.0,M,47.6,M,,*7C
$GPRMC,171150.000,A,5055.9598,N,00123.7562,W,0.15,61.35,021215,,,A*41
t195305,194894
$GPGGA,171151.000,5055.9598,N,00123.7562,W,1,6,1.38,41.9,M,47.6,M,,*77
$GPRMC,171151.000,A,5055.9598,N,00123.7562,W,0.11,61.35,021215,,,A*44
t196270,195894
$GPGGA,171152.000,5055.9598,N,00123.7562,W,1,6,1.38,41.9,M,47.6,M,,*74
$GPRMC,171152.000,A,5055.9598,N,00123.7562,W,0.73,257.78,021215,,,A*7D
t197288,196894
$GPGGA,171153.000,5055.9598,N,00123.7562,W,1,6,1.38,41.8,M,47.6,M,,*74
$GPRMC,171153.000,A,5055.9598,N,00123.7562,W,0.90,244.75,021215,,,A*7E
t198280,197895
$GPGGA,171154.000,5055.9597,N,00123.7563,W,1,6,1.38,41.8,M,47.6,M,,*7D
$GPRMC,171154.000,A,5055.9597,N,00123.7563,W,0.92,243.89,021215,,,A*71
t199271,198895
$GPGGA,171155.000,5055.9596,N,00123.7563,W,1,6,1.38,41.7,M,47.6,M,,*72
$GPRMC,171155.000,A,5055.9596,N,00123.7563,W,0.86,242.54,021215,,,A*75
t200221,199896
$GPGGA,171156.000,5055.9595,N,00123.7565,W,1,7,1.18,41.7,M,47.6,M,,*77
$GPRMC,171156.000,A,5055.9595,N,00123.7565,W,0.59,226.05,021215,,,A*77
t201350,200896
$GPGGA,171157.000,5055.9595,N,00123.7566,W,1,7,1.18,41.7,M,47.6,M,,*75
$GPRMC,171157.000,A,5055.9595,N,00123.7566,W,0.27,226.05,021215,,,A*7C
t202281,201897
$GPGGA,171158.000,5055.9595,N,00123.7566,W,1,6,1.38,41.6,M,47.6,M,,*78
$GPRMC,171158.000,A,5055.9595,N,00123.7566,W,0.31,226.05,021215,,,A*74
t203239,202897
$GPGGA,171159.000,5055.9596,N,00123.7565,W,1,7,1.18,41.5,M,47.6,M,,*79
$GPRMC,171159.000,A,5055.9596,N,00123.7565,W,0.64,242.48,021215,,,A*7E
t204288,203898
$GPGGA,171200.000,5055.9596,N,00123.7566,W,1,6,1.38,41.5,M,47.6,M,,*76
$GPRMC,171200.000,A,5055.9596,N,00123.7566,W,0.99,243.90,021215,,,A*74
t205233,204898
$GPGGA,171201.000,5055.9596,N,00123.7567,W,1,6,1.38,41.5,M,47.6,M,,*76
$GPRMC,171201.000,A,5055.9596,N,00123.7567,W,0.82,246.90,021215,,,A*7B
t206244,205898
$GPGGA,171202.000,5055.9595,N,00123.7569,W,1,7,1.18,41.6,M,47.6,M,,*78
$GPRMC,171202.000,A,5055.9595,N,00123.7569,W,0.43,246.90,021215,,,A*78
t207310,206899
$GPGGA,171203.000,5055.9594,N,00123.7569,W,1,7,1.18,41.5,M,47.6,M,,*7B
$GPRMC,171203.000,A,5055.9594,N,00123.7569,W,0.26,246.90,021215,,,A*7B
t208321,207899
$GPGGA,171204.000,5055.9593,N,00123.7569,W,1,7,1.18,41.5,M,47.6,M,,*7B
$GPRMC,171204.000,A,5055.9593,N,00123.7569,W,0.26,246.90,021215,,,A*7B
t209322,208900
$GPGGA,171205.000,5055.9593,N,00123.7569,W,1,6,1.38,41.4,M,47.6,M,,*78
$GPRMC,171205.000,A,5055.9593,N,00123.7569,W,0.27,246.90,021215,,,A*7B
t210279,209900
$GPGGA,171206.000,5055.9593,N,00123.7568,W,1,6,1.38,41.5,M,47.6,M,,*7B
$GPRMC,171206.000,A,5055.9593,N,00123.7568,W,0.21,246.90,021215,,,A*7F
t211277,210901
$GPGGA,171207.000,5055.9593,N,00123.7567,W,1,6,1.38,41.5,M,47.6,M,,*75
$GPRMC,171207.000,A,5055.9593,N,00123.7567,W,0.20,246.90,021215,,,A*70
t212244,211901
$GPGGA,171208.000,5055.9593,N,00123.7566,W,1,6,1.38,41.5,M,47.6,M,,*7B
$GPRMC,171208.000,A,5055.9593,N,00123.7566,W,0.22,246.90,021215,,,A*7C
t213266,212902
$GPGGA,171209.000,5055.9594,N,00123.7565,W,1,6,1.38,41.5,M,47.6,M,,*7E
$GPRMC,171209.000,A,5055.9594,N,00123.7565,W,0.06,246.90,021215,,,A*7F
t214228,213902
$GPGGA,171210.000,5055.9594,N,00123.7565,W,1,7,1.18,41.5,M,47.6,M,,*75
$GPRMC,171210.000,A,5055.9594,N,00123.7565,W,0.13,246.90,021215,,,A*73
t215327,214903
$GPGGA,171211.000,5055.9594,N,00123.7566,W,1,7,1.18,41.5,M,47.6,M,,*77
$GPRMC,171211.000,A,5055.9594,N,00123.7566,W,0.49,246.90,021215,,,A*7E
t216274,215904
$GPGGA,171212.000,5055.9593,N,00123.7568,W,1,6,1.38,41.5,M,47.6,M,,*7E
$GPRMC,171212.000,A,5055.9593,N,00123.7568,W,0.71,237.91,021215,,,A*78
t217281,216904
$GPGGA,171213.000,5055.9592,N,00123.7568,W,1,6,1.38,41.6,M,47.6,M,,*7D
$GPRMC,171213.000,A,5055.9592,N,00123.7568,W,0.48,237.91,021215,,,A*72
t218282,217905
$GPGGA,171214.000,5055.9592,N,00123.7568,W,1,6,1.38,41.6,M,47.6,M,,*7A
$GPRMC,171214.000,A,5055.9592,N,00123.7568,W,0.26,237.91,021215,,,A*7D
t219302,218905
$GPGGA,171215.000,5055.9591,N,00123.7568,W,1,7,1.18,41.6,M,47.6,M,,*7B
$GPRMC,171215.000,A,5055.9591,N,00123.7568,W,0.31,237.91,021215,,,A*79
t220336,219906
$GPGGA,171216.000,5055.9591,N,00123.7568,W,1,7,1.18,41.6,M,47.6,M,,*78
$GPRMC,171216.000,A,5055.9591,N,00123.7568,W,0.39,237.91,021215,,,A*72
t221282,220906
$GPGGA,171217.000,5055.9592,N,00123.7567,W,1,7,1.18,41.6,M,47.6,M,,*75
$GPRMC,171217.000,A,5055.9592,N,00123.7567,W,0.41,237.91,021215,,,A*70
t222282,221907
$GPGGA,171218.000,5055.9593,N,00123.7567,W,1,7,1.18,41.6,M,47.6,M,,*7B
$GPRMC,171218.000,A,5055.9593,N,00123.7567,W,0.23,237.91,021215,,,A*7A
t223286,222907
$GPGGA,171219.000,5055.9593,N,00123.7566,W,1,7,1.18,41.6,M,47.6,M,,*7B
$GPRMC,171219.000,A,5055.9593,N,00123.7566,W,0.07,237.91,021215,,,A*7C
t224298,223908
$GPGGA,171220.000,5055.9593,N,00123.7565,W,1,6,1.67,41.5,M,47.6,M,,*78
$GPRMC,171220.000,A,5055.9593,N,00123.7565,W,0.05,237.91,021215,,,A*77
t225257,224908
$GPGGA,171221.000,5055.9593,N,00123.7565,W,1,6,1.38,41.5,M,47.6,M,,*73
$GPRMC,171221.000,A,5055.9593,N,00123.7565,W,0.19,237.91,021215,,,A*7B
t226258,225909
$GPGGA,171222.000,5055.9593,N,00123.7566,W,1,6,1.38,41.5,M,47.6,M,,*73
$GPRMC,171222.000,A,5055.9593,N,00123.7566,W,0.30,237.91,021215,,,A*70
t227211,226909
$GPGGA,171223.000,5055.9592,N,00123.7567,W,1,7,1.18,41.5,M,47.6,M,,*71
$GPRMC,171223.000,A,5055.9592,N,00123.7567,W,0.51,237.91,021215,,,A*76
t228279,227909
$GPGGA,171224.000,5055.9592,N,00123.7569,W,1,6,1.38,41.6,M,47.6,M,,*78
$GPRMC,171224.000,A,5055.9592,N,00123.7569,W,0.75,251.24,021215,,,A*77
t229304,228910
$GPGGA,171225.000,5055.9593,N,00123.7568,W,1,7,1.18,41.6,M,47.6,M,,*7A
$GPRMC,171225.000,A,5055.9593,N,00123.7568,W,0.80,241.51,021215,,,A*7F
t230351,229910
$GPGGA,171226.000,5055.9594,N,00123.7569,W,1,6,1.38,41.6,M,47.6,M,,*7C
$GPRMC,171226.000,A,5055.9594,N,00123.7569,W,0.82,244.25,021215,,,A*7E
t231316,230911
$GPGGA,171227.000,5055.9595,N,00123.7570,W,1,6,1.38,41.6,M,47.6,M,,*74
$GPRMC,171227.000,A,5055.9595,N,00123.7570,W,0.87,243.34,021215,,,A*74
t232290,231911
$GPGGA,171228.000,5055.9596,N,00123.7570,W,1,7,1.19,41.6,M,47.6,M,,*7A
$GPRMC,171228.000,A,5055.9596,N,00123.7570,W,0.70,232.22,021215,,,A*71
t233242,232912
$GPGGA,171229.000,5055.9595,N,00123.7570,W,1,7,1.19,41.6,M,47.6,M,,*78
$GPRMC,171229.000,A,5055.9595,N,00123.7570,W,0.67,215.40,021215,,,A*74
t234252,233912
$GPGGA,171230.000,5055.9594,N,00123.7571,W,1,8,1.09,41.6,M,47.6,M,,*7E
$GPRMC,171230.000,A,5055.9594,N,00123.7571,W,0.46,215.40,021215,,,A*7F
t235292,234913
$GPGGA,171231.000,5055.9594,N,00123.7571,W,1,8,1.09,41.6,M,47.6,M,,*7F
$GPRMC,171231.000,A,5055.9594,N,00123.7571,W,0.41,215.40,021215,,,A*79
t236342,235913
$GPGGA,171232.000,5055.9594,N,00123.7571,W,1,8,1.09,41.6,M,47.6,M,,*7C
$GPRMC,171232.000,A,5055.9594,N,00123.7571,W,0.37,215.40,021215,,,A*7B
t237325,236913
$GPGGA,171233.000,5055.9594,N,00123.7571,W,1,8,1.09,41.6,M,47.6,M,,*7D
$GPRMC,171233.000,A,5055.9594,N,00123.7571,W,0.32,215.40,021215,,,A*7F
t238341,237914
$GPGGA,171234.000,5055.9595,N,00123.7571,W,1,8,1.09,41.5,M,47.6,M,,*78
$GPRMC,171234.000,A,5055.9595,N,00123.7571,W,0.14,215.40,021215,,,A*7D
t239345,238914
$GPGGA,171235.000,5055.9596,N,00123.7570,W,1,8,1.09,41.5,M,47.6,M,,*7B
$GPRMC,171235.000,A,5055.9596,N,00123.7570,W,0.12,215.40,021215,,,A*78
t240363,239915
$GPGGA,171236.000,5055.9597,N,00123.7570,W,1,6,1.38,41.4,M,47.6,M,,*74
$GPRMC,171236.000,A,5055.9597,N,00123.7570,W,0.13,215.40,021215,,,A*7B
t241296,240916
$GPGGA,171237.000,5055.9597,N,00123.7571,W,1,7,1.18,41.4,M,47.6,M,,*77
$GPRMC,171237.000,A,5055.9597,N,00123.7571,W,0.38,215.40,021215,,,A*72
t242299,241917
$GPGGA,171238.000,5055.9598,N,00123.7571,W,1,7,1.18,41.3,M,47.6,M,,*70
$GPRMC,171238.000,A,5055.9598,N,00123.7571,W,0.41,215.40,021215,,,A*7C
t243318,242917
$GPGGA,171239.000,5055.9599,N,00123.7569,W,1,7,1.18,41.3,M,47.6,M,,*79
$GPRMC,171239.000,A,5055.9599,N,00123.7569,W,0.39,215.40,021215,,,A*7A
t244298,243918
$GPGGA,171240.000,5055.9599,N,00123.7568,W,1,7,1.18,41.2,M,47.6,M,,*77
$GPRMC,171240.000,A,5055.9599,N,00123.7568,W,0.23,215.40,021215,,,A*7E
t245290,244918
$GPGGA,171241.000,5055.9600,N,00123.7566,W,1,6,1.38,41.2,M,47.6,M,,*78
$GPRMC,171241.000,A,5055.9600,N,00123.7566,W,0.07,215.40,021215,,,A*74
t246252,245919
$GPGGA,171242.000,5055.9601,N,00123.7566,W,1,6,1.38,41.1,M,47.6,M,,*79
$GPRMC,171242.000,A,5055.9601,N,00123.7566,W,0.06,215.40,021215,,,A*77
t247263,246919
$GPGGA,171243.000,5055.9601,N,00123.7566,W,1,7,1.18,41.1,M,47.6,M,,*7B
$GPRMC,171243.000,A,5055.9601,N,00123.7566,W,0.07,215.40,021215,,,A*77
t248309,247919
$GPGGA,171244.000,5055.9601,N,00123.7567,W,1,7,1.23,41.0,M,47.6,M,,*74
$GPRMC,171244.000,A,5055.9601,N,00123.7567,W,0.08,215.40,021215,,,A*7E
t249316,248920
$GPGGA,171245.000,5055.9602,N,00123.7567,W,1,7,1.18,41.0,M,47.6,M,,*7E
$GPRMC,171245.000,A,5055.9602,N,00123.7567,W,0.08,215.40,021215,,,A*7C
t250358,249921
$GPGGA,171246.000,5055.9602,N,00123.7568,W,1,7,1.18,40.9,M,47.6,M,,*7A
$GPRMC,171246.000,A,5055.9602,N,00123.7568,W,0.08,215.40,021215,,,A*70
t251354,250922
$GPGGA,171247.000,5055.9602,N,00123.7567,W,1,7,1.18,40.9,M,47.6,M,,*74
$GPRMC,171247.000,A,5055.9602,N,00123.7567,W,0.10,215.40,021215,,,A*77
t252351,251922
$GPGGA,171248.000,5055.9601,N,00123.7567,W,1,7,1.18,40.9,M,47.6,M,,*78
$GPRMC,171248.000,A,5055.9601,N,00123.7567,W,0.19,215.40,021215,,,A*72
t253363,252923
$GPGGA,171249.000,5055.9600,N,00123.7568,W,1,7,1.18,40.9,M,47.6,M,,*77
$GPRMC,171249.000,A,5055.9600,N,00123.7568,W,0.22,215.40,021215,,,A*75
t254310,253923
$GPGGA,171250.000,5055.9601,N,00123.7567,W,1,7,1.18,40.8,M,47.6,M,,*70
$GPRMC,171250.000,A,5055.9601,N,00123.7567,W,0.19,215.40,021215,,,A*7B
t255333,254924
$GPGGA,171251.000,5055.9602,N,00123.7567,W,1,7,1.18,40.7,M,47.6,M,,*7D
$GPRMC,171251.000,A,5055.9602,N,00123.7567,W,0.16,215.40,021215,,,A*76
t256294,255924
$GPGGA,171252.000,5055.9602,N,00123.7567,W,1,7,1.18,40.7,M,47.6,M,,*7E
$GPRMC,171252.000,A,5055.9602,N,00123.7567,W,0.13,215.40,021215,,,A*70
t257365,256924
$GPGGA,171253.000,5055.9604,N,00123.7567,W,1,7,1.23,40.6,M,47.6,M,,*70
$GPRMC,171253.000,A,5055.9604,N,00123.7567,W,0.14,215.40,021215,,,A*70
t258304,257925
$GPGGA,171254.000,5055.9605,N,00123.7567,W,1,7,1.18,40.6,M,47.6,M,,*7E
$GPRMC,171254.000,A,5055.9605,N,00123.7567,W,0.49,215.40,021215,,,A*7E
t259353,258926
$GPGGA,171255.000,5055.9606,N,00123.7565,W,1,6,1.38,40.5,M,47.6,M,,*7E
$GPRMC,171255.000,A,5055.9606,N,00123.7565,W,0.56,215.40,021215,,,A*70
t260303,259927
$GPGGA,171256.000,5055.9607,N,00123.7564,W,1,7,1.18,40.5,M,47.6,M,,*7E
$GPRMC,171256.000,A,5055.9607,N,00123.7564,W,0.40,215.40,021215,,,A*74
t261360,260927
$GPGGA,171257.000,5055.9608,N,00123.7563,W,1,7,1.18,40.5,M,47.6,M,,*77
$GPRMC,171257.000,A,5055.9608,N,00123.7563,W,0.30,215.40,021215,,,A*7A
t262349,261928
$GPGGA,171258.000,5055.9609,N,00123.7563,W,1,7,1.18,40.5,M,47.6,M,,*79
$GPRMC,171258.000,A,5055.9609,N,00123.7563,W,0.17,215.40,021215,,,A*71
t263284,262928
$GPGGA,171259.000,5055.9609,N,00123.7563,W,1,7,1.18,40.5,M,47.6,M,,*78
$GPRMC,171259.000,A,5055.9609,N,00123.7563,W,0.21,215.40,021215,,,A*75
t264285,263929
$GPGGA,171300.000,5055.9608,N,00123.7564,W,1,7,1.18,40.5,M,47.6,M,,*73
$GPRMC,171300.000,A,5055.9608,N,00123.7564,W,0.15,215.40,021215,,,A*79
t265307,264929
$GPGGA,171301.000,5055.9608,N,00123.7563,W,1,7,1.18,40.6,M,47.6,M,,*76
$GPRMC,171301.000,A,5055.9608,N,00123.7563,W,0.16,215.40,021215,,,A*7C
t266279,265930
$GPGGA,171302.000,5055.9608,N,00123.7563,W,1,7,1.18,40.6,M,47.6,M,,*75
$GPRMC,171302.000,A,5055.9608,N,00123.7563,W,0.10,215.40,021215,,,A*79
t267309,266930
$GPGGA,171303.000,5055.9608,N,00123.7563,W,1,7,1.18,40.6,M,47.6,M,,*74
$GPRMC,171303.000,A,5055.9608,N,00123.7563,W,0.27,215.40,021215,,,A*7C
t268301,267931
$GPGGA,171304.000,5055.9608,N,00123.7564,W,1,7,1.18,40.6,M,47.6,M,,*74
$GPRMC,171304.000,A,5055.9608,N,00123.7564,W,0.51,215.40,021215,,,A*7D
t269283,268932
$GPGGA,171305.000,5055.9606,N,00123.7564,W,1,7,1.18,40.6,M,47.6,M,,*7B
$GPRMC,171305.000,A,5055.9606,N,00123.7564,W,0.49,215.40,021215,,,A*7B
t270307,269932
$GPGGA,171306.000,5055.9605,N,00123.7564,W,1,7,1.18,40.7,M,47.6,M,,*7A
$GPRMC,171306.000,A,5055.9605,N,00123.7564,W,0.30,215.40,021215,,,A*75
t271362,270933
$GPGGA,171307.000,5055.9604,N,00123.7565,W,1,7,1.18,40.7,M,47.6,M,,*7B
$GPRMC,171307.000,A,5055.9604,N,00123.7565,W,0.27,215.40,021215,,,A*72
t272356,271933
$GPGGA,171308.000,5055.9602,N,00123.7565,W,1,7,1.18,40.7,M,47.6,M,,*72
$GPRMC,171308.000,A,5055.9602,N,00123.7565,W,0.27,215.40,021215,,,A*7B
t273388,272934
$GPGGA,171309.000,5055.9602,N,00123.7564,W,1,7,1.18,40.7,M,47.6,M,,*72
$GPRMC,171309.000,A,5055.9602,N,00123.7564,W,0.49,215.40,021215,,,A*73
t274369,273934
$GPGGA,171310.000,5055.9600,N,00123.7564,W,1,7,1.18,40.7,M,47.6,M,,*78
$GPRMC,171310.000,A,5055.9600,N,00123.7564,W,0.77,76.48,021215,,,A*4B
t275316,274935
$GPGGA,171311.000,5055.9599,N,00123.7563,W,1,7,1.18,40.7,M,47.6,M,,*7D
$GPRMC,171311.000,A,5055.9599,N,00123.7563,W,0.97,75.47,021215,,,A*4C
t276330,275936
$GPGGA,171312.000,5055.9597,N,00123.7562,W,1,7,1.18,40.7,M,47.6,M,,*71
$GPRMC,171312.000,A,5055.9597,N,00123.7562,W,0.70,72.18,021215,,,A*44
t277313,276936
$GPGGA,171313.000,5055.9596,N,00123.7563,W,1,7,1.18,40.7,M,47.6,M,,*70
$GPRMC,171313.000,A,5055.9596,N,00123.7563,W,0.70,71.37,021215,,,A*4B
t278370,277937
$GPGGA,171314.000,5055.9596,N,00123.7562,W,1,7,1.18,40.6,M,47.6,M,,*77
$GPRMC,171314.000,A,5055.9596,N,00123.7562,W,0.72,68.11,021215,,,A*43
t279340,278937
$GPGGA,171315.000,5055.9596,N,00123.7561,W,1,7,1.18,40.6,M,47.6,M,,*75
$GPRMC,171315.000,A,5055.9596,N,00123.7561,W,0.95,66.71,021215,,,A*40
t280368,279938
$GPGGA,171316.000,5055.9596,N,00123.7561,W,1,7,1.18,40.6,M,47.6,M,,*76
$GPRMC,171316.000,A,5055.9596,N,00123.7561,W,1.02,57.79,021215,,,A*46
t281367,280938
$GPGGA,171317.000,5055.9597,N,00123.7560,W,1,7,1.18,40.5,M,47.6,M,,*74
$GPRMC,171317.000,A,5055.9597,N,00123.7560,W,1.07,52.13,021215,,,A*4B
t282368,281939
$GPGGA,171318.000,5055.9598,N,00123.7560,W,1,7,1.18,40.5,M,47.6,M,,*74
$GPRMC,171318.000,A,5055.9598,N,00123.7560,W,1.02,44.47,021215,,,A*48
t283362,282939
$GPGGA,171319.000,5055.9597,N,00123.7562,W,1,7,1.18,40.4,M,47.6,M,,*79
$GPRMC,171319.000,A,5055.9597,N,00123.7562,W,0.99,42.36,021215,,,A*47
t284309,283940
$GPGGA,171320.000,5055.9598,N,00123.7561,W,1,7,1.18,40.3,M,47.6,M,,*78
$GPRMC,171320.000,A,5055.9598,N,00123.7561,W,0.80,33.68,021215,,,A*44
t285345,284941
$GPGGA,171321.000,5055.9598,N,00123.7561,W,1,7,1.18,40.2,M,47.6,M,,*78
$GPRMC,171321.000,A,5055.9598,N,00123.7561,W,0.54,33.68,021215,,,A*4C
t286317,285942
$GPGGA,171322.000,5055.9598,N,00123.7562,W,1,7,1.18,40.2,M,47.6,M,,*78
$GPRMC,171322.000,A,5055.9598,N,00123.7562,W,0.34,33.68,021215,,,A*4A
t287311,286942
$GPGGA,171323.000,5055.9598,N,00123.7561,W,1,7,1.18,40.2,M,47.6,M,,*7A
$GPRMC,171323.000,A,5055.9598,N,00123.7561,W,0.36,33.68,021215,,,A*4A
t288315,287942
$GPGGA,171324.000,5055.9599,N,00123.7561,W,1,7,1.18,40.2,M,47.6,M,,*7C
$GPRMC,171324.000,A,5055.9599,N,00123.7561,W,0.39,33.68,021215,,,A*43
t289301,288943
$GPGGA,171325.000,5055.9600,N,00123.7560,W,1,8,1.01,40.2,M,47.6,M,,*78
$GPRMC,171325.000,A,5055.9600,N,00123.7560,W,0.42,33.68,021215,,,A*4C
t290302,289943
$GPGGA,171326.000,5055.9601,N,00123.7559,W,1,7,1.18,40.1,M,47.6,M,,*74
$GPRMC,171326.000,A,5055.9601,N,00123.7559,W,0.28,33.68,021215,,,A*48
t291325,290944
$GPGGA,171327.000,5055.9601,N,00123.7559,W,1,7,1.18,40.1,M,47.6,M,,*75
$GPRMC,171327.000,A,5055.9601,N,00123.7559,W,0.27,33.68,021215,,,A*46
t292351,291944
$GPGGA,171328.000,5055.9602,N,00123.7559,W,1,7,1.18,40.0,M,47.6,M,,*78
$GPRMC,171328.000,A,5055.9602,N,00123.7559,W,0.45,33.68,021215,,,A*4E
t293362,292945
$GPGGA,171329.000,5055.9604,N,00123.7559,W,1,7,1.18,40.0,M,47.6,M,,*7F
$GPRMC,171329.000,A,5055.9604,N,00123.7559,W,0.73,276.74,021215,,,A*72
t294374,293946
$GPGGA,171330.000,5055.9603,N,00123.7560,W,1,6,1.38,40.0,M,47.6,M,,*79
$GPRMC,171330.000,A,5055.9603,N,00123.7560,W,0.74,274.97,021215,,,A*7F
t295342,294947
$GPGGA,171331.000,5055.9601,N,00123.7561,W,1,6,1.38,40.0,M,47.6,M,,*7B
$GPRMC,171331.000,A,5055.9601,N,00123.7561,W,0.58,274.97,021215,,,A*73
t296354,295947
$GPGGA,171332.000,5055.9599,N,00123.7563,W,1,6,1.38,39.9,M,47.6,M,,*7F
$GPRMC,171332.000,A,5055.9599,N,00123.7563,W,0.39,274.97,021215,,,A*77
t297335,296948
$GPGGA,171333.000,5055.9598,N,00123.7563,W,1,6,1.38,39.9,M,47.6,M,,*7F
$GPRMC,171333.000,A,5055.9598,N,00123.7563,W,0.46,274.97,021215,,,A*7F
t298321,297948
$GPGGA,171334.000,5055.9598,N,00123.7561,W,1,7,1.18,39.9,M,47.6,M,,*79
$GPRMC,171334.000,A,5055.9598,N,00123.7561,W,0.49,274.97,021215,,,A*75
t299387,298948
$GPGGA,171335.000,5055.9598,N,00123.7561,W,1,7,1.18,39.9,M,47.6,M,,*78
$GPRMC,171335.000,A,5055.9598,N,00123.7561,W,0.48,274.97,021215,,,A*75
t300324,299949
$GPGGA,171336.000,5055.9598,N,00123.7560,W,1,7,1.18,39.9,M,47.6,M,,*7A
$GPRMC,171336.000,A,5055.9598,N,00123.7560,W,0.41,274.97,021215,,,A*7E
t301345,300949
$GPGGA,171337.000,5055.9596,N,00123.7561,W,1,7,1.18,39.9,M,47.6,M,,*74
$GPRMC,171337.000,A,5055.9596,N,00123.7561,W,0.25,274.97,021215,,,A*72
t302350,301950
$GPGGA,171338.000,5055.9595,N,00123.7561,W,1,7,1.18,39.8,M,47.6,M,,*79
$GPRMC,171338.000,A,5055.9595,N,00123.7561,W,0.26,274.97,021215,,,A*7D
t303360,302950
$GPGGA,171339.000,5055.9594,N,00123.7561,W,1,7,1.18,39.8,M,47.6,M,,*79
$GPRMC,171339.000,A,5055.9594,N,00123.7561,W,0.29,274.97,021215,,,A*72
t304353,303951
$GPGGA,171340.000,5055.9593,N,00123.7561,W,1,7,1.18,39.8,M,47.6,M,,*70
$GPRMC,171340.000,A,5055.9593,N,00123.7561,W,0.27,274.97,021215,,,A*75
t305388,304951
$GPGGA,171341.000,5055.9592,N,00123.7562,W,1,8,1.01,39.8,M,47.6,M,,*74
$GPRMC,171341.000,A,5055.9592,N,00123.7562,W,0.27,274.97,021215,,,A*76
t306341,305952
$GPGGA,171342.000,5055.9591,N,00123.7562,W,1,7,1.18,39.7,M,47.6,M,,*7C
$GPRMC,171342.000,A,5055.9591,N,00123.7562,W,0.25,274.97,021215,,,A*74
t307375,306952
$GPGGA,171343.000,5055.9591,N,00123.7561,W,1,7,1.18,39.7,M,47.6,M,,*7E
$GPRMC,171343.000,A,5055.9591,N,00123.7561,W,0.24,274.97,021215,,,A*77
t308313,307952
$GPGGA,171344.000,5055.9590,N,00123.7561,W,1,7,1.18,39.7,M,47.6,M,,*78
$GPRMC,171344.000,A,5055.9590,N,00123.7561,W,0.24,274.97,021215,,,A*71
t309344,308953
$GPGGA,171345.000,5055.9590,N,00123.7560,W,1,7,1.18,39.8,M,47.6,M,,*77
$GPRMC,171345.000,A,5055.9590,N,00123.7560,W,0.21,274.97,021215,,,A*74
t310332,309953
$GPGGA,171346.000,5055.9589,N,00123.7560,W,1,7,1.18,39.8,M,47.6,M,,*7C
$GPRMC,171346.000,A,5055.9589,N,00123.7560,W,0.16,274.97,021215,,,A*7B
t311331,310954
$GPGGA,171347.000,5055.9590,N,00123.7559,W,1,7,1.18,39.8,M,47.6,M,,*7F
$GPRMC,171347.000,A,5055.9590,N,00123.7559,W,0.20,274.97,021215,,,A*7D
t312329,311954
$GPGGA,171348.000,5055.9591,N,00123.7559,W,1,7,1.18,39.9,M,47.6,M,,*70
$GPRMC,171348.000,A,5055.9591,N,00123.7559,W,0.24,274.97,021215,,,A*77
t313341,312955
$GPGGA,171349.000,5055.9592,N,00123.7559,W,1,7,1.18,39.9,M,47.6,M,,*72
$GPRMC,171349.000,A,5055.9592,N,00123.7559,W,0.65,257.50,021215,,,A*7A
t314378,313955
$GPGGA,171350.000,5055.9593,N,00123.7560,W,1,7,1.18,40.0,M,47.6,M,,*76
$GPRMC,171350.000,A,5055.9593,N,00123.7560,W,0.59,257.50,021215,,,A*76
t315368,314956
$GPGGA,171351.000,5055.9593,N,00123.7561,W,1,7,1.18,40.0,M,47.6,M,,*76
$GPRMC,171351.000,A,5055.9593,N,00123.7561,W,0.24,257.50,021215,,,A*7C
t316385,315956
$GPGGA,171352.000,5055.9593,N,00123.7560,W,1,7,1.18,40.0,M,47.6,M,,*74
$GPRMC,171352.000,A,5055.9593,N,00123.7560,W,0.56,257.50,021215,,,A*7B
t317386,316957
$GPGGA,171353.000,5055.9592,N,00123.7561,W,1,7,1.18,40.1,M,47.6,M,,*74
$GPRMC,171353.000,A,5055.9592,N,00123.7561,W,1.38,255.57,021215,,,A*76
t318379,317957
$GPGGA,171354.000,5055.9592,N,00123.7561,W,1,7,1.18,40.1,M,47.6,M,,*73
$GPRMC,171354.000,A,5055.9592,N,00123.7561,W,1.45,253.18,021215,,,A*76
t319387,318958
$GPGGA,171355.000,5055.9593,N,00123.7561,W,1,7,1.18,40.3,M,47.6,M,,*71
$GPRMC,171355.000,A,5055.9593,N,00123.7561,W,1.42,228.09,021215,,,A*7D
t320381,319959
$GPGGA,171356.000,5055.9594,N,00123.7561,W,1,6,1.38,40.4,M,47.6,M,,*71
$GPRMC,171356.000,A,5055.9594,N,00123.7561,W,0.98,217.29,021215,,,A*71
t321356,320959
$GPGGA,171357.000,5055.9594,N,00123.7561,W,1,6,1.38,40.5,M,47.6,M,,*71
$GPRMC,171357.000,A,5055.9594,N,00123.7561,W,0.50,217.29,021215,,,A*74
t322333,321960
$GPGGA,171358.000,5055.9597,N,00123.7560,W,1,6,1.38,40.6,M,47.6,M,,*7F
$GPRMC,171358.000,A,5055.9597,N,00123.7560,W,0.09,217.29,021215,,,A*75
t323328,322960
$GPGGA,171359.000,5055.9598,N,00123.7560,W,1,6,1.38,40.7,M,47.6,M,,*70
$GPRMC,171359.000,A,5055.9598,N,00123.7560,W,0.12,217.29,021215,,,A*71
t324347,323961
$GPGGA,171400.000,5055.9599,N,00123.7560,W,1,7,1.18,40.7,M,47.6,M,,*79
$GPRMC,171400.000,A,5055.9599,N,00123.7560,W,0.18,217.29,021215,,,A*71
t325379,324961
$GPGGA,171401.000,5055.9600,N,00123.7558,W,1,7,1.18,40.8,M,47.6,M,,*7F
$GPRMC,171401.000,A,5055.9600,N,00123.7558,W,0.39,217.29,021215,,,A*7B
t326387,325962
$GPGGA,171402.000,5055.9599,N,00123.7557,W,1,8,1.01,40.8,M,47.6,M,,*77
$GPRMC,171402.000,A,5055.9599,N,00123.7557,W,0.38,217.29,021215,,,A*75
t327381,326962
$GPGGA,171403.000,5055.9598,N,00123.7558,W,1,8,1.01,40.9,M,47.6,M,,*79
$GPRMC,171403.000,A,5055.9598,N,00123.7558,W,0.33,217.29,021215,,,A*71
t328389,327963
$GPGGA,172012.000,5055.9593,N,00123.7542,W,1,8,1.03,44.8,M,47.6,M,,*79
$GPRMC,172012.000,A,5055.9593,N,00123.7542,W,0.43,89.32,021215,,,A*4E
t329332,328964
$GPGGA,172013.000,5055.9593,N,00123.7541,W,1,8,1.01,44.8,M,47.6,M,,*79
$GPRMC,172013.000,A,5055.9593,N,00123.7541,W,0.48,89.32,021215,,,A*47
t330408,329965
$GPGGA,172014.000,5055.9594,N,00123.7538,W,1,8,1.01,44.8,M,47.6,M,,*77
$GPRMC,172014.000,A,5055.9594,N,00123.7538,W,0.15,89.32,021215,,,A*41
t331377,330966
$GPGGA,172015.000,5055.9594,N,00123.7538,W,1,8,1.01,44.7,M,47.6,M,,*79
$GPRMC,172015.000,A,5055.9594,N,00123.7538,W,0.13,89.32,021215,,,A*46
t332394,331966
$GPGGA,172016.000,5055.9594,N,00123.7538,W,1,8,1.03,44.7,M,47.6,M,,*78
$GPRMC,172016.000,A,5055.9594,N,00123.7538,W,0.33,89.32,021215,,,A*47
t333381,332967
$GPGGA,172017.000,5055.9595,N,00123.7539,W,1,8,1.01,44.7,M,47.6,M,,*7B
$GPRMC,172017.000,A,5055.9595,N,00123.7539,W,0.73,282.92,021215,,,A*71
t334375,333967
$GPGGA,172018.000,5055.9595,N,00123.7540,W,1,8,1.01,44.7,M,47.6,M,,*7A
$GPRMC,172018.000,A,5055.9595,N,00123.7540,W,0.67,281.33,021215,,,A*7D
t335412,334968
$GPGGA,172019.000,5055.9595,N,00123.7539,W,1,8,1.01,44.7,M,47.6,M,,*75
$GPRMC,172019.000,A,5055.9595,N,00123.7539,W,0.15,281.33,021215,,,A*77
t336409,335968
$GPGGA,172020.000,5055.9595,N,00123.7538,W,1,8,1.01,44.7,M,47.6,M,,*7E
$GPRMC,172020.000,A,5055.9595,N,00123.7538,W,0.12,281.33,021215,,,A*7B
t337405,336968
$GPGGA,172021.000,5055.9595,N,00123.7535,W,1,8,1.01,44.8,M,47.6,M,,*7D
$GPRMC,172021.000,A,5055.9595,N,00123.7535,W,0.16,281.33,021215,,,A*73
t338365,337969
$GPGGA,172022.000,5055.9595,N,00123.7534,W,1,8,1.01,44.8,M,47.6,M,,*7F
$GPRMC,172022.000,A,5055.9595,N,00123.7534,W,0.18,281.33,021215,,,A*7F
t339421,338970
$GPGGA,172023.000,5055.9595,N,00123.7535,W,1,8,1.01,44.8,M,47.6,M,,*7F
$GPRMC,172023.000,A,5055.9595,N,00123.7535,W,0.15,281.33,021215,,,A*72
t340347,339971
$GPGGA,172024.000,5055.9595,N,00123.7535,W,1,8,1.01,44.8,M,47.6,M,,*78
$GPRMC,172024.000,A,5055.9595,N,00123.7535,W,0.39,281.33,021215,,,A*7B
t341345,340971
$GPGGA,172025.000,5055.9594,N,00123.7537,W,1,8,1.01,44.8,M,47.6,M,,*7A
$GPRMC,172025.000,A,5055.9594,N,00123.7537,W,0.66,262.66,021215,,,A*7E
t342344,341972
$GPGGA,172026.000,5055.9595,N,00123.7540,W,1,8,1.01,44.9,M,47.6,M,,*79
$GPRMC,172026.000,A,5055.9595,N,00123.7540,W,0.49,262.66,021215,,,A*71
t343354,342972
$GPGGA,172027.000,5055.9594,N,00123.7540,W,1,8,1.01,45.0,M,47.6,M,,*71
$GPRMC,172027.000,A,5055.9594,N,00123.7540,W,0.13,262.66,021215,,,A*7E
t344346,343973
$GPGGA,172028.000,5055.9593,N,00123.7540,W,1,8,1.01,45.0,M,47.6,M,,*79
$GPRMC,172028.000,A,5055.9593,N,00123.7540,W,0.17,262.66,021215,,,A*72
t345366,344973
$GPGGA,172029.000,5055.9592,N,00123.7538,W,1,8,1.01,45.1,M,47.6,M,,*77
$GPRMC,172029.000,A,5055.9592,N,00123.7538,W,0.36,262.66,021215,,,A*7E
t346366,345973
$GPGGA,172030.000,5055.9592,N,00123.7540,W,1,8,1.01,45.1,M,47.6,M,,*70
$GPRMC,172030.000,A,5055.9592,N,00123.7540,W,0.52,262.66,021215,,,A*7B
t347348,346974
$GPGGA,172031.000,5055.9592,N,00123.7542,W,1,8,1.01,45.1,M,47.6,M,,*73
$GPRMC,172031.000,A,5055.9592,N,00123.7542,W,0.33,262.66,021215,,,A*7F
t348349,347975
$GPGGA,172032.000,5055.9592,N,00123.7544,W,1,8,1.01,45.1,M,47.6,M,,*76
$GPRMC,172032.000,A,5055.9592,N,00123.7544,W,0.55,262.66,021215,,,A*7A
t349361,348976
$GPGGA,172033.000,5055.9592,N,00123.7545,W,1,8,1.01,45.1,M,47.6,M,,*76
$GPRMC,172033.000,A,5055.9592,N,00123.7545,W,0.49,262.66,021215,,,A*77
t350428,349976
$GPGGA,172034.000,5055.9591,N,00123.7544,W,1,8,1.01,45.2,M,47.6,M,,*70
$GPRMC,172034.000,A,5055.9591,N,00123.7544,W,0.05,262.66,021215,,,A*7A
t351384,350977
$GPGGA,172035.000,5055.9591,N,00123.7541,W,1,8,1.01,45.2,M,47.6,M,,*74
$GPRMC,172035.000,A,5055.9591,N,00123.7541,W,0.56,262.66,021215,,,A*78
t352386,351977
$GPGGA,172036.000,5055.9592,N,00123.7538,W,1,8,1.01,45.3,M,47.6,M,,*7B
$GPRMC,172036.000,A,5055.9592,N,00123.7538,W,0.61,78.53,021215,,,A*4D
t353403,352978
$GPGGA,172037.000,5055.9593,N,00123.7535,W,1,8,1.01,45.3,M,47.6,M,,*76
$GPRMC,172037.000,A,5055.9593,N,00123.7535,W,0.46,78.53,021215,,,A*45
t354404,353978
$GPGGA,172038.000,5055.9591,N,00123.7533,W,1,8,1.01,45.3,M,47.6,M,,*7D
$GPRMC,172038.000,A,5055.9591,N,00123.7533,W,0.08,78.53,021215,,,A*44
t355454,354979
$GPGGA,172039.000,5055.9591,N,00123.7533,W,1,8,1.01,45.3,M,47.6,M,,*7C
$GPRMC,172039.000,A,5055.9591,N,00123.7533,W,0.51,78.53,021215,,,A*49
t356384,355979
$GPGGA,172040.000,5055.9590,N,00123.7535,W,1,8,1.01,45.3,M,47.6,M,,*75
$GPRMC,172040.000,A,5055.9590,N,00123.7535,W,1.04,266.31,021215,,,A*78
t357402,356980
$GPGGA,172041.000,5055.9590,N,00123.7539,W,1,8,1.01,45.3,M,47.6,M,,*78
$GPRMC,172041.000,A,5055.9590,N,00123.7539,W,1.08,267.11,021215,,,A*7A
t358403,357981
$GPGGA,172042.000,5055.9590,N,00123.7542,W,1,8,1.01,45.3,M,47.6,M,,*77
$GPRMC,172042.000,A,5055.9590,N,00123.7542,W,0.81,269.69,021215,,,A*74
t359423,358981
$GPGGA,172043.000,5055.9592,N,00123.7542,W,1,8,1.01,45.4,M,47.6,M,,*73
$GPRMC,172043.000,A,5055.9592,N,00123.7542,W,0.56,269.69,021215,,,A*7D
t360392,359982
$GPGGA,172044.000,5055.9592,N,00123.7542,W,1,8,1.01,45.3,M,47.6,M,,*73
$GPRMC,172044.000,A,5055.9592,N,00123.7542,W,0.57,284.03,021215,,,A*74
t361401,360982
$GPGGA,172045.000,5055.9593,N,00123.7543,W,1,8,1.01,45.4,M,47.6,M,,*75
$GPRMC,172045.000,A,5055.9593,N,00123.7543,W,0.58,284.81,021215,,,A*70
t362373,361983
$GPGGA,172046.000,5055.9594,N,00123.7545,W,1,8,1.01,45.4,M,47.6,M,,*77
$GPRMC,172046.000,A,5055.9594,N,00123.7545,W,0.52,284.81,021215,,,A*78
t363391,362983
$GPGGA,172047.000,5055.9594,N,00123.7545,W,1,8,1.01,45.4,M,47.6,M,,*76
$GPRMC,172047.000,A,5055.9594,N,00123.7545,W,0.55,287.34,021215,,,A*73
t364416,363984
$GPGGA,172048.000,5055.9593,N,00123.7547,W,1,8,1.01,45.4,M,47.6,M,,*7C
$GPRMC,172048.000,A,5055.9593,N,00123.7547,W,0.62,277.91,021215,,,A*7D
t365389,364985
$GPGGA,172049.000,5055.9592,N,00123.7550,W,1,8,1.01,45.5,M,47.6,M,,*7B
$GPRMC,172049.000,A,5055.9592,N,00123.7550,W,0.64,271.80,021215,,,A*7B
t366371,365986
$GPGGA,172050.000,5055.9591,N,00123.7550,W,1,8,1.01,45.5,M,47.6,M,,*70
$GPRMC,172050.000,A,5055.9591,N,00123.7550,W,0.22,271.80,021215,,,A*72
t367361,366986
$GPGGA,172051.000,5055.9592,N,00123.7551,W,1,8,1.01,45.5,M,47.6,M,,*73
$GPRMC,172051.000,A,5055.9592,N,00123.7551,W,0.15,271.80,021215,,,A*75
t368360,367986
$GPGGA,172052.000,5055.9592,N,00123.7549,W,1,8,1.01,45.5,M,47.6,M,,*79
$GPRMC,172052.000,A,5055.9592,N,00123.7549,W,0.42,271.80,021215,,,A*7D
t369391,368987
$GPGGA,172053.000,5055.9591,N,00123.7552,W,1,8,1.01,45.5,M,47.6,M,,*71
$GPRMC,172053.000,A,5055.9591,N,00123.7552,W,0.47,271.80,021215,,,A*70
t370372,369987
$GPGGA,172054.000,5055.9591,N,00123.7554,W,1,8,1.01,45.5,M,47.6,M,,*70
$GPRMC,172054.000,A,5055.9591,N,00123.7554,W,0.16,271.80,021215,,,A*75
t371372,370988
$GPGGA,172055.000,5055.9591,N,00123.7554,W,1,8,1.01,45.5,M,47.6,M,,*71
$GPRMC,172055.000,A,5055.9591,N,00123.7554,W,0.01,271.80,021215,,,A*72
t372408,371988
$GPGGA,172056.000,5055.9591,N,00123.7554,W,1,8,1.01,45.5,M,47.6,M,,*72
$GPRMC,172056.000,A,5055.9591,N,00123.7554,W,0.62,91.32,021215,,,A*41
t373446,372989
$GPGGA,172057.000,5055.9591,N,00123.7553,W,1,8,1.01,45.5,M,47.6,M,,*74
$GPRMC,172057.000,A,5055.9591,N,00123.7553,W,1.10,88.64,021215,,,A*48
t374440,373990
$GPGGA,172058.000,5055.9590,N,00123.7554,W,1,8,1.01,45.6,M,47.6,M,,*7E
$GPRMC,172058.000,A,5055.9590,N,00123.7554,W,1.05,89.30,021215,,,A*45
t375461,374991
$GPGGA,172059.000,5055.9591,N,00123.7553,W,1,8,1.01,45.6,M,47.6,M,,*79
$GPRMC,172059.000,A,5055.9591,N,00123.7553,W,1.10,90.73,021215,,,A*49
t376460,375991
$GPGGA,172100.000,5055.9591,N,00123.7552,W,1,8,1.01,45.6,M,47.6,M,,*75
$GPRMC,172100.000,A,5055.9591,N,00123.7552,W,1.08,92.75,021215,,,A*48
t377407,376991
$GPGGA,172101.000,5055.9593,N,00123.7551,W,1,8,1.01,45.6,M,47.6,M,,*75
$GPRMC,172101.000,A,5055.9593,N,00123.7551,W,1.01,91.17,021215,,,A*46
t378450,377992
$GPGGA,172102.000,5055.9595,N,00123.7551,W,1,7,1.20,45.6,M,47.6,M,,*7C
$GPRMC,172102.000,A,5055.9595,N,00123.7551,W,0.55,91.17,021215,,,A*43
t379398,378992
$GPGGA,172103.000,5055.9595,N,00123.7550,W,1,7,1.20,45.7,M,47.6,M,,*7D
$GPRMC,172103.000,A,5055.9595,N,00123.7550,W,0.33,91.70,021215,,,A*42
t380457,379993
$GPGGA,172104.000,5055.9597,N,00123.7550,W,1,8,1.01,45.7,M,47.6,M,,*74
$GPRMC,172104.000,A,5055.9597,N,00123.7550,W,0.37,91.46,021215,,,A*46
t381453,380993
$GPGGA,172105.000,5055.9597,N,00123.7550,W,1,8,1.01,45.7,M,47.6,M,,*75
$GPRMC,172105.000,A,5055.9597,N,00123.7550,W,0.30,91.22,021215,,,A*42
t382443,381994
$GPGGA,172106.000,5055.9598,N,00123.7549,W,1,8,1.01,45.7,M,47.6,M,,*71
$GPRMC,172106.000,A,5055.9598,N,00123.7549,W,0.13,91.43,021215,,,A*40
t383400,382995
$GPGGA,172107.000,5055.9598,N,00123.7549,W,1,7,1.20,45.7,M,47.6,M,,*7C
$GPRMC,172107.000,A,5055.9598,N,00123.7549,W,0.45,91.43,021215,,,A*42
t384398,383996
$GPGGA,172108.000,5055.9598,N,00123.7551,W,1,7,1.20,45.7,M,47.6,M,,*7A
