$GPGGA,020853.000,5055.9610,N,00123.7531,W,1,8,0.99,55.3,M,47.6,M,,*77
t1009,443
$GPGGA,020854.000,5055.9610,N,00123.7531,W,1,8,0.99,55.3,M,47.6,M,,*70
t1841,1444
$GPGGA,020855.000,5055.9611,N,00123.7532,W,1,8,0.99,55.3,M,47.6,M,,*73
t2854,2445
$GPGGA,020856.000,5055.9612,N,00123.7533,W,1,8,0.99,55.3,M,47.6,M,,*72
t3865,3445
$GPGGA,020857.000,5055.9612,N,00123.7533,W,1,8,0.99,55.3,M,47.6,M,,*73
t4856,4446
$GPGGA,020858.000,5055.9613,N,00123.7534,W,1,8,0.99,55.3,M,47.6,M,,*7A
t5848,5447
$GPGGA,020859.000,5055.9613,N,00123.7534,W,1,8,0.99,55.3,M,47.6,M,,*7B
t6844,6448
$GPGGA,020900.000,5055.9614,N,00123.7535,W,1,8,0.99,55.3,M,47.6,M,,*70
t8049,7448
$GPGGA,020901.000,5055.9615,N,00123.7535,W,1,8,0.99,55.3,M,47.6,M,,*70
t8855,8449
$GPGGA,020902.000,5055.9615,N,00123.7535,W,1,8,0.99,55.3,M,47.6,M,,*73
t9907,9449
$GPGGA,020903.000,5055.9616,N,00123.7535,W,1,8,0.99,55.3,M,47.6,M,,*71
t10907,10449
$GPGGA,020904.000,5055.9616,N,00123.7535,W,1,8,0.99,55.3,M,47.6,M,,*76
t11966,11450
$GPGGA,020905.000,5055.9617,N,00123.7535,W,1,8,1.02,55.3,M,47.6,M,,*75
t12963,12450
$GPGGA,020906.000,5055.9618,N,00123.7535,W,1,8,1.02,55.3,M,47.6,M,,*79
t13964,13451
$GPGGA,020907.000,5055.9618,N,00123.7535,W,1,8,1.02,55.3,M,47.6,M,,*78
t14922,14451
$GPGGA,020908.000,5055.9619,N,00123.7535,W,1,8,1.02,55.3,M,47.6,M,,*76
t15921,15452
$GPGGA,020909.000,5055.9619,N,00123.7535,W,1,8,0.99,55.3,M,47.6,M,,*74
t16916,16452
$GPGGA,020910.000,5055.9619,N,00123.7533,W,1,8,0.99,55.3,M,47.6,M,,*7A
t17988,17453
$GPGGA,020911.000,5055.9620,N,00123.7532,W,1,8,0.99,55.3,M,47.6,M,,*70
t18979,18453
$GPGGA,020912.000,5055.9620,N,00123.7531,W,1,8,0.99,55.3,M,47.6,M,,*70
t19988,19453
$GPGGA,020913.000,5055.9620,N,00123.7533,W,1,8,0.99,55.3,M,47.6,M,,*73
t20863,20454
$GPGGA,020914.000,5055.9621,N,00123.7534,W,1,8,0.99,55.3,M,47.6,M,,*72
t21874,21454
$GPGGA,020915.000,5055.9621,N,00123.7535,W,1,8,0.99,55.3,M,47.6,M,,*72
t23077,22455
$GPGGA,020916.000,5055.9622,N,00123.7536,W,1,8,0.99,55.3,M,47.6,M,,*71
t24069,23455
$GPGGA,020917.000,5055.9623,N,00123.7535,W,1,8,1.02,55.3,M,47.6,M,,*71
t25077,24456
$GPGGA,020918.000,5055.9623,N,00123.7536,W,1,8,0.99,55.3,M,47.6,M,,*7E
t26070,25456
$GPGGA,020919.000,5055.9624,N,00123.7536,W,1,8,0.99,55.3,M,47.6,M,,*78
t26872,26457
$GPGGA,020920.000,5055.9624,N,00123.7536,W,1,8,1.02,55.3,M,47.6,M,,*71
t28082,27457
$GPGGA,020921.000,5055.9624,N,00123.7536,W,1,8,0.99,55.3,M,47.6,M,,*73
t28866,28457
$GPGGA,020922.000,5055.9625,N,00123.7536,W,1,8,1.02,55.3,M,47.6,M,,*72
t30090,29458
$GPGGA,020923.000,5055.9625,N,00123.7537,W,1,8,0.99,55.3,M,47.6,M,,*71
t31089,30458
$GPGGA,020924.000,5055.9626,N,00123.7538,W,1,8,0.99,55.3,M,47.6,M,,*7A
t31867,31459
$GPGGA,020925.000,5055.9626,N,00123.7539,W,1,8,0.99,55.3,M,47.6,M,,*7A
t32866,32459
$GPGGA,020926.000,5055.9626,N,00123.7539,W,1,8,0.99,55.3,M,47.6,M,,*79
t33873,33460
$GPGGA,020927.000,5055.9627,N,00123.7539,W,1,8,0.99,55.3,M,47.6,M,,*79
t34869,34460
$GPGGA,020928.000,5055.9627,N,00123.7540,W,1,8,0.99,55.3,M,47.6,M,,*78
t36076,35461
$GPGGA,020929.000,5055.9628,N,00123.7542,W,1,8,0.99,55.3,M,47.6,M,,*74
t36879,36461
$GPGGA,020930.000,5055.9628,N,00123.7543,W,1,8,0.99,55.3,M,47.6,M,,*7D
t37986,37462
$GPGGA,020931.000,5055.9629,N,00123.7544,W,1,8,0.99,55.3,M,47.6,M,,*7A
t38929,38462
$GPGGA,020932.000,5055.9630,N,00123.7544,W,1,8,0.99,55.4,M,47.6,M,,*76
t39992,39463
$GPGGA,020933.000,5055.9630,N,00123.7546,W,1,8,0.99,55.4,M,47.6,M,,*75
t41115,40464
$GPGGA,020934.000,5055.9631,N,00123.7547,W,1,8,0.99,55.4,M,47.6,M,,*72
t42118,41464
$GPGGA,020935.000,5055.9631,N,00123.7547,W,1,8,1.02,55.4,M,47.6,M,,*70
t43123,42465
$GPGGA,020936.000,5055.9632,N,00123.7546,W,1,8,0.99,55.4,M,47.6,M,,*72
t44115,43465
$GPGGA,020937.000,5055.9632,N,00123.7545,W,1,8,0.99,55.4,M,47.6,M,,*70
t44988,44466
$GPGGA,020938.000,5055.9633,N,00123.7545,W,1,8,1.02,55.4,M,47.6,M,,*7D
t45988,45466
$GPGGA,020939.000,5055.9633,N,00123.7545,W,1,8,0.99,55.4,M,47.6,M,,*7F
t46987,46467
$GPGGA,020940.000,5055.9634,N,00123.7544,W,1,8,0.99,55.4,M,47.6,M,,*77
t47975,47467
$GPGGA,020941.000,5055.9634,N,00123.7543,W,1,8,0.99,55.4,M,47.6,M,,*71
t49062,48467
$GPGGA,020942.000,5055.9635,N,00123.7544,W,1,8,0.99,55.4,M,47.6,M,,*74
t50073,49468
$GPGGA,020943.000,5055.9635,N,00123.7546,W,1,8,0.99,55.4,M,47.6,M,,*77
t51078,50468
$GPGGA,020944.000,5055.9636,N,00123.7547,W,1,8,0.99,55.4,M,47.6,M,,*72
t52099,51469
$GPGGA,020945.000,5055.9636,N,00123.7547,W,1,8,1.02,55.4,M,47.6,M,,*70
t52981,52469
$GPGGA,020946.000,5055.9636,N,00123.7547,W,1,8,0.99,55.4,M,47.6,M,,*70
t53984,53470
$GPGGA,020947.000,5055.9637,N,00123.7547,W,1,8,1.02,55.4,M,47.6,M,,*73
t54991,54470
$GPGGA,020948.000,5055.9637,N,00123.7548,W,1,8,0.99,55.4,M,47.6,M,,*70
t55985,55471
$GPGGA,020949.000,5055.9637,N,00123.7550,W,1,8,0.99,55.4,M,47.6,M,,*78
t56977,56471
$GPGGA,020950.000,5055.9637,N,00123.7552,W,1,8,0.99,55.4,M,47.6,M,,*72
t57935,57472
$GPGGA,020951.000,5055.9637,N,00123.7554,W,1,8,0.99,55.4,M,47.6,M,,*75
t58923,58472
$GPGGA,020952.000,5055.9637,N,00123.7555,W,1,8,0.99,55.5,M,47.6,M,,*76
t59925,59472
$GPGGA,020953.000,5055.9637,N,00123.7556,W,1,8,0.99,55.5,M,47.6,M,,*74
t60981,60473
$GPGGA,020954.000,5055.9638,N,00123.7558,W,1,8,0.99,55.5,M,47.6,M,,*72
t61980,61473
$GPGGA,020955.000,5055.9638,N,00123.7559,W,1,8,0.99,55.5,M,47.6,M,,*72
t63029,62474
$GPGGA,020956.000,5055.9638,N,00123.7559,W,1,8,0.99,55.5,M,47.6,M,,*71
t63992,63474
$GPGGA,020957.000,5055.9639,N,00123.7560,W,1,8,0.99,55.5,M,47.6,M,,*7B
t65038,64475
$GPGGA,020958.000,5055.9639,N,00123.7562,W,1,8,0.99,55.5,M,47.6,M,,*76
t65978,65475
$GPGGA,020959.000,5055.9639,N,00123.7564,W,1,8,0.99,55.5,M,47.6,M,,*71
t66991,66476
$GPGGA,021000.000,5055.9639,N,00123.7565,W,1,8,0.99,55.5,M,47.6,M,,*74
t67938,67476
$GPGGA,021001.000,5055.9640,N,00123.7567,W,1,8,0.99,55.5,M,47.6,M,,*79
t68929,68476
$GPGGA,021002.000,5055.9640,N,00123.7567,W,1,8,0.99,55.5,M,47.6,M,,*7A
t69990,69477
$GPGGA,021003.000,5055.9640,N,00123.7567,W,1,8,0.99,55.5,M,47.6,M,,*7B
t70997,70477
$GPGGA,021004.000,5055.9640,N,00123.7567,W,1,8,0.99,55.5,M,47.6,M,,*7C
t72008,71478
$GPGGA,021005.000,5055.9640,N,00123.7567,W,1,9,0.82,55.5,M,47.6,M,,*76
t73034,72478
$GPGGA,021006.000,5055.9640,N,00123.7567,W,1,9,0.82,55.5,M,47.6,M,,*75
t74040,73479
$GPGGA,021007.000,5055.9639,N,00123.7567,W,1,9,0.82,55.5,M,47.6,M,,*7A
t75041,74480
$GPGGA,021008.000,5055.9639,N,00123.7567,W,1,9,0.82,55.5,M,47.6,M,,*75
t76042,75481
$GPGGA,021009.000,5055.9639,N,00123.7568,W,1,9,0.82,55.5,M,47.6,M,,*7B
t77025,76481
$GPGGA,021010.000,5055.9638,N,00123.7569,W,1,9,0.82,55.5,M,47.6,M,,*73
t78044,77482
$GPGGA,021011.000,5055.9638,N,00123.7571,W,1,8,0.90,55.6,M,47.6,M,,*7A
t78937,78482
$GPGGA,021012.000,5055.9638,N,00123.7573,W,1,8,0.90,55.6,M,47.6,M,,*7B
t80000,79482
$GPGGA,021013.000,5055.9637,N,00123.7575,W,1,8,0.90,55.6,M,47.6,M,,*73
t80998,80483
$GPGGA,021014.000,5055.9637,N,00123.7576,W,1,8,0.90,55.6,M,47.6,M,,*77
t82050,81483
$GPGGA,021015.000,5055.9637,N,00123.7578,W,1,8,0.90,55.6,M,47.6,M,,*78
t82991,82484
$GPGGA,021016.000,5055.9636,N,00123.7579,W,1,9,0.82,55.6,M,47.6,M,,*79
t84032,83484
$GPGGA,021017.000,5055.9636,N,00123.7580,W,1,9,0.82,55.6,M,47.6,M,,*7E
t85051,84485
$GPGGA,021018.000,5055.9635,N,00123.7581,W,1,9,0.82,55.6,M,47.6,M,,*73
t86043,85485
$GPGGA,021019.000,5055.9635,N,00123.7581,W,1,9,0.82,55.6,M,47.6,M,,*72
t87031,86486
$GPGGA,021020.000,5055.9634,N,00123.7581,W,1,9,0.82,55.7,M,47.6,M,,*78
t87994,87486
$GPGGA,021021.000,5055.9633,N,00123.7582,W,1,9,0.82,55.7,M,47.6,M,,*7D
t88999,88486
$GPGGA,021022.000,5055.9632,N,00123.7582,W,1,9,0.82,55.7,M,47.6,M,,*7F
t90052,89487
$GPGGA,021023.000,5055.9632,N,00123.7583,W,1,9,0.82,55.7,M,47.6,M,,*7F
t91032,90487
$GPGGA,021024.000,5055.9631,N,00123.7584,W,1,9,0.82,55.7,M,47.6,M,,*7C
t92052,91488
$GPGGA,021025.000,5055.9631,N,00123.7584,W,1,9,0.82,55.7,M,47.6,M,,*7D
t93042,92489
$GPGGA,021026.000,5055.9631,N,00123.7585,W,1,9,0.82,55.7,M,47.6,M,,*7F
t94050,93490
$GPGGA,021027.000,5055.9631,N,00123.7585,W,1,9,0.82,55.7,M,47.6,M,,*7E
t95040,94490
$GPGGA,021028.000,5055.9631,N,00123.7586,W,1,9,0.82,55.7,M,47.6,M,,*72
t96042,95491
$GPGGA,021029.000,5055.9631,N,00123.7587,W,1,9,0.82,55.7,M,47.6,M,,*72
t97043,96491
$GPGGA,021030.000,5055.9631,N,00123.7587,W,1,9,0.82,55.7,M,47.6,M,,*7A
t98036,97492
$GPGGA,021031.000,5055.9631,N,00123.7587,W,1,9,0.82,55.7,M,47.6,M,,*7B
t99041,98492
$GPGGA,021032.000,5055.9631,N,00123.7588,W,1,9,0.82,55.7,M,47.6,M,,*77
t100049,99492
$GPGGA,021033.000,5055.9631,N,00123.7588,W,1,9,0.82,55.7,M,47.6,M,,*76
t100992,100493
$GPGGA,021034.000,5055.9631,N,00123.7588,W,1,9,0.82,55.7,M,47.6,M,,*71
t102135,101493
$GPGGA,021035.000,5055.9631,N,00123.7589,W,1,9,0.82,55.7,M,47.6,M,,*71
t103055,102494
$GPGGA,021036.000,5055.9631,N,00123.7589,W,1,9,0.82,55.7,M,47.6,M,,*72
t104100,103494
$GPGGA,021037.000,5055.9631,N,00123.7589,W,1,9,0.82,55.7,M,47.6,M,,*73
t105113,104495
$GPGGA,021038.000,5055.9630,N,00123.7590,W,1,9,0.82,55.7,M,47.6,M,,*75
t106111,105495
$GPGGA,021039.000,5055.9630,N,00123.7590,W,1,9,0.82,55.7,M,47.6,M,,*74
t107202,106496
$GPGGA,021040.000,5055.9629,N,00123.7590,W,1,9,0.82,55.7,M,47.6,M,,*72
t108044,107496
$GPGGA,021041.000,5055.9629,N,00123.7589,W,1,9,0.82,55.7,M,47.6,M,,*7B
t109040,108496
$GPGGA,021042.000,5055.9629,N,00123.7589,W,1,9,0.82,55.7,M,47.6,M,,*78
t110152,109497
$GPGGA,021043.000,5055.9628,N,00123.7589,W,1,9,0.82,55.7,M,47.6,M,,*78
t111147,110497
$GPGGA,021044.000,5055.9628,N,00123.7590,W,1,9,0.82,55.7,M,47.6,M,,*77
t111944,111498
$GPGGA,021045.000,5055.9628,N,00123.7591,W,1,9,0.82,55.7,M,47.6,M,,*77
t113145,112498
$GPGGA,021046.000,5055.9628,N,00123.7591,W,1,9,0.82,55.7,M,47.6,M,,*74
t114029,113499
$GPGGA,021047.000,5055.9628,N,00123.7591,W,1,9,0.82,55.7,M,47.6,M,,*75
t114952,114499
$GPGGA,021048.000,5055.9628,N,00123.7591,W,1,9,0.82,55.7,M,47.6,M,,*7A
t115947,115500
$GPGGA,021049.000,5055.9628,N,00123.7591,W,1,9,0.82,55.7,M,47.6,M,,*7B
t116966,116500
$GPGGA,021050.000,5055.9628,N,00123.7591,W,1,9,0.82,55.7,M,47.6,M,,*73
t117967,117500
$GPGGA,021051.000,5055.9628,N,00123.7591,W,1,9,0.82,55.7,M,47.6,M,,*72
t118936,118501
$GPGGA,021052.000,5055.9628,N,00123.7592,W,1,9,0.82,55.7,M,47.6,M,,*72
t119949,119501
$GPGGA,021053.000,5055.9628,N,00123.7593,W,1,9,0.82,55.7,M,47.6,M,,*72
t120972,120502
$GPGGA,021054.000,5055.9628,N,00123.7594,W,1,9,0.82,55.7,M,47.6,M,,*72
t121954,121502
$GPGGA,021055.000,5055.9629,N,00123.7595,W,1,9,0.82,55.7,M,47.6,M,,*73
t122969,122503
$GPGGA,021056.000,5055.9629,N,00123.7595,W,1,9,0.82,55.7,M,47.6,M,,*70
t123975,123503
$GPGGA,021057.000,5055.9629,N,00123.7595,W,1,9,0.82,55.7,M,47.6,M,,*71
t125130,124504
$GPGGA,021058.000,5055.9629,N,00123.7595,W,1,9,0.82,55.7,M,47.6,M,,*7E
t125956,125504
$GPGGA,021059.000,5055.9630,N,00123.7596,W,1,9,0.82,55.7,M,47.6,M,,*74
t127162,126505
$GPGGA,021100.000,5055.9630,N,00123.7597,W,1,9,0.82,55.7,M,47.6,M,,*78
t128161,127506
$GPGGA,021101.000,5055.9629,N,00123.7597,W,1,9,0.82,55.7,M,47.6,M,,*71
t129179,128506
$GPGGA,021102.000,5055.9629,N,00123.7597,W,1,9,0.82,55.7,M,47.6,M,,*72
t130012,129507
$GPGGA,021103.000,5055.9629,N,00123.7598,W,1,9,0.82,55.7,M,47.6,M,,*7C
t130976,130507
$GPGGA,021104.000,5055.9628,N,00123.7599,W,1,9,0.82,55.7,M,47.6,M,,*7B
t131966,131508
$GPGGA,021105.000,5055.9628,N,00123.7600,W,1,9,0.82,55.7,M,47.6,M,,*79
t133025,132508
$GPGGA,021106.000,5055.9627,N,00123.7602,W,1,9,0.82,55.7,M,47.6,M,,*77
t133964,133509
$GPGGA,021107.000,5055.9626,N,00123.7603,W,1,9,0.82,55.7,M,47.6,M,,*76
t134967,134509
$GPGGA,021108.000,5055.9625,N,00123.7604,W,1,9,0.82,55.7,M,47.6,M,,*7D
t136005,135510
$GPGGA,021109.000,5055.9624,N,00123.7604,W,1,9,0.82,55.7,M,47.6,M,,*7D
t137116,136510
$GPGGA,021110.000,5055.9624,N,00123.7603,W,1,9,0.82,55.7,M,47.6,M,,*72
t138214,137510
$GPGGA,021111.000,5055.9623,N,00123.7602,W,1,9,0.82,55.7,M,47.6,M,,*75
t139229,138511
$GPGGA,021112.000,5055.9622,N,00123.7600,W,1,9,0.82,55.7,M,47.6,M,,*75
t140000,139511
$GPGGA,021113.000,5055.9622,N,00123.7600,W,1,9,0.82,55.7,M,47.6,M,,*74
t141000,140512
$GPGGA,021114.000,5055.9621,N,00123.7600,W,1,9,0.82,55.7,M,47.6,M,,*70
t142054,141512
$GPGGA,021115.000,5055.9621,N,00123.7600,W,1,9,0.82,55.7,M,47.6,M,,*71
t143020,142513
$GPGGA,021116.000,5055.9620,N,00123.7600,W,1,9,0.82,55.7,M,47.6,M,,*73
t143965,143513
$GPGGA,021117.000,5055.9619,N,00123.7602,W,1,9,0.82,55.7,M,47.6,M,,*7A
t145017,144514
$GPGGA,021118.000,5055.9617,N,00123.7603,W,1,9,0.82,55.7,M,47.6,M,,*7A
t145971,145514
$GPGGA,021119.000,5055.9616,N,00123.7603,W,1,9,0.82,55.7,M,47.6,M,,*7A
t147024,146515
$GPGGA,021120.000,5055.9615,N,00123.7604,W,1,9,0.82,55.7,M,47.6,M,,*74
t147976,147515
$GPGGA,021121.000,5055.9613,N,00123.7605,W,1,9,0.82,55.7,M,47.6,M,,*72
t149014,148515
$GPGGA,021122.000,5055.9612,N,00123.7605,W,1,9,0.82,55.7,M,47.6,M,,*70
t149953,149516
$GPGGA,021123.000,5055.9611,N,00123.7607,W,1,9,0.82,55.7,M,47.6,M,,*70
t151013,150516
$GPGGA,021124.000,5055.9610,N,00123.7608,W,1,9,0.82,55.7,M,47.6,M,,*79
t151968,151517
$GPGGA,021125.000,5055.9609,N,00123.7609,W,1,9,0.82,55.7,M,47.6,M,,*71
t153066,152517
$GPGGA,021126.000,5055.9609,N,00123.7610,W,1,9,0.82,55.8,M,47.6,M,,*75
t153979,153518
$GPGGA,021127.000,5055.9608,N,00123.7612,W,1,9,0.82,55.8,M,47.6,M,,*77
t155076,154518
$GPGGA,021128.000,5055.9607,N,00123.7613,W,1,9,0.82,55.8,M,47.6,M,,*76
t156018,155519
$GPGGA,021129.000,5055.9606,N,00123.7614,W,1,9,0.82,55.8,M,47.6,M,,*71
t157218,156519
$GPGGA,021130.000,5055.9606,N,00123.7615,W,1,9,0.82,55.8,M,47.6,M,,*78
t158117,157519
$GPGGA,021131.000,5055.9605,N,00123.7616,W,1,9,0.82,55.8,M,47.6,M,,*79
t159192,158520
$GPGGA,021132.000,5055.9605,N,00123.7616,W,1,9,0.82,55.8,M,47.6,M,,*7A
t160139,159520
$GPGGA,021133.000,5055.9604,N,00123.7617,W,1,9,0.82,55.8,M,47.6,M,,*7B
t161177,160521
$GPGGA,021134.000,5055.9604,N,00123.7616,W,1,9,0.82,55.8,M,47.6,M,,*7D
t162144,161522
$GPGGA,021135.000,5055.9603,N,00123.7616,W,1,9,0.82,55.8,M,47.6,M,,*7B
t162964,162523
$GPGGA,021136.000,5055.9602,N,00123.7616,W,1,9,0.82,55.8,M,47.6,M,,*79
t164148,163523
$GPGGA,021137.000,5055.9602,N,00123.7615,W,1,9,0.82,55.8,M,47.6,M,,*7B
t165142,164524
$GPGGA,021138.000,5055.9601,N,00123.7613,W,1,9,0.82,55.8,M,47.6,M,,*71
t166078,165524
$GPGGA,021139.000,5055.9602,N,00123.7613,W,1,9,0.82,55.8,M,47.6,M,,*73
t167157,166525
$GPGGA,021140.000,5055.9602,N,00123.7613,W,1,9,0.82,55.7,M,47.6,M,,*72
t168149,167525
$GPGGA,021141.000,5055.9602,N,00123.7614,W,1,9,0.82,55.8,M,47.6,M,,*7B
t169149,168525
$GPGGA,021142.000,5055.9602,N,00123.7614,W,1,9,0.82,55.8,M,47.6,M,,*78
t170174,169526
$GPGGA,021143.000,5055.9602,N,00123.7615,W,1,9,0.82,55.8,M,47.6,M,,*78
t171142,170526
$GPGGA,021144.000,5055.9602,N,00123.7615,W,1,9,0.82,55.8,M,47.6,M,,*7F
t172228,171527
$GPGGA,021145.000,5055.9602,N,00123.7615,W,1,9,0.82,55.8,M,47.6,M,,*7E
t173166,172527
$GPGGA,021146.000,5055.9601,N,00123.7615,W,1,9,0.82,55.8,M,47.6,M,,*7E
t174152,173528
$GPGGA,021147.000,5055.9601,N,00123.7614,W,1,9,0.82,55.8,M,47.6,M,,*7E
t175149,174528
$GPGGA,021148.000,5055.9601,N,00123.7613,W,1,9,0.82,55.8,M,47.6,M,,*76
t176185,175529
$GPGGA,021149.000,5055.9600,N,00123.7612,W,1,9,0.82,55.8,M,47.6,M,,*77
t177170,176529
$GPGGA,021150.000,5055.9600,N,00123.7612,W,1,8,0.98,55.8,M,47.6,M,,*75
t178191,177529
$GPGGA,021151.000,5055.9599,N,00123.7612,W,1,8,0.98,55.8,M,47.6,M,,*77
t179180,178530
$GPGGA,021152.000,5055.9598,N,00123.7612,W,1,8,0.98,55.8,M,47.6,M,,*75
t180181,179530
$GPGGA,021153.000,5055.9598,N,00123.7612,W,1,8,0.98,55.8,M,47.6,M,,*74
t181162,180531
$GPGGA,021154.000,5055.9597,N,00123.7612,W,1,8,0.98,55.8,M,47.6,M,,*7C
t182141,181531
$GPGGA,021155.000,5055.9596,N,00123.7612,W,1,8,0.98,55.8,M,47.6,M,,*7C
t183114,182532
$GPGGA,021156.000,5055.9596,N,00123.7611,W,1,8,0.98,55.8,M,47.6,M,,*7C
t184068,183532
$GPGGA,021157.000,5055.9595,N,00123.7609,W,1,8,0.98,55.8,M,47.6,M,,*77
t185122,184533
$GPGGA,021158.000,5055.9595,N,00123.7606,W,1,8,0.98,55.8,M,47.6,M,,*77
t186112,185533
$GPGGA,021159.000,5055.9595,N,00123.7604,W,1,8,0.98,55.8,M,47.6,M,,*74
t187121,186533
$GPGGA,021200.000,5055.9597,N,00123.7601,W,1,8,0.98,55.8,M,47.6,M,,*7C
t188141,187534
$GPGGA,021201.000,5055.9597,N,00123.7600,W,1,8,0.98,55.8,M,47.6,M,,*7C
t189056,188534
$GPGGA,021202.000,5055.9597,N,00123.7598,W,1,8,1.02,55.8,M,47.6,M,,*7F
t190154,189535
$GPGGA,021203.000,5055.9595,N,00123.7595,W,1,8,0.98,55.9,M,47.6,M,,*72
t191125,190535
$GPGGA,021204.000,5055.9596,N,00123.7595,W,1,8,0.98,55.9,M,47.6,M,,*76
t192115,191536
$GPGGA,021205.000,5055.9596,N,00123.7596,W,1,8,0.98,55.9,M,47.6,M,,*74
t193051,192536
$GPGGA,021206.000,5055.9597,N,00123.7597,W,1,8,0.98,55.9,M,47.6,M,,*77
t194051,193537
$GPGGA,021207.000,5055.9597,N,00123.7598,W,1,7,1.17,55.9,M,47.6,M,,*70
t195088,194538
$GPGGA,021208.000,5055.9597,N,00123.7598,W,1,7,1.17,55.9,M,47.6,M,,*7F
t196015,195539
$GPGGA,021209.000,5055.9598,N,00123.7599,W,1,7,1.17,55.9,M,47.6,M,,*70
t196965,196539
$GPGGA,021210.000,5055.9599,N,00123.7600,W,1,8,0.98,55.9,M,47.6,M,,*73
t198045,197539
$GPGGA,021211.000,5055.9599,N,00123.7600,W,1,8,1.02,55.9,M,47.6,M,,*70
t198985,198540
$GPGGA,021212.000,5055.9600,N,00123.7600,W,1,8,1.02,55.9,M,47.6,M,,*70
t200047,199540
$GPGGA,021213.000,5055.9598,N,00123.7601,W,1,8,1.02,55.9,M,47.6,M,,*72
t201064,200541
$GPGGA,021214.000,5055.9597,N,00123.7601,W,1,8,1.02,56.0,M,47.6,M,,*70
t202108,201541
$GPGGA,021215.000,5055.9596,N,00123.7600,W,1,8,1.02,56.0,M,47.6,M,,*71
t203133,202542
$GPGGA,021216.000,5055.9595,N,00123.7597,W,1,8,1.02,56.0,M,47.6,M,,*7C
t204021,203542
$GPGGA,021217.000,5055.9595,N,00123.7597,W,1,9,0.82,56.0,M,47.6,M,,*75
t205108,204543
$GPGGA,021218.000,5055.9596,N,00123.7598,W,1,9,0.82,56.0,M,47.6,M,,*76
t206038,205543
$GPGGA,021219.000,5055.9596,N,00123.7599,W,1,9,0.82,56.0,M,47.6,M,,*76
t206984,206543
$GPGGA,021220.000,5055.9597,N,00123.7599,W,1,9,0.82,56.0,M,47.6,M,,*7D
t208222,207544
$GPGGA,021221.000,5055.9597,N,00123.7600,W,1,9,0.82,56.0,M,47.6,M,,*7F
t209208,208544
$GPGGA,021222.000,5055.9597,N,00123.7600,W,1,9,0.82,56.0,M,47.6,M,,*7C
t210014,209545
$GPGGA,021223.000,5055.9597,N,00123.7601,W,1,9,0.82,56.0,M,47.6,M,,*7C
t211209,210545
$GPGGA,021224.000,5055.9598,N,00123.7600,W,1,9,0.82,56.0,M,47.6,M,,*75
t212187,211546
$GPGGA,021225.000,5055.9598,N,00123.7600,W,1,8,0.98,56.1,M,47.6,M,,*7F
t213012,212546
$GPGGA,021226.000,5055.9598,N,00123.7600,W,1,8,1.02,56.1,M,47.6,M,,*7E
t214062,213547
$GPGGA,021227.000,5055.9599,N,00123.7599,W,1,8,0.98,56.1,M,47.6,M,,*7F
t215071,214547
$GPGGA,021228.000,5055.9598,N,00123.7598,W,1,8,0.98,56.1,M,47.6,M,,*70
t216001,215548
$GPGGA,021229.000,5055.9598,N,00123.7598,W,1,8,0.98,56.1,M,47.6,M,,*71
t217055,216548
$GPGGA,021230.000,5055.9598,N,00123.7598,W,1,8,0.98,56.1,M,47.6,M,,*79
t218074,217548
$GPGGA,021231.000,5055.9598,N,00123.7597,W,1,8,0.98,56.1,M,47.6,M,,*77
t219078,218549
$GPGGA,021232.000,5055.9598,N,00123.7597,W,1,8,0.98,56.1,M,47.6,M,,*74
t220130,219549
$GPGGA,021233.000,5055.9598,N,00123.7598,W,1,8,0.98,56.1,M,47.6,M,,*7A
t221109,220550
$GPGGA,021234.000,5055.9598,N,00123.7599,W,1,8,0.98,56.1,M,47.6,M,,*7C
t222106,221550
$GPGGA,021235.000,5055.9598,N,00123.7600,W,1,8,0.98,56.1,M,47.6,M,,*7E
t223119,222551
$GPGGA,021236.000,5055.9598,N,00123.7601,W,1,8,0.98,56.1,M,47.6,M,,*7C
t224067,223551
$GPGGA,021237.000,5055.9598,N,00123.7601,W,1,8,0.98,56.1,M,47.6,M,,*7D
t225068,224552
$GPGGA,021238.000,5055.9599,N,00123.7601,W,1,8,0.98,56.1,M,47.6,M,,*73
t226079,225552
$GPGGA,021239.000,5055.9599,N,00123.7600,W,1,8,0.98,56.1,M,47.6,M,,*73
t227090,226552
$GPGGA,021240.000,5055.9600,N,00123.7600,W,1,8,0.98,56.1,M,47.6,M,,*7E
t228173,227553
$GPGGA,021241.000,5055.9601,N,00123.7599,W,1,7,1.07,56.1,M,47.6,M,,*75
t229172,228554
$GPGGA,021242.000,5055.9601,N,00123.7598,W,1,7,1.07,56.1,M,47.6,M,,*77
t229966,229555
$GPGGA,021243.000,5055.9602,N,00123.7598,W,1,7,1.07,56.1,M,47.6,M,,*75
t231164,230555
$GPGGA,021244.000,5055.9602,N,00123.7597,W,1,7,1.07,56.1,M,47.6,M,,*7D
t232187,231556
$GPGGA,021245.000,5055.9603,N,00123.7597,W,1,7,1.07,56.1,M,47.6,M,,*7D
t233183,232556
$GPGGA,021246.000,5055.9603,N,00123.7597,W,1,7,1.09,56.1,M,47.6,M,,*70
t234163,233557
$GPGGA,021247.000,5055.9604,N,00123.7597,W,1,7,1.09,56.1,M,47.6,M,,*76
t235016,234557
$GPGGA,021248.000,5055.9604,N,00123.7597,W,1,7,1.07,56.2,M,47.6,M,,*74
t235999,235558
$GPGGA,021249.000,5055.9605,N,00123.7595,W,1,7,1.07,56.2,M,47.6,M,,*76
t237174,236558
$GPGGA,021250.000,5055.9605,N,00123.7593,W,1,7,1.07,56.2,M,47.6,M,,*78
t238178,237558
$GPGGA,021251.000,5055.9606,N,00123.7592,W,1,7,1.07,56.2,M,47.6,M,,*7B
t239000,238559
$GPGGA,021252.000,5055.9607,N,00123.7591,W,1,7,1.07,56.2,M,47.6,M,,*7A
t240010,239559
$GPGGA,021253.000,5055.9608,N,00123.7591,W,1,7,1.09,56.2,M,47.6,M,,*7A
t240998,240560
$GPGGA,021254.000,5055.9609,N,00123.7590,W,1,7,1.07,56.2,M,47.6,M,,*73
t242009,241560
$GPGGA,021255.000,5055.9610,N,00123.7589,W,1,7,1.07,56.2,M,47.6,M,,*72
t243000,242561
$GPGGA,021256.000,5055.9611,N,00123.7588,W,1,7,1.07,56.2,M,47.6,M,,*71
t244371,243561
$GPGGA,021257.000,5055.9612,N,00123.7587,W,1,7,1.07,56.2,M,47.6,M,,*7C
t245370,244562
$GPGGA,021258.000,5055.9614,N,00123.7586,W,1,7,1.07,56.2,M,47.6,M,,*74
t246352,245562
$GPGGA,021259.000,5055.9615,N,00123.7585,W,1,7,1.07,56.2,M,47.6,M,,*77
t247307,246562
$GPGGA,021300.000,5055.9616,N,00123.7584,W,1,7,1.07,56.2,M,47.6,M,,*78
t248349,247563
$GPGGA,021301.000,5055.9617,N,00123.7583,W,1,7,1.09,56.2,M,47.6,M,,*71
t249002,248563
$GPGGA,021302.000,5055.9618,N,00123.7583,W,1,7,1.09,56.2,M,47.6,M,,*7D
t250025,249564
$GPGGA,021303.000,5055.9619,N,00123.7583,W,1,7,1.09,56.2,M,47.6,M,,*7D
t251321,250564
$GPGGA,021304.000,5055.9619,N,00123.7583,W,1,7,1.09,56.2,M,47.6,M,,*7A
t252047,251565
$GPGGA,021305.000,5055.9620,N,00123.7583,W,1,7,1.07,56.2,M,47.6,M,,*7F
t253322,252565
$GPGGA,021306.000,5055.9620,N,00123.7583,W,1,7,1.07,56.2,M,47.6,M,,*7C
t254001,253566
$GPGGA,021307.000,5055.9621,N,00123.7583,W,1,7,1.07,56.3,M,47.6,M,,*7D
t255011,254566
$GPGGA,021308.000,5055.9621,N,00123.7583,W,1,7,1.07,56.3,M,47.6,M,,*72
t256011,255567
$GPGGA,021309.000,5055.9621,N,00123.7583,W,1,8,0.98,56.3,M,47.6,M,,*7B
t257006,256567
$GPGGA,021310.000,5055.9620,N,00123.7584,W,1,8,0.98,56.3,M,47.6,M,,*75
t258000,257567
$GPGGA,021311.000,5055.9620,N,00123.7582,W,1,8,0.98,56.3,M,47.6,M,,*72
t259003,258568
$GPGGA,021312.000,5055.9596,N,00123.7593,W,1,8,0.98,56.2,M,47.6,M,,*7E
t260006,259568
$GPGGA,021313.000,5055.9579,N,00123.7602,W,1,8,0.98,56.1,M,47.6,M,,*76
t261004,260569
$GPGGA,021314.000,5055.9565,N,00123.7609,W,1,8,0.98,56.0,M,47.6,M,,*76
t262020,261569
$GPGGA,021315.000,5055.9556,N,00123.7614,W,1,7,1.18,56.0,M,47.6,M,,*7D
t263031,262570
$GPGGA,021316.000,5055.9548,N,00123.7618,W,1,8,0.98,55.9,M,47.6,M,,*71
t264037,263570
$GPGGA,021317.000,5055.9552,N,00123.7615,W,1,7,1.18,55.9,M,47.6,M,,*70
t265070,264571
$GPGGA,021318.000,5055.9552,N,00123.7614,W,1,7,1.18,55.9,M,47.6,M,,*7E
t266063,265571
$GPGGA,021319.000,5055.9552,N,00123.7613,W,1,8,0.98,55.9,M,47.6,M,,*7E
t267078,266571
$GPGGA,021320.000,5055.9549,N,00123.7615,W,1,8,0.98,55.9,M,47.6,M,,*78
t268018,267572
$GPGGA,021321.000,5055.9549,N,00123.7616,W,1,8,0.98,55.9,M,47.6,M,,*7A
t269056,268572
$GPGGA,021322.000,5055.9548,N,00123.7617,W,1,8,0.98,55.9,M,47.6,M,,*79
t270018,269573
$GPGGA,021323.000,5055.9547,N,00123.7619,W,1,8,0.98,55.9,M,47.6,M,,*79
t271009,270573
$GPGGA,021324.000,5055.9547,N,00123.7621,W,1,8,0.98,55.9,M,47.6,M,,*75
t272018,271574
$GPGGA,021325.000,5055.9546,N,00123.7623,W,1,8,0.98,55.9,M,47.6,M,,*77
t273026,272574
$GPGGA,021326.000,5055.9545,N,00123.7625,W,1,8,0.98,55.9,M,47.6,M,,*71
t274050,273575
$GPGGA,021327.000,5055.9544,N,00123.7626,W,1,8,0.98,55.9,M,47.6,M,,*72
t275200,274575
$GPGGA,021328.000,5055.9543,N,00123.7626,W,1,8,0.98,55.9,M,47.6,M,,*7A
t275978,275575
$GPGGA,021329.000,5055.9542,N,00123.7627,W,1,8,0.98,55.9,M,47.6,M,,*7B
t276979,276576
$GPGGA,021330.000,5055.9541,N,00123.7627,W,1,8,0.98,55.9,M,47.6,M,,*70
t278187,277577
$GPGGA,021331.000,5055.9541,N,00123.7626,W,1,8,0.98,55.9,M,47.6,M,,*70
t278988,278578
$GPGGA,021332.000,5055.9540,N,00123.7626,W,1,8,0.98,55.9,M,47.6,M,,*72
t279992,279578
$GPGGA,021333.000,5055.9540,N,00123.7626,W,1,8,0.98,55.9,M,47.6,M,,*73
t280989,280579
$GPGGA,021334.000,5055.9540,N,00123.7627,W,1,8,0.98,55.8,M,47.6,M,,*74
t282015,281579
$GPGGA,021335.000,5055.9540,N,00123.7628,W,1,8,0.98,55.8,M,47.6,M,,*7A
t283206,282580
$GPGGA,021336.000,5055.9540,N,00123.7629,W,1,8,0.98,55.8,M,47.6,M,,*78
t284057,283580
$GPGGA,021337.000,5055.9541,N,00123.7631,W,1,8,0.98,55.8,M,47.6,M,,*71
t285059,284581
$GPGGA,021338.000,5055.9544,N,00123.7637,W,1,8,0.98,55.8,M,47.6,M,,*7D
t286104,285581
$GPGGA,021339.000,5055.9548,N,00123.7638,W,1,8,0.98,55.8,M,47.6,M,,*7F
t287035,286581
$GPGGA,021340.000,5055.9546,N,00123.7645,W,1,8,0.98,55.9,M,47.6,M,,*74
t288105,287582
$GPGGA,021341.000,5055.9548,N,00123.7647,W,1,8,0.98,55.9,M,47.6,M,,*79
t289044,288582
$GPGGA,021342.000,5055.9548,N,00123.7649,W,1,8,0.98,55.9,M,47.6,M,,*74
t290143,289583
$GPGGA,021343.000,5055.9549,N,00123.7652,W,1,8,0.98,56.0,M,47.6,M,,*74
t291200,290583
$GPGGA,021344.000,5055.9548,N,00123.7654,W,1,8,0.98,56.0,M,47.6,M,,*74
t292102,291584
$GPGGA,021345.000,5055.9548,N,00123.7652,W,1,8,0.98,56.0,M,47.6,M,,*73
t293196,292584
$GPGGA,021346.000,5055.9548,N,00123.7653,W,1,9,0.82,56.0,M,47.6,M,,*7B
t294281,293585
$GPGGA,021347.000,5055.9549,N,00123.7654,W,1,9,0.82,56.0,M,47.6,M,,*7C
t295094,294585
$GPGGA,021348.000,5055.9549,N,00123.7656,W,1,9,0.82,56.0,M,47.6,M,,*71
t296113,295585
$GPGGA,021349.000,5055.9549,N,00123.7658,W,1,9,0.82,56.0,M,47.6,M,,*7E
t297086,296586
$GPGGA,021350.000,5055.9549,N,00123.7659,W,1,9,0.82,56.1,M,47.6,M,,*76
t298148,297586
$GPGGA,021351.000,5055.9550,N,00123.7659,W,1,8,0.90,56.1,M,47.6,M,,*7D
t299114,298587
$GPGGA,021352.000,5055.9550,N,00123.7659,W,1,8,0.90,56.1,M,47.6,M,,*7E
t300101,299587
$GPGGA,021353.000,5055.9550,N,00123.7658,W,1,8,0.90,56.1,M,47.6,M,,*7E
t301110,300588
$GPGGA,021354.000,5055.9549,N,00123.7658,W,1,9,0.82,56.1,M,47.6,M,,*73
t302147,301588
$GPGGA,021355.000,5055.9549,N,00123.7658,W,1,9,0.82,56.1,M,47.6,M,,*72
t303144,302589
$GPGGA,021356.000,5055.9549,N,00123.7658,W,1,9,0.82,56.1,M,47.6,M,,*71
t304170,303589
$GPGGA,021357.000,5055.9548,N,00123.7658,W,1,9,0.82,56.1,M,47.6,M,,*71
t305084,304590
$GPGGA,021358.000,5055.9547,N,00123.7658,W,1,9,0.82,56.1,M,47.6,M,,*71
t306244,305590
$GPGGA,021359.000,5055.9547,N,00123.7659,W,1,9,0.82,56.1,M,47.6,M,,*71
t307299,306590
$GPGGA,021400.000,5055.9546,N,00123.7661,W,1,9,0.82,56.1,M,47.6,M,,*70
t308118,307591
$GPGGA,021401.000,5055.9546,N,00123.7662,W,1,9,0.82,56.1,M,47.6,M,,*72
t309119,308591
$GPGGA,021402.000,5055.9546,N,00123.7662,W,1,9,0.82,56.1,M,47.6,M,,*71
t310266,309592
$GPGGA,021403.000,5055.9546,N,00123.7662,W,1,9,0.82,56.1,M,47.6,M,,*70
t311204,310592
$GPGGA,021404.000,5055.9546,N,00123.7660,W,1,9,0.82,56.1,M,47.6,M,,*75
t312170,311593
$GPGGA,021405.000,5055.9547,N,00123.7658,W,1,9,0.82,56.1,M,47.6,M,,*7E
t313100,312593
$GPGGA,021406.000,5055.9547,N,00123.7657,W,1,9,0.82,56.1,M,47.6,M,,*72
t314077,313594
$GPGGA,021407.000,5055.9547,N,00123.7657,W,1,9,0.82,56.1,M,47.6,M,,*73
t315145,314594
$GPGGA,021408.000,5055.9548,N,00123.7658,W,1,9,0.82,56.1,M,47.6,M,,*7C
t316187,315594
$GPGGA,021409.000,5055.9548,N,00123.7660,W,1,9,0.82,56.1,M,47.6,M,,*76
t317084,316595
$GPGGA,021410.000,5055.9548,N,00123.7661,W,1,9,0.82,56.1,M,47.6,M,,*7F
t318170,317595
$GPGGA,021411.000,5055.9548,N,00123.7663,W,1,9,0.82,56.1,M,47.6,M,,*7C
t319078,318596
$GPGGA,021412.000,5055.9548,N,00123.7664,W,1,9,0.82,56.1,M,47.6,M,,*78
t320088,319596
$GPGGA,021413.000,5055.9548,N,00123.7664,W,1,9,0.82,56.1,M,47.6,M,,*79
t321119,320597
$GPGGA,021414.000,5055.9549,N,00123.7663,W,1,9,0.82,56.1,M,47.6,M,,*78
t322132,321597
$GPGGA,021415.000,5055.9549,N,00123.7663,W,1,9,0.82,56.1,M,47.6,M,,*79
t323152,322598
$GPGGA,021416.000,5055.9550,N,00123.7662,W,1,9,0.82,56.1,M,47.6,M,,*73
t324054,323598
$GPGGA,021417.000,5055.9550,N,00123.7661,W,1,9,0.82,56.1,M,47.6,M,,*71
t325047,324599
$GPGGA,021418.000,5055.9551,N,00123.7659,W,1,9,0.82,56.1,M,47.6,M,,*74
t326127,325600
$GPGGA,021419.000,5055.9551,N,00123.7658,W,1,9,0.82,56.1,M,47.6,M,,*74
t327072,326600
$GPGGA,021420.000,5055.9552,N,00123.7656,W,1,9,0.82,56.1,M,47.6,M,,*73
t328291,327601
$GPGGA,021421.000,5055.9552,N,00123.7655,W,1,9,0.82,56.1,M,47.6,M,,*71
t329225,328601
$GPGGA,021422.000,5055.9552,N,00123.7655,W,1,9,0.82,56.1,M,47.6,M,,*72
t330282,329602
$GPGGA,021423.000,5055.9552,N,00123.7654,W,1,9,0.82,56.1,M,47.6,M,,*72
t331303,330602
$GPGGA,021424.000,5055.9553,N,00123.7653,W,1,9,0.82,56.1,M,47.6,M,,*73
t332303,331603
$GPGGA,021425.000,5055.9554,N,00123.7652,W,1,9,0.82,56.1,M,47.6,M,,*74
t333261,332603
$GPGGA,021426.000,5055.9554,N,00123.7652,W,1,9,0.82,56.1,M,47.6,M,,*77
t334176,333604
$GPGGA,021427.000,5055.9554,N,00123.7653,W,1,9,0.82,56.1,M,47.6,M,,*77
t334711,334604
$GPGGA,021428.000,5055.9554,N,00123.7655,W,1,9,0.82,56.1,M,47.6,M,,*7E
t336268,335604
$GPGGA,021429.000,5055.9553,N,00123.7657,W,1,9,0.82,56.1,M,47.6,M,,*7A
t337284,336605
$GPGGA,021430.000,5055.9553,N,00123.7658,W,1,9,0.82,56.2,M,47.6,M,,*7E
t338284,337605
$GPGGA,021431.000,5055.9553,N,00123.7659,W,1,9,0.82,56.2,M,47.6,M,,*7E
t339265,338606
$GPGGA,021432.000,5055.9553,N,00123.7659,W,1,9,0.82,56.2,M,47.6,M,,*7D
t340280,339606
$GPGGA,021433.000,5055.9553,N,00123.7659,W,1,9,0.82,56.2,M,47.6,M,,*7C
t341270,340607
$GPGGA,021434.000,5055.9554,N,00123.7657,W,1,9,0.82,56.2,M,47.6,M,,*72
t342310,341607
$GPGGA,021435.000,5055.9555,N,00123.7657,W,1,9,0.82,56.2,M,47.6,M,,*72
t343268,342608
$GPGGA,021436.000,5055.9556,N,00123.7656,W,1,9,0.82,56.2,M,47.6,M,,*73
t344273,343608
$GPGGA,021437.000,5055.9556,N,00123.7656,W,1,9,0.82,56.2,M,47.6,M,,*72
t345193,344609
$GPGGA,021438.000,5055.9556,N,00123.7656,W,1,9,0.82,56.2,M,47.6,M,,*7D
t346194,345609
$GPGGA,021439.000,5055.9557,N,00123.7655,W,1,9,0.82,56.2,M,47.6,M,,*7E
t347193,346609
$GPGGA,021440.000,5055.9557,N,00123.7654,W,1,9,0.82,56.2,M,47.6,M,,*71
t348239,347610
$GPGGA,021441.000,5055.9557,N,00123.7653,W,1,9,0.82,56.2,M,47.6,M,,*77
t349195,348610
$GPGGA,021442.000,5055.9558,N,00123.7651,W,1,9,0.82,56.2,M,47.6,M,,*79
t350196,349611
$GPGGA,021443.000,5055.9558,N,00123.7649,W,1,9,0.82,56.2,M,47.6,M,,*71
t351193,350611
$GPGGA,021444.000,5055.9559,N,00123.7648,W,1,9,0.82,56.2,M,47.6,M,,*76
t352185,351612
$GPGGA,021445.000,5055.9561,N,00123.7647,W,1,9,0.82,56.2,M,47.6,M,,*73
t353183,352612
$GPGGA,021446.000,5055.9562,N,00123.7646,W,1,9,0.82,56.2,M,47.6,M,,*72
t354174,353613
$GPGGA,021447.000,5055.9563,N,00123.7646,W,1,9,0.82,56.2,M,47.6,M,,*72
t355174,354613
$GPGGA,021448.000,5055.9565,N,00123.7646,W,1,9,0.82,56.2,M,47.6,M,,*7B
t356179,355613
$GPGGA,021449.000,5055.9566,N,00123.7646,W,1,9,0.82,56.3,M,47.6,M,,*78
t357198,356614
$GPGGA,021450.000,5055.9566,N,00123.7645,W,1,9,0.82,56.3,M,47.6,M,,*73
t358339,357614
$GPGGA,021451.000,5055.9567,N,00123.7644,W,1,9,0.82,56.3,M,47.6,M,,*72
t359339,358615
$GPGGA,021452.000,5055.9568,N,00123.7642,W,1,9,0.82,56.3,M,47.6,M,,*78
t360338,359615
$GPGGA,021453.000,5055.9570,N,00123.7637,W,1,9,0.82,56.3,M,47.6,M,,*72
t361096,360616
$GPGGA,021454.000,5055.9573,N,00123.7631,W,1,9,0.82,56.4,M,47.6,M,,*77
t362103,361616
$GPGGA,021455.000,5055.9575,N,00123.7625,W,1,9,0.82,56.4,M,47.6,M,,*75
t363328,362617
$GPGGA,021456.000,5055.9576,N,00123.7621,W,1,9,0.82,56.4,M,47.6,M,,*71
t364113,363617
$GPGGA,021457.000,5055.9577,N,00123.7621,W,1,8,0.92,56.4,M,47.6,M,,*71
t365269,364618
$GPGGA,021458.000,5055.9578,N,00123.7619,W,1,8,0.92,56.4,M,47.6,M,,*7A
t366256,365618
$GPGGA,021459.000,5055.9578,N,00123.7615,W,1,8,0.92,56.4,M,47.6,M,,*77
t367098,366618
$GPGGA,021500.000,5055.9579,N,00123.7610,W,1,8,0.92,56.4,M,47.6,M,,*7E
t368089,367619
$GPGGA,021501.000,5055.9581,N,00123.7608,W,1,8,0.92,56.4,M,47.6,M,,*71
t369312,368619
$GPGGA,021502.000,5055.9582,N,00123.7605,W,1,8,0.92,56.4,M,47.6,M,,*7C
t370279,369620
$GPGGA,021503.000,5055.9581,N,00123.7600,W,1,8,0.92,56.4,M,47.6,M,,*7B
t371269,370620
$GPGGA,021504.000,5055.9582,N,00123.7599,W,1,8,0.92,56.4,M,47.6,M,,*7C
t372270,371621
$GPGGA,021505.000,5055.9583,N,00123.7599,W,1,8,0.92,56.4,M,47.6,M,,*7C
t373084,372622
$GPGGA,021506.000,5055.9584,N,00123.7597,W,1,8,0.92,56.4,M,47.6,M,,*76
t374098,373623
$GPGGA,021507.000,5055.9585,N,00123.7596,W,1,8,0.92,56.4,M,47.6,M,,*77
t375281,374623
$GPGGA,021508.000,5055.9586,N,00123.7595,W,1,7,1.06,56.4,M,47.6,M,,*7B
t376064,375623
$GPGGA,021509.000,5055.9587,N,00123.7592,W,1,7,1.06,56.4,M,47.6,M,,*7C
t377055,376624
$GPGGA,021510.000,5055.9588,N,00123.7591,W,1,7,1.06,56.4,M,47.6,M,,*78
t378054,377624
$GPGGA,021511.000,5055.9587,N,00123.7592,W,1,8,0.92,56.4,M,47.6,M,,*76
t379317,378625
$GPGGA,021512.000,5055.9587,N,00123.7592,W,1,8,0.92,56.4,M,47.6,M,,*75
t380129,379625
$GPGGA,021513.000,5055.9589,N,00123.7591,W,1,8,0.92,56.4,M,47.6,M,,*79
t381338,380626
$GPGGA,021514.000,5055.9590,N,00123.7588,W,1,8,0.92,56.4,M,47.6,M,,*7E
t382129,381626
$GPGGA,021515.000,5055.9590,N,00123.7589,W,1,8,0.92,56.4,M,47.6,M,,*7E
t383266,382627
$GPGGA,021516.000,5055.9589,N,00123.7591,W,1,7,1.00,56.4,M,47.6,M,,*79
t384149,383627
$GPGGA,021517.000,5055.9589,N,00123.7591,W,1,7,1.00,56.3,M,47.6,M,,*7F
t385096,384627
$GPGGA,021518.000,5055.9588,N,00123.7593,W,1,7,1.00,56.3,M,47.6,M,,*73
t386277,385628
$GPGGA,021519.000,5055.9587,N,00123.7596,W,1,7,1.00,56.3,M,47.6,M,,*78
t387107,386628
$GPGGA,021520.000,5055.9586,N,00123.7597,W,1,8,0.84,56.2,M,47.6,M,,*71
t388100,387629
$GPGGA,021521.000,5055.9582,N,00123.7602,W,1,8,0.92,56.2,M,47.6,M,,*7C
t389289,388630
$GPGGA,021522.000,5055.9580,N,00123.7603,W,1,8,0.92,56.2,M,47.6,M,,*7C
t390172,389631
$GPGGA,021523.000,5055.9577,N,00123.7604,W,1,9,0.82,56.2,M,47.6,M,,*72
t391080,390631
$GPGGA,021524.000,5055.9574,N,00123.7602,W,1,9,0.82,56.2,M,47.6,M,,*70
t392100,391632
$GPGGA,021525.000,5055.9575,N,00123.7600,W,1,9,0.82,56.3,M,47.6,M,,*73
t393307,392632
$GPGGA,021526.000,5055.9576,N,00123.7599,W,1,9,0.82,56.3,M,47.6,M,,*70
t394298,393633
$GPGGA,021527.000,5055.9579,N,00123.7597,W,1,9,0.82,56.3,M,47.6,M,,*70
t395293,394633
$GPGGA,021528.000,5055.9579,N,00123.7594,W,1,9,0.82,56.3,M,47.6,M,,*7C
t396288,395633
$GPGGA,021529.000,5055.9578,N,00123.7590,W,1,9,0.82,56.3,M,47.6,M,,*78
t397278,396634
$GPGGA,021530.000,5055.9578,N,00123.7586,W,1,9,0.82,56.2,M,47.6,M,,*76
t398297,397634
$GPGGA,021531.000,5055.9578,N,00123.7584,W,1,9,0.82,56.2,M,47.6,M,,*75
t399278,398635
$GPGGA,021532.000,5055.9576,N,00123.7580,W,1,9,0.82,56.2,M,47.6,M,,*7C
t400367,399635
$GPGGA,021533.000,5055.9576,N,00123.7576,W,1,9,0.82,56.2,M,47.6,M,,*74
t401355,400636
$GPGGA,021534.000,5055.9573,N,00123.7572,W,1,9,0.82,56.2,M,47.6,M,,*72
t402332,401636
$GPGGA,021535.000,5055.9571,N,00123.7567,W,1,9,0.82,56.1,M,47.6,M,,*76
t403298,402637
$GPGGA,021536.000,5055.9568,N,00123.7567,W,1,9,0.82,56.2,M,47.6,M,,*7E
t404279,403638
$GPGGA,021537.000,5055.9568,N,00123.7567,W,1,9,0.82,56.2,M,47.6,M,,*7F
t405237,404638
$GPGGA,021538.000,5055.9566,N,00123.7567,W,1,9,0.82,56.2,M,47.6,M,,*7E
t406218,405639
$GPGGA,021539.000,5055.9564,N,00123.7572,W,1,9,0.82,56.2,M,47.6,M,,*79
t407206,406639
$GPGGA,021540.000,5055.9560,N,00123.7579,W,1,9,0.82,56.3,M,47.6,M,,*79
t408209,407640
$GPGGA,021541.000,5055.9559,N,00123.7577,W,1,9,0.82,56.3,M,47.6,M,,*7C
t409300,408640
$GPGGA,021542.000,5055.9558,N,00123.7576,W,1,9,0.82,56.3,M,47.6,M,,*7F
t410301,409641
$GPGGA,021543.000,5055.9559,N,00123.7576,W,1,9,0.82,56.3,M,47.6,M,,*7F
t411180,410641
$GPGGA,021544.000,5055.9559,N,00123.7576,W,1,8,0.98,56.3,M,47.6,M,,*72
t412097,411642
$GPGGA,021545.000,5055.9560,N,00123.7576,W,1,8,1.01,56.3,M,47.6,M,,*78
t413095,412642
$GPGGA,021546.000,5055.9560,N,00123.7576,W,1,8,0.98,56.3,M,47.6,M,,*7A
t414106,413643
$GPGGA,021547.000,5055.9560,N,00123.7575,W,1,8,0.98,56.3,M,47.6,M,,*78
t415278,414643
$GPGGA,021548.000,5055.9561,N,00123.7575,W,1,8,0.98,56.3,M,47.6,M,,*76
t416252,415643
$GPGGA,021549.000,5055.9561,N,00123.7574,W,1,8,0.98,56.3,M,47.6,M,,*76
t417074,416644
$GPGGA,021550.000,5055.9561,N,00123.7572,W,1,8,0.98,56.3,M,47.6,M,,*78
t418262,417644
$GPGGA,021551.000,5055.9562,N,00123.7571,W,1,8,0.98,56.3,M,47.6,M,,*79
t419252,418645
$GPGGA,021552.000,5055.9562,N,00123.7571,W,1,8,1.01,56.3,M,47.6,M,,*7B
t420271,419646
$GPGGA,021553.000,5055.9562,N,00123.7571,W,1,8,0.98,56.3,M,47.6,M,,*7B
t421322,420647
$GPGGA,021554.000,5055.9562,N,00123.7572,W,1,8,0.98,56.3,M,47.6,M,,*7F
t422305,421647
$GPGGA,021555.000,5055.9562,N,00123.7573,W,1,8,0.98,56.3,M,47.6,M,,*7F
t423218,422648
$GPGGA,021556.000,5055.9563,N,00123.7574,W,1,8,0.98,56.3,M,47.6,M,,*7A
t424262,423648
$GPGGA,021557.000,5055.9563,N,00123.7574,W,1,8,0.98,56.3,M,47.6,M,,*7B
t425253,424648
$GPGGA,021558.000,5055.9563,N,00123.7575,W,1,8,0.98,56.3,M,47.6,M,,*75
t426324,425649
$GPGGA,021559.000,5055.9562,N,00123.7575,W,1,8,0.98,56.3,M,47.6,M,,*75
t427166,426649
$GPGGA,021600.000,5055.9562,N,00123.7576,W,1,8,0.98,56.3,M,47.6,M,,*79
t428178,427650
$GPGGA,021601.000,5055.9561,N,00123.7577,W,1,8,0.98,56.3,M,47.6,M,,*7A
t429178,428650
$GPGGA,021602.000,5055.9561,N,00123.7578,W,1,8,0.98,56.3,M,47.6,M,,*76
t430180,429651
$GPGGA,021603.000,5055.9559,N,00123.7580,W,1,8,0.98,56.3,M,47.6,M,,*7B
t431159,430651
$GPGGA,021604.000,5055.9559,N,00123.7581,W,1,8,0.98,56.3,M,47.6,M,,*7D
t432229,431652
$GPGGA,021605.000,5055.9557,N,00123.7581,W,1,8,0.98,56.4,M,47.6,M,,*75
t433171,432652
$GPGGA,021606.000,5055.9557,N,00123.7581,W,1,7,1.18,56.4,M,47.6,M,,*70
t434131,433653
$GPGGA,021607.000,5055.9556,N,00123.7581,W,1,7,1.18,56.4,M,47.6,M,,*70
t435131,434654
$GPGGA,021608.000,5055.9556,N,00123.7581,W,1,7,1.33,56.4,M,47.6,M,,*76
t436150,435654
$GPGGA,021609.000,5055.9557,N,00123.7582,W,1,7,1.18,56.4,M,47.6,M,,*7C
t437137,436655
$GPGGA,021610.000,5055.9557,N,00123.7582,W,1,7,1.18,56.4,M,47.6,M,,*74
t438241,437655
$GPGGA,021611.000,5055.9557,N,00123.7582,W,1,7,1.18,56.4,M,47.6,M,,*75
t439146,438656
$GPGGA,021612.000,5055.9557,N,00123.7583,W,1,7,1.18,56.4,M,47.6,M,,*77
t440157,439656
$GPGGA,021613.000,5055.9557,N,00123.7583,W,1,7,1.18,56.4,M,47.6,M,,*76
t441140,440657
$GPGGA,021614.000,5055.9557,N,00123.7584,W,1,7,1.33,56.4,M,47.6,M,,*7F
t442149,441657
$GPGGA,021615.000,5055.9558,N,00123.7584,W,1,7,1.18,56.4,M,47.6,M,,*78
t443160,442658
$GPGGA,021616.000,5055.9558,N,00123.7584,W,1,7,1.18,56.4,M,47.6,M,,*7B
t444254,443658
$GPGGA,021617.000,5055.9560,N,00123.7584,W,1,7,1.33,56.4,M,47.6,M,,*78
t445065,444658
$GPGGA,021618.000,5055.9561,N,00123.7585,W,1,7,1.33,56.4,M,47.6,M,,*77
t446141,445659
$GPGGA,021619.000,5055.9562,N,00123.7585,W,1,7,1.33,56.4,M,47.6,M,,*75
t447141,446659
$GPGGA,021620.000,5055.9563,N,00123.7586,W,1,7,1.18,56.5,M,47.6,M,,*75
t448216,447660
$GPGGA,021621.000,5055.9564,N,00123.7587,W,1,7,1.33,56.5,M,47.6,M,,*7B
t449161,448660
$GPGGA,021622.000,5055.9565,N,00123.7587,W,1,7,1.18,56.5,M,47.6,M,,*70
t450152,449661
$GPGGA,021623.000,5055.9566,N,00123.7588,W,1,7,1.18,56.5,M,47.6,M,,*7D
t451162,450662
$GPGGA,021624.000,5055.9567,N,00123.7589,W,1,6,1.40,56.5,M,47.6,M,,*76
t452244,451663
$GPGGA,021625.000,5055.9568,N,00123.7589,W,1,7,1.33,56.5,M,47.6,M,,*7D
t453252,452663
$GPGGA,021626.000,5055.9569,N,00123.7589,W,1,7,1.33,56.5,M,47.6,M,,*7F
t454207,453664
$GPGGA,021627.000,5055.9570,N,00123.7588,W,1,7,1.33,56.5,M,47.6,M,,*77
t455286,454664
$GPGGA,021628.000,5055.9571,N,00123.7589,W,1,7,1.33,56.5,M,47.6,M,,*78
t456285,455664
$GPGGA,021629.000,5055.9571,N,00123.7589,W,1,7,1.18,56.5,M,47.6,M,,*70
t457200,456665
$GPGGA,021630.000,5055.9571,N,00123.7591,W,1,7,1.18,56.5,M,47.6,M,,*71
t458166,457665
$GPGGA,021631.000,5055.9572,N,00123.7592,W,1,7,1.18,56.5,M,47.6,M,,*70
t459148,458666
$GPGGA,021632.000,5055.9572,N,00123.7592,W,1,6,1.40,56.5,M,47.6,M,,*7F
t460190,459666
$GPGGA,021633.000,5055.9573,N,00123.7592,W,1,6,2.05,56.5,M,47.6,M,,*7D
t461198,460667
$GPGGA,021634.000,5055.9574,N,00123.7591,W,1,7,1.33,56.5,M,47.6,M,,*79
t462204,461667
$GPGGA,021635.000,5055.9575,N,00123.7591,W,1,8,1.01,56.5,M,47.6,M,,*77
t463195,462668
$GPGGA,021636.000,5055.9576,N,00123.7591,W,1,8,1.01,56.5,M,47.6,M,,*77
t464200,463668
$GPGGA,021637.000,5055.9576,N,00123.7592,W,1,8,0.98,56.5,M,47.6,M,,*74
t465210,464668
$GPGGA,021638.000,5055.9576,N,00123.7594,W,1,8,0.98,56.5,M,47.6,M,,*7D
t466218,465669
$GPGGA,021639.000,5055.9576,N,00123.7596,W,1,8,0.98,56.5,M,47.6,M,,*7E
t467198,466669
$GPGGA,021640.000,5055.9576,N,00123.7597,W,1,8,0.98,56.5,M,47.6,M,,*71
t468183,467670
$GPGGA,021641.000,5055.9577,N,00123.7598,W,1,8,0.98,56.5,M,47.6,M,,*7E
t469242,468670
$GPGGA,021642.000,5055.9578,N,00123.7598,W,1,8,1.01,56.5,M,47.6,M,,*73
t470204,469671
$GPGGA,021643.000,5055.9579,N,00123.7598,W,1,8,1.01,56.5,M,47.6,M,,*73
t471195,470671
$GPGGA,021644.000,5055.9580,N,00123.7599,W,1,8,1.01,56.5,M,47.6,M,,*73
t472197,471672
$GPGGA,021645.000,5055.9581,N,00123.7599,W,1,8,1.01,56.5,M,47.6,M,,*73
t473202,472672
$GPGGA,021646.000,5055.9583,N,00123.7598,W,1,8,1.01,56.4,M,47.6,M,,*72
t474203,473673
$GPGGA,021647.000,5055.9584,N,00123.7598,W,1,8,1.01,56.3,M,47.6,M,,*73
t475345,474673
$GPGGA,021648.000,5055.9583,N,00123.7600,W,1,8,1.01,56.2,M,47.6,M,,*78
t476245,475673
$GPGGA,021649.000,5055.9583,N,00123.7601,W,1,8,1.01,56.1,M,47.6,M,,*7B
t477287,476674
$GPGGA,021650.000,5055.9584,N,00123.7601,W,1,8,1.01,56.0,M,47.6,M,,*75
t478249,477674
$GPGGA,021651.000,5055.9584,N,00123.7602,W,1,8,0.98,56.0,M,47.6,M,,*76
t479247,478675
$GPGGA,021652.000,5055.9584,N,00123.7603,W,1,7,1.06,56.0,M,47.6,M,,*7D
t480308,479675
$GPGGA,021653.000,5055.9584,N,00123.7605,W,1,7,1.06,56.0,M,47.6,M,,*7A
t481306,480676
$GPGGA,021654.000,5055.9584,N,00123.7605,W,1,7,1.06,56.0,M,47.6,M,,*7D
t482296,481677
$GPGGA,021655.000,5055.9584,N,00123.7605,W,1,7,1.06,56.0,M,47.6,M,,*7C
t483279,482678
$GPGGA,021656.000,5055.9584,N,00123.7605,W,1,8,0.98,56.0,M,47.6,M,,*76
t484148,483678
$GPGGA,021657.000,5055.9584,N,00123.7606,W,1,8,0.98,56.0,M,47.6,M,,*74
t485092,484678
$GPGGA,021658.000,5055.9584,N,00123.7606,W,1,8,0.98,56.0,M,47.6,M,,*7B
t486102,485679
$GPGGA,021659.000,5055.9585,N,00123.7607,W,1,8,0.98,56.0,M,47.6,M,,*7A
t487125,486679
$GPGGA,021700.000,5055.9585,N,00123.7606,W,1,8,0.98,56.0,M,47.6,M,,*76
t488125,487680
$GPGGA,021701.000,5055.9583,N,00123.7604,W,1,8,0.98,55.9,M,47.6,M,,*79
t489102,488680
$GPGGA,021702.000,5055.9578,N,00123.7600,W,1,8,0.98,55.7,M,47.6,M,,*74
t490250,489681
$GPGGA,021703.000,5055.9577,N,00123.7597,W,1,8,0.98,55.7,M,47.6,M,,*77
t491049,490681
$GPGGA,021704.000,5055.9574,N,00123.7594,W,1,7,1.06,55.6,M,47.6,M,,*78
t492064,491682
$GPGGA,021705.000,5055.9574,N,00123.7592,W,1,8,0.98,55.6,M,47.6,M,,*76
t493112,492682
$GPGGA,021706.000,5055.9574,N,00123.7590,W,1,8,0.98,55.6,M,47.6,M,,*77
t494129,493682
$GPGGA,021707.000,5055.9574,N,00123.7588,W,1,8,0.98,55.6,M,47.6,M,,*7F
t495049,494683
$GPGGA,021708.000,5055.9574,N,00123.7586,W,1,8,0.98,55.6,M,47.6,M,,*7E
t496120,495683
$GPGGA,021709.000,5055.9575,N,00123.7585,W,1,8,0.98,55.6,M,47.6,M,,*7D
t497158,496684
$GPGGA,021710.000,5055.9574,N,00123.7584,W,1,8,0.98,55.6,M,47.6,M,,*75
t498107,497684
$GPGGA,021711.000,5055.9574,N,00123.7585,W,1,8,0.98,55.6,M,47.6,M,,*75
t499166,498685
$GPGGA,021712.000,5055.9574,N,00123.7585,W,1,8,0.98,55.6,M,47.6,M,,*76
t500148,499685
$GPGGA,021713.000,5055.9573,N,00123.7586,W,1,8,0.98,55.6,M,47.6,M,,*73
t501119,500686
$GPGGA,021714.000,5055.9573,N,00123.7587,W,1,8,0.98,55.6,M,47.6,M,,*75
t502096,501686
$GPGGA,021715.000,5055.9572,N,00123.7588,W,1,8,0.98,55.6,M,47.6,M,,*7A
t503182,502687
$GPGGA,021716.000,5055.9571,N,00123.7588,W,1,8,0.98,55.6,M,47.6,M,,*7A
t504108,503687
$GPGGA,021717.000,5055.9570,N,00123.7589,W,1,8,0.98,55.6,M,47.6,M,,*7B
t505118,504687
$GPGGA,021718.000,5055.9569,N,00123.7589,W,1,8,0.98,55.6,M,47.6,M,,*7C
t506084,505688
$GPGGA,021719.000,5055.9568,N,00123.7589,W,1,8,0.98,55.6,M,47.6,M,,*7C
t507066,506688
$GPGGA,021720.000,5055.9567,N,00123.7588,W,1,8,0.98,55.6,M,47.6,M,,*78
t508094,507689
$GPGGA,021721.000,5055.9566,N,00123.7587,W,1,8,0.98,55.6,M,47.6,M,,*77
t509135,508689
$GPGGA,021722.000,5055.9565,N,00123.7587,W,1,8,0.98,55.6,M,47.6,M,,*77
t510123,509690
$GPGGA,021723.000,5055.9563,N,00123.7586,W,1,8,0.98,55.6,M,47.6,M,,*71
t511168,510690
$GPGGA,021724.000,5055.9562,N,00123.7586,W,1,8,0.98,55.6,M,47.6,M,,*77
t512118,511691
$GPGGA,021725.000,5055.9560,N,00123.7586,W,1,8,0.98,55.6,M,47.6,M,,*74
t513185,512691
$GPGGA,021726.000,5055.9559,N,00123.7586,W,1,8,0.98,55.6,M,47.6,M,,*7D
t514101,513691
$GPGGA,021727.000,5055.9558,N,00123.7586,W,1,8,0.98,55.6,M,47.6,M,,*7D
t515111,514692
$GPGGA,021728.000,5055.9557,N,00123.7587,W,1,8,0.98,55.6,M,47.6,M,,*7C
t516163,515692
$GPGGA,021729.000,5055.9556,N,00123.7587,W,1,8,0.98,55.6,M,47.6,M,,*7C
t517224,516693
$GPGGA,021730.000,5055.9555,N,00123.7587,W,1,8,0.98,55.6,M,47.6,M,,*77
t518234,517693
$GPGGA,021731.000,5055.9554,N,00123.7586,W,1,8,0.98,55.6,M,47.6,M,,*76
t519164,518694
$GPGGA,021732.000,5055.9554,N,00123.7585,W,1,8,0.98,55.6,M,47.6,M,,*76
t520343,519694
$GPGGA,021733.000,5055.9553,N,00123.7585,W,1,8,0.98,55.5,M,47.6,M,,*73
t521187,520695
$GPGGA,021734.000,5055.9552,N,00123.7584,W,1,8,0.98,55.5,M,47.6,M,,*74
t522086,521695
$GPGGA,021735.000,5055.9551,N,00123.7584,W,1,8,0.98,55.5,M,47.6,M,,*76
t523058,522696
$GPGGA,021736.000,5055.9551,N,00123.7584,W,1,8,0.98,55.5,M,47.6,M,,*75
t524059,523696
$GPGGA,021737.000,5055.9550,N,00123.7584,W,1,8,0.98,55.5,M,47.6,M,,*75
t525175,524696
$GPGGA,021738.000,5055.9549,N,00123.7584,W,1,8,0.98,55.5,M,47.6,M,,*72
t526347,525697
$GPGGA,021739.000,5055.9548,N,00123.7585,W,1,8,0.98,55.5,M,47.6,M,,*73
t527088,526697
$GPGGA,021740.000,5055.9548,N,00123.7584,W,1,8,0.98,55.5,M,47.6,M,,*7C
t528296,527698
$GPGGA,021741.000,5055.9548,N,00123.7583,W,1,8,0.98,55.5,M,47.6,M,,*7A
t529073,528698
$GPGGA,021742.000,5055.9547,N,00123.7583,W,1,7,1.18,55.5,M,47.6,M,,*70
t530023,529699
$GPGGA,021743.000,5055.9547,N,00123.7584,W,1,7,1.18,55.5,M,47.6,M,,*76
t531079,530699
$GPGGA,021744.000,5055.9547,N,00123.7584,W,1,7,1.18,55.5,M,47.6,M,,*71
t532121,531700
$GPGGA,021745.000,5055.9547,N,00123.7584,W,1,7,1.18,55.5,M,47.6,M,,*70
t533123,532700
$GPGGA,021746.000,5055.9546,N,00123.7584,W,1,7,1.18,55.5,M,47.6,M,,*72
t534267,533700
$GPGGA,021747.000,5055.9546,N,00123.7583,W,1,7,1.18,55.5,M,47.6,M,,*74
t535082,534701
$GPGGA,021748.000,5055.9546,N,00123.7582,W,1,7,1.18,55.5,M,47.6,M,,*7A
t536171,535701
$GPGGA,021749.000,5055.9545,N,00123.7580,W,1,7,1.18,55.5,M,47.6,M,,*7A
t537278,536702
$GPGGA,021750.000,5055.9545,N,00123.7579,W,1,7,1.18,55.5,M,47.6,M,,*74
t538126,537702
$GPGGA,021751.000,5055.9545,N,00123.7578,W,1,7,1.18,55.5,M,47.6,M,,*74
t539322,538703
$GPGGA,021752.000,5055.9545,N,00123.7577,W,1,7,1.18,55.5,M,47.6,M,,*78
t540145,539703
$GPGGA,021753.000,5055.9544,N,00123.7577,W,1,7,1.18,55.5,M,47.6,M,,*78
t541178,540704
$GPGGA,021754.000,5055.9544,N,00123.7577,W,1,7,1.18,55.5,M,47.6,M,,*7F
t542284,541704
$GPGGA,021755.000,5055.9544,N,00123.7577,W,1,7,1.18,55.5,M,47.6,M,,*7E
t543177,542705
$GPGGA,021756.000,5055.9543,N,00123.7577,W,1,7,1.18,55.5,M,47.6,M,,*7A
t544106,543705
$GPGGA,021757.000,5055.9543,N,00123.7577,W,1,7,1.18,55.5,M,47.6,M,,*7B
t545078,544705
$GPGGA,021758.000,5055.9543,N,00123.7576,W,1,7,1.18,55.5,M,47.6,M,,*75
t546154,545706
$GPGGA,021759.000,5055.9543,N,00123.7576,W,1,7,1.18,55.5,M,47.6,M,,*74
t547137,546706
$GPGGA,021800.000,5055.9542,N,00123.7576,W,1,7,1.18,55.5,M,47.6,M,,*76
t548154,547707
$GPGGA,021801.000,5055.9542,N,00123.7575,W,1,7,1.18,55.5,M,47.6,M,,*74
t549145,548707
$GPGGA,021802.000,5055.9542,N,00123.7575,W,1,7,1.18,55.5,M,47.6,M,,*77
t550148,549708
$GPGGA,021803.000,5055.9542,N,00123.7576,W,1,7,1.18,55.5,M,47.6,M,,*75
t551189,550708
$GPGGA,021804.000,5055.9542,N,00123.7576,W,1,7,1.18,55.5,M,47.6,M,,*72
t552203,551709
$GPGGA,021805.000,5055.9542,N,00123.7576,W,1,7,1.18,55.5,M,47.6,M,,*73
t553162,552709
$GPGGA,021806.000,5055.9542,N,00123.7576,W,1,7,1.18,55.5,M,47.6,M,,*70
t554187,553709
$GPGGA,021807.000,5055.9541,N,00123.7575,W,1,7,1.18,55.5,M,47.6,M,,*71
t555145,554710
$GPGGA,021808.000,5055.9541,N,00123.7576,W,1,7,1.18,55.5,M,47.6,M,,*7D
t556154,555710
$GPGGA,021809.000,5055.9541,N,00123.7576,W,1,8,0.90,55.6,M,47.6,M,,*71
t557333,556711
$GPGGA,021810.000,5055.9540,N,00123.7575,W,1,8,0.90,55.6,M,47.6,M,,*7B
t558335,557712
$GPGGA,021811.000,5055.9540,N,00123.7574,W,1,7,1.18,55.6,M,47.6,M,,*75
t559051,558713
$GPGGA,021812.000,5055.9539,N,00123.7573,W,1,7,1.18,55.6,M,47.6,M,,*7F
t560119,559713
$GPGGA,021813.000,5055.9539,N,00123.7572,W,1,7,1.18,55.6,M,47.6,M,,*7F
t561109,560714
$GPGGA,021814.000,5055.9538,N,00123.7571,W,1,7,1.18,55.6,M,47.6,M,,*7A
t562120,561714
$GPGGA,021815.000,5055.9538,N,00123.7571,W,1,7,1.18,55.6,M,47.6,M,,*7B
t563171,562715
$GPGGA,021816.000,5055.9538,N,00123.7571,W,1,7,1.18,55.6,M,47.6,M,,*78
t564153,563715
$GPGGA,021817.000,5055.9538,N,00123.7571,W,1,8,0.98,55.6,M,47.6,M,,*7F
t565158,564715
$GPGGA,021818.000,5055.9537,N,00123.7571,W,1,8,0.98,55.6,M,47.6,M,,*7F
t566188,565716
$GPGGA,021819.000,5055.9537,N,00123.7571,W,1,8,0.98,55.6,M,47.6,M,,*7E
t567175,566716
$GPGGA,021820.000,5055.9536,N,00123.7570,W,1,8,0.98,55.6,M,47.6,M,,*74
t568127,567717
$GPGGA,021821.000,5055.9536,N,00123.7568,W,1,8,0.98,55.6,M,47.6,M,,*7C
t569175,568717
$GPGGA,021822.000,5055.9535,N,00123.7567,W,1,8,0.98,55.6,M,47.6,M,,*73
t570196,569718
$GPGGA,021823.000,5055.9534,N,00123.7566,W,1,8,0.98,55.6,M,47.6,M,,*72
t571207,570718
$GPGGA,021824.000,5055.9534,N,00123.7565,W,1,8,0.98,55.5,M,47.6,M,,*75
t572172,571719
$GPGGA,021825.000,5055.9534,N,00123.7564,W,1,8,0.98,55.5,M,47.6,M,,*75
t573215,572720
$GPGGA,021826.000,5055.9533,N,00123.7564,W,1,8,0.98,55.5,M,47.6,M,,*71
t574176,573720
$GPGGA,021827.000,5055.9533,N,00123.7565,W,1,8,0.98,55.5,M,47.6,M,,*71
t575250,574721
$GPGGA,021828.000,5055.9533,N,00123.7565,W,1,8,0.98,55.5,M,47.6,M,,*7E
t576201,575721
$GPGGA,021829.000,5055.9533,N,00123.7566,W,1,9,0.82,55.5,M,47.6,M,,*76
t577262,576722
$GPGGA,021830.000,5055.9533,N,00123.7567,W,1,9,0.82,55.5,M,47.6,M,,*7F
t578251,577722
$GPGGA,021831.000,5055.9533,N,00123.7567,W,1,9,0.82,55.5,M,47.6,M,,*7E
t579209,578723
$GPGGA,021832.000,5055.9533,N,00123.7568,W,1,9,0.82,55.5,M,47.6,M,,*72
t580274,579723
$GPGGA,021833.000,5055.9533,N,00123.7568,W,1,9,0.82,55.5,M,47.6,M,,*73
t581253,580724
$GPGGA,021834.000,5055.9533,N,00123.7570,W,1,9,0.82,55.5,M,47.6,M,,*7D
t582272,581724
$GPGGA,021835.000,5055.9533,N,00123.7572,W,1,9,0.82,55.5,M,47.6,M,,*7E
t583203,582725
$GPGGA,021836.000,5055.9533,N,00123.7574,W,1,9,0.82,55.5,M,47.6,M,,*7B
t584306,583725
$GPGGA,021837.000,5055.9533,N,00123.7574,W,1,9,0.82,55.5,M,47.6,M,,*7A
t585257,584725
$GPGGA,021838.000,5055.9533,N,00123.7574,W,1,9,0.82,55.5,M,47.6,M,,*75
t586205,585726
$GPGGA,021839.000,5055.9532,N,00123.7573,W,1,9,0.82,55.5,M,47.6,M,,*72
t587313,586726
$GPGGA,021840.000,5055.9532,N,00123.7574,W,1,9,0.82,55.5,M,47.6,M,,*7B
t588247,587727
$GPGGA,021841.000,5055.9532,N,00123.7575,W,1,9,0.82,55.5,M,47.6,M,,*7B
t589247,588727
$GPGGA,021842.000,5055.9532,N,00123.7576,W,1,9,0.82,55.5,M,47.6,M,,*7B
t590252,589728
$GPGGA,021843.000,5055.9533,N,00123.7576,W,1,9,0.82,55.5,M,47.6,M,,*7B
t591316,590728
$GPGGA,021844.000,5055.9532,N,00123.7577,W,1,9,0.82,55.5,M,47.6,M,,*7C
t592334,591729
$GPGGA,021845.000,5055.9533,N,00123.7579,W,1,9,0.82,55.5,M,47.6,M,,*72
t593283,592729
$GPGGA,021846.000,5055.9535,N,00123.7582,W,1,9,0.82,55.4,M,47.6,M,,*72
t594254,593729
$GPGGA,021847.000,5055.9537,N,00123.7581,W,1,9,0.82,55.4,M,47.6,M,,*72
t595277,594730
$GPGGA,021848.000,5055.9540,N,00123.7580,W,1,9,0.82,55.3,M,47.6,M,,*7B
t596330,595730
$GPGGA,021849.000,5055.9541,N,00123.7581,W,1,9,0.82,55.3,M,47.6,M,,*7A
t597182,596731
$GPGGA,021850.000,5055.9543,N,00123.7583,W,1,9,0.82,55.2,M,47.6,M,,*73
t598280,597731
$GPGGA,021851.000,5055.9544,N,00123.7584,W,1,9,0.82,55.2,M,47.6,M,,*72
t599275,598732
$GPGGA,021852.000,5055.9547,N,00123.7585,W,1,9,0.82,55.2,M,47.6,M,,*73
t600275,599732
$GPGGA,021853.000,5055.9552,N,00123.7586,W,1,9,0.82,55.2,M,47.6,M,,*75
t601255,600733
$GPGGA,021854.000,5055.9555,N,00123.7589,W,1,9,0.82,55.1,M,47.6,M,,*79
t602346,601733
$GPGGA,021855.000,5055.9557,N,00123.7589,W,1,9,0.82,55.1,M,47.6,M,,*7A
t603267,602733
$GPGGA,021856.000,5055.9557,N,00123.7590,W,1,9,0.82,55.1,M,47.6,M,,*71
t604370,603734
$GPGGA,021857.000,5055.9558,N,00123.7591,W,1,9,0.82,55.1,M,47.6,M,,*7E
t605258,604734
$GPGGA,021858.000,5055.9555,N,00123.7591,W,1,9,0.82,55.0,M,47.6,M,,*7D
t606331,605735
$GPGGA,021859.000,5055.9554,N,00123.7592,W,1,9,0.82,55.0,M,47.6,M,,*7E
t607255,606735
$GPGGA,021900.000,5055.9553,N,00123.7591,W,1,9,0.82,55.0,M,47.6,M,,*77
t608381,607736
$GPGGA,021901.000,5055.9552,N,00123.7590,W,1,9,0.82,55.0,M,47.6,M,,*76
t609372,608736
$GPGGA,021902.000,5055.9551,N,00123.7589,W,1,9,0.82,55.0,M,47.6,M,,*7E
t610384,609737
$GPGGA,021903.000,5055.9551,N,00123.7588,W,1,9,0.82,55.0,M,47.6,M,,*7E
t611373,610737
$GPGGA,021904.000,5055.9550,N,00123.7588,W,1,9,0.82,55.0,M,47.6,M,,*78
t612404,611738
$GPGGA,021905.000,5055.9550,N,00123.7588,W,1,9,0.82,55.0,M,47.6,M,,*79
t613563,612738
$GPGGA,021906.000,5055.9550,N,00123.7589,W,1,9,0.82,55.0,M,47.6,M,,*7B
t614522,613738
$GPGGA,021907.000,5055.9550,N,00123.7590,W,1,9,0.82,55.0,M,47.6,M,,*72
t615514,614739
$GPGGA,021908.000,5055.9550,N,00123.7591,W,1,9,0.82,55.0,M,47.6,M,,*7C
t616504,615739
$GPGGA,021909.000,5055.9550,N,00123.7592,W,1,9,0.82,55.0,M,47.6,M,,*7E
t617402,616740
$GPGGA,021910.000,5055.9550,N,00123.7593,W,1,9,0.82,55.0,M,47.6,M,,*77
t618495,617740
$GPGGA,021911.000,5055.9550,N,00123.7594,W,1,9,0.82,55.0,M,47.6,M,,*71
t619494,618741
$GPGGA,021912.000,5055.9550,N,00123.7594,W,1,9,0.82,54.9,M,47.6,M,,*7A
t620504,619741
$GPGGA,021913.000,5055.9548,N,00123.7594,W,1,9,0.82,54.9,M,47.6,M,,*72
t621514,620742
$GPGGA,021914.000,5055.9548,N,00123.7594,W,1,9,0.82,54.9,M,47.6,M,,*75
t622514,621742
$GPGGA,021915.000,5055.9548,N,00123.7594,W,1,9,0.82,54.8,M,47.6,M,,*75
t623523,622742
$GPGGA,021916.000,5055.9548,N,00123.7595,W,1,9,0.82,54.8,M,47.6,M,,*77
t624369,623743
$GPGGA,021917.000,5055.9548,N,00123.7596,W,1,9,0.82,54.8,M,47.6,M,,*75
t625370,624743
$GPGGA,021918.000,5055.9548,N,00123.7597,W,1,9,0.82,54.8,M,47.6,M,,*7B
t626431,625744
$GPGGA,021919.000,5055.9548,N,00123.7597,W,1,9,0.82,54.8,M,47.6,M,,*7A
t627264,626744
$GPGGA,021920.000,5055.9548,N,00123.7598,W,1,9,0.82,54.8,M,47.6,M,,*7F
t628364,627745
$GPGGA,021921.000,5055.9548,N,00123.7599,W,1,9,0.82,54.8,M,47.6,M,,*7F
t629562,628745
$GPGGA,021922.000,5055.9548,N,00123.7599,W,1,9,0.82,54.8,M,47.6,M,,*7C
t630193,629746
$GPGGA,021923.000,5055.9548,N,00123.7601,W,1,9,0.82,54.8,M,47.6,M,,*7F
t631346,630746
$GPGGA,021924.000,5055.9548,N,00123.7603,W,1,9,0.82,54.9,M,47.6,M,,*7B
t632193,631747
$GPGGA,021925.000,5055.9548,N,00123.7605,W,1,9,0.82,54.9,M,47.6,M,,*7C
t633426,632747
$GPGGA,021926.000,5055.9548,N,00123.7606,W,1,9,0.82,54.9,M,47.6,M,,*7C
t634261,633748
$GPGGA,021927.000,5055.9547,N,00123.7606,W,1,9,0.82,54.9,M,47.6,M,,*72
t635386,634749
$GPGGA,021928.000,5055.9548,N,00123.7605,W,1,9,0.82,54.8,M,47.6,M,,*70
t636345,635749
$GPGGA,021929.000,5055.9546,N,00123.7605,W,1,9,0.82,54.8,M,47.6,M,,*7F
t637273,636750
$GPGGA,021930.000,5055.9547,N,00123.7606,W,1,9,0.82,54.8,M,47.6,M,,*75
t638292,637750
$GPGGA,021931.000,5055.9549,N,00123.7607,W,1,9,0.82,54.8,M,47.6,M,,*7B
t639222,638751
$GPGGA,021932.000,5055.9549,N,00123.7608,W,1,9,0.82,54.8,M,47.6,M,,*77
t640234,639751
$GPGGA,021933.000,5055.9547,N,00123.7609,W,1,9,0.82,54.8,M,47.6,M,,*79
t641386,640752
$GPGGA,021934.000,5055.9544,N,00123.7611,W,1,9,0.82,54.8,M,47.6,M,,*74
t642281,641752
$GPGGA,021935.000,5055.9542,N,00123.7613,W,1,9,0.82,54.9,M,47.6,M,,*70
t643291,642752
$GPGGA,021936.000,5055.9541,N,00123.7612,W,1,9,0.82,54.9,M,47.6,M,,*71
t644355,643753
$GPGGA,021937.000,5055.9538,N,00123.7611,W,1,9,0.82,54.9,M,47.6,M,,*7D
t645521,644753
$GPGGA,021938.000,5055.9535,N,00123.7611,W,1,9,0.82,54.9,M,47.6,M,,*7F
t646375,645754
$GPGGA,021939.000,5055.9533,N,00123.7611,W,1,9,0.82,54.9,M,47.6,M,,*78
t647398,646754
$GPGGA,021940.000,5055.9532,N,00123.7611,W,1,9,0.82,54.9,M,47.6,M,,*77
t648214,647755
$GPGGA,021941.000,5055.9531,N,00123.7611,W,1,9,0.82,54.9,M,47.6,M,,*75
t649399,648756
$GPGGA,021942.000,5055.9530,N,00123.7612,W,1,9,0.82,54.9,M,47.6,M,,*74
t650412,649757
$GPGGA,021943.000,5055.9529,N,00123.7612,W,1,9,0.82,54.9,M,47.6,M,,*7D
t651365,650757
$GPGGA,021944.000,5055.9528,N,00123.7612,W,1,9,0.82,54.9,M,47.6,M,,*7B
t652390,651758
$GPGGA,021945.000,5055.9525,N,00123.7610,W,1,9,0.82,54.9,M,47.6,M,,*75
t653354,652758
$GPGGA,021946.000,5055.9524,N,00123.7609,W,1,9,0.82,54.9,M,47.6,M,,*7F
t654353,653758
$GPGGA,021947.000,5055.9522,N,00123.7609,W,1,8,0.85,54.9,M,47.6,M,,*7E
t655351,654759
$GPGGA,021948.000,5055.9520,N,00123.7608,W,1,9,0.82,54.9,M,47.6,M,,*74
t656377,655759
$GPGGA,021949.000,5055.9520,N,00123.7609,W,1,9,0.82,54.9,M,47.6,M,,*74
t657358,656760
$GPGGA,021950.000,5055.9520,N,00123.7608,W,1,9,0.82,54.8,M,47.6,M,,*7C
t658373,657760
$GPGGA,021951.000,5055.9518,N,00123.7607,W,1,9,0.82,54.7,M,47.6,M,,*76
t659382,658761
$GPGGA,021952.000,5055.9517,N,00123.7606,W,1,9,0.82,54.7,M,47.6,M,,*7B
t660330,659761
$GPGGA,021953.000,5055.9515,N,00123.7605,W,1,9,0.82,54.6,M,47.6,M,,*7A
t661309,660762
$GPGGA,021954.000,5055.9514,N,00123.7604,W,1,9,0.82,54.5,M,47.6,M,,*7E
t662310,661762
$GPGGA,021955.000,5055.9512,N,00123.7604,W,1,9,0.82,54.4,M,47.6,M,,*78
t663314,662762
$GPGGA,021956.000,5055.9511,N,00123.7604,W,1,9,0.82,54.4,M,47.6,M,,*78
t664315,663763
$GPGGA,021957.000,5055.9510,N,00123.7604,W,1,9,0.82,54.4,M,47.6,M,,*78
t665320,664763
$GPGGA,021958.000,5055.9510,N,00123.7606,W,1,9,0.82,54.4,M,47.6,M,,*75
t666265,665764
$GPGGA,021959.000,5055.9509,N,00123.7605,W,1,9,0.82,54.3,M,47.6,M,,*78
t667364,666764
$GPGGA,022000.000,5055.9508,N,00123.7604,W,1,9,0.82,54.3,M,47.6,M,,*7E
t668290,667765
$GPGGA,022001.000,5055.9507,N,00123.7600,W,1,8,0.84,54.2,M,47.6,M,,*72
t669239,668765
$GPGGA,022002.000,5055.9507,N,00123.7600,W,1,9,0.82,54.2,M,47.6,M,,*76
t670424,669766
$GPGGA,022003.000,5055.9506,N,00123.7600,W,1,9,0.82,54.1,M,47.6,M,,*75
t671393,670766
$GPGGA,022004.000,5055.9508,N,00123.7599,W,1,8,0.85,54.1,M,47.6,M,,*79
t672309,671767
$GPGGA,022005.000,5055.9508,N,00123.7598,W,1,9,0.82,54.0,M,47.6,M,,*7E
t673309,672767
$GPGGA,022006.000,5055.9508,N,00123.7597,W,1,8,0.85,54.0,M,47.6,M,,*74
t674293,673767
$GPGGA,022007.000,5055.9508,N,00123.7597,W,1,9,0.82,54.0,M,47.6,M,,*73
t675260,674768
$GPGGA,022008.000,5055.9508,N,00123.7596,W,1,9,0.82,54.0,M,47.6,M,,*7D
t676468,675768
$GPGGA,022009.000,5055.9508,N,00123.7594,W,1,9,0.82,54.0,M,47.6,M,,*7E
t677348,676769
$GPGGA,022010.000,5055.9508,N,00123.7593,W,1,9,0.82,54.0,M,47.6,M,,*71
t678292,677769
$GPGGA,022011.000,5055.9509,N,00123.7592,W,1,8,0.85,54.0,M,47.6,M,,*76
t679254,678770
$GPGGA,022012.000,5055.9509,N,00123.7593,W,1,8,0.85,54.0,M,47.6,M,,*74
t680303,679770
$GPGGA,022013.000,5055.9509,N,00123.7594,W,1,8,0.85,54.0,M,47.6,M,,*72
t681295,680771
$GPGGA,022014.000,5055.9510,N,00123.7594,W,1,8,0.85,54.0,M,47.6,M,,*7D
t682296,681771
$GPGGA,022015.000,5055.9510,N,00123.7593,W,1,8,0.85,54.0,M,47.6,M,,*7B
t683255,682771
$GPGGA,022016.000,5055.9510,N,00123.7593,W,1,8,0.85,54.0,M,47.6,M,,*78
t684310,683772
$GPGGA,022017.000,5055.9510,N,00123.7593,W,1,8,0.85,54.0,M,47.6,M,,*79
t685288,684772
$GPGGA,022018.000,5055.9510,N,00123.7592,W,1,9,0.82,54.0,M,47.6,M,,*71
t686299,685773
$GPGGA,022019.000,5055.9510,N,00123.7592,W,1,9,0.82,54.0,M,47.6,M,,*70
t687364,686773
$GPGGA,022020.000,5055.9510,N,00123.7591,W,1,9,0.82,54.0,M,47.6,M,,*79
t688337,687774
$GPGGA,022021.000,5055.9510,N,00123.7591,W,1,9,0.82,54.0,M,47.6,M,,*78
t689366,688774
$GPGGA,022022.000,5055.9510,N,00123.7591,W,1,9,0.82,54.0,M,47.6,M,,*7B
t690324,689775
$GPGGA,022023.000,5055.9511,N,00123.7592,W,1,9,0.82,54.0,M,47.6,M,,*78
t691308,690775
$GPGGA,022024.000,5055.9514,N,00123.7593,W,1,8,0.85,54.0,M,47.6,M,,*7D
t692307,691776
$GPGGA,022025.000,5055.9516,N,00123.7594,W,1,8,0.85,54.0,M,47.6,M,,*79
t693319,692776
$GPGGA,022026.000,5055.9520,N,00123.7593,W,1,8,0.85,54.0,M,47.6,M,,*78
t694394,693777
$GPGGA,022027.000,5055.9523,N,00123.7592,W,1,8,0.85,54.0,M,47.6,M,,*7B
t695387,694778
$GPGGA,022028.000,5055.9523,N,00123.7593,W,1,9,0.82,54.0,M,47.6,M,,*73
t696413,695778
$GPGGA,022029.000,5055.9524,N,00123.7595,W,1,9,0.82,54.0,M,47.6,M,,*73
t697443,696779
$GPGGA,022030.000,5055.9525,N,00123.7594,W,1,9,0.82,54.0,M,47.6,M,,*7B
t698350,697779
$GPGGA,022031.000,5055.9525,N,00123.7593,W,1,9,0.82,54.0,M,47.6,M,,*7D
t699371,698780
$GPGGA,022032.000,5055.9526,N,00123.7592,W,1,9,0.82,54.0,M,47.6,M,,*7C
t700283,699780
