$GPGGA,170914.951,,,,,0,1,,,M,,M,,*4E,1085
$GPRMC,170914.951,V,,,,,0.01,0.00,241015,,,N*48,1085
$GPGGA,170915.951,,,,,0,1,,,M,,M,,*4F,978
$GPRMC,170915.951,V,,,,,0.01,0.00,241015,,,N*49,978
$GPGGA,170916.951,,,,,0,1,,,M,,M,,*4C,975
$GPRMC,170916.951,V,,,,,0.01,0.00,241015,,,N*4A,975
$GPGGA,170917.951,,,,,0,1,,,M,,M,,*4D,1000
$GPRMC,170917.951,V,,,,,0.07,0.00,241015,,,N*4D,1000
$GPGGA,170918.951,,,,,0,1,,,M,,M,,*42,1002
$GPRMC,170918.951,V,,,,,0.19,0.00,241015,,,N*4D,1002
$GPGGA,170919.951,,,,,0,2,,,M,,M,,*40,1035
$GPRMC,170919.951,V,,,,,0.27,0.00,241015,,,N*41,1035
$GPGGA,170920.951,,,,,0,3,,,M,,M,,*4B,1002
$GPRMC,170920.951,V,,,,,0.35,0.00,241015,,,N*48,1002
$GPGGA,170921.950,,,,,0,4,,,M,,M,,*4C,1053
$GPRMC,170921.950,V,,,,,0.38,0.00,241015,,,N*45,1053
$GPGGA,170922.940,,,,,0,4,,,M,,M,,*4E,968
$GPRMC,170922.940,V,,,,,0.40,0.00,241015,,,N*48,968
$GPGGA,170923.944,,,,,0,4,,,M,,M,,*4B,1042
$GPRMC,170923.944,V,,,,,0.28,0.00,241015,,,N*43,1042
$GPGGA,170924.943,,,,,0,6,,,M,,M,,*49,1111
$GPRMC,170924.943,V,,,,,0.31,0.00,241015,,,N*4B,1111
$GPGGA,170925.947,,,,,0,6,,,M,,M,,*4C,938
$GPRMC,170925.947,V,,,,,0.62,151.79,241015,,,N*43,938
$GPGGA,170926.951,,,,,0,5,,,M,,M,,*4B,1246
$GPRMC,170926.951,V,,,,,0.87,141.04,241015,,,N*47,1246
$GPGGA,170927.951,5056.0233,N,00123.9778,W,1,5,1.54,14.5,M,47.6,M,,*7C,947
$GPRMC,170927.951,A,5056.0233,N,00123.9778,W,0.84,145.67,241015,,,A*70,947
$GPGGA,170928.951,5056.0234,N,00123.9783,W,1,5,1.54,15.2,M,47.6,M,,*76,1049
$GPRMC,170928.951,A,5056.0234,N,00123.9783,W,0.64,158.80,241015,,,A*77,1049
$GPGGA,170929.951,5056.0233,N,00123.9785,W,1,5,1.54,15.9,M,47.6,M,,*7D,937
$GPRMC,170929.951,A,5056.0233,N,00123.9785,W,0.48,158.80,241015,,,A*79,937
$GPGGA,170930.951,5056.0188,N,00123.9744,W,1,6,1.30,14.3,M,47.6,M,,*71,946
$GPRMC,170930.951,A,5056.0188,N,00123.9744,W,0.91,183.91,241015,,,A*7D,946
$GPGGA,170932.000,5056.0187,N,00123.9742,W,1,6,1.30,15.1,M,47.6,M,,*74,927
$GPRMC,170932.000,A,5056.0187,N,00123.9742,W,0.63,169.77,241015,,,A*7A,927
$GPGGA,170933.000,5056.0185,N,00123.9744,W,1,6,1.30,16.6,M,47.6,M,,*75,992
$GPRMC,170933.000,A,5056.0185,N,00123.9744,W,0.66,162.12,241015,,,A*72,992
$GPGGA,170934.000,5056.0178,N,00123.9743,W,1,6,1.30,19.1,M,47.6,M,,*7F,958
$GPRMC,170934.000,A,5056.0178,N,00123.9743,W,0.58,162.12,241015,,,A*7D,958
$GPGGA,170935.000,5056.0172,N,00123.9743,W,1,6,1.30,20.7,M,47.6,M,,*78,1019
$GPRMC,170935.000,A,5056.0172,N,00123.9743,W,0.44,162.12,241015,,,A*7B,1019
$GPGGA,170936.000,5056.0167,N,00123.9742,W,1,6,1.30,22.4,M,47.6,M,,*7F,999
$GPRMC,170936.000,A,5056.0167,N,00123.9742,W,0.42,162.12,241015,,,A*7B,999
$GPGGA,170937.000,5056.0161,N,00123.9739,W,1,6,1.30,23.5,M,47.6,M,,*74,985
$GPRMC,170937.000,A,5056.0161,N,00123.9739,W,0.45,162.12,241015,,,A*77,985
$GPGGA,170938.000,5056.0152,N,00123.9736,W,1,6,1.30,25.2,M,47.6,M,,*75,998
$GPRMC,170938.000,A,5056.0152,N,00123.9736,W,0.49,162.12,241015,,,A*7B,998
$GPGGA,170939.000,5056.0148,N,00123.9735,W,1,6,1.30,26.3,M,47.6,M,,*7E,993
$GPRMC,170939.000,A,5056.0148,N,00123.9735,W,0.33,162.12,241015,,,A*7F,993
$GPGGA,170940.000,5056.0145,N,00123.9733,W,1,6,1.30,26.9,M,47.6,M,,*71,1001
$GPRMC,170940.000,A,5056.0145,N,00123.9733,W,0.26,162.12,241015,,,A*7E,1001
$GPGGA,170941.000,5056.0142,N,00123.9732,W,1,6,1.30,27.6,M,47.6,M,,*78,1001
$GPRMC,170941.000,A,5056.0142,N,00123.9732,W,0.28,162.12,241015,,,A*77,1001
$GPGGA,170942.000,5056.0141,N,00123.9732,W,1,6,1.30,28.2,M,47.6,M,,*73,1000
$GPRMC,170942.000,A,5056.0141,N,00123.9732,W,0.24,162.12,241015,,,A*7B,1000
$GPGGA,170943.000,5056.0140,N,00123.9731,W,1,6,1.30,28.7,M,47.6,M,,*75,1019
$GPRMC,170943.000,A,5056.0140,N,00123.9731,W,0.12,162.12,241015,,,A*7D,1019
$GPGGA,170944.000,5056.0139,N,00123.9732,W,1,6,1.30,28.9,M,47.6,M,,*71,991
$GPRMC,170944.000,A,5056.0139,N,00123.9732,W,0.11,162.12,241015,,,A*74,991
$GPGGA,170945.000,5056.0139,N,00123.9734,W,1,6,1.30,29.0,M,47.6,M,,*7E,1046
$GPRMC,170945.000,A,5056.0139,N,00123.9734,W,0.12,162.12,241015,,,A*70,1046
$GPGGA,170946.000,5056.0139,N,00123.9734,W,1,6,1.30,29.0,M,47.6,M,,*7D,956
$GPRMC,170946.000,A,5056.0139,N,00123.9734,W,0.09,162.12,241015,,,A*79,956
$GPGGA,170947.000,5056.0135,N,00123.9731,W,1,6,1.30,29.2,M,47.6,M,,*77,1045
$GPRMC,170947.000,A,5056.0135,N,00123.9731,W,0.12,162.12,241015,,,A*7B,1045
$GPGGA,170948.000,5056.0132,N,00123.9727,W,1,6,1.30,29.6,M,47.6,M,,*7C,956
$GPRMC,170948.000,A,5056.0132,N,00123.9727,W,0.23,162.12,241015,,,A*76,956
$GPGGA,170949.000,5056.0129,N,00123.9724,W,1,6,1.30,30.0,M,47.6,M,,*7A,1048
$GPRMC,170949.000,A,5056.0129,N,00123.9724,W,0.39,162.12,241015,,,A*75,1048
$GPGGA,170950.000,5056.0126,N,00123.9720,W,1,6,1.30,30.1,M,47.6,M,,*78,968
$GPRMC,170950.000,A,5056.0126,N,00123.9720,W,0.59,115.89,241015,,,A*72,968
$GPGGA,170951.000,5056.0125,N,00123.9716,W,1,6,1.30,30.1,M,47.6,M,,*7F,1049
$GPRMC,170951.000,A,5056.0125,N,00123.9716,W,0.61,116.67,241015,,,A*7D,1049
$GPGGA,170952.000,5056.0125,N,00123.9715,W,1,6,1.30,30.0,M,47.6,M,,*7E,939
$GPRMC,170952.000,A,5056.0125,N,00123.9715,W,0.46,116.67,241015,,,A*78,939
$GPGGA,170953.000,5056.0126,N,00123.9714,W,1,6,1.30,30.0,M,47.6,M,,*7D,1054
$GPRMC,170953.000,A,5056.0126,N,00123.9714,W,0.34,116.67,241015,,,A*7E,1054
$GPGGA,170954.000,5056.0126,N,00123.9713,W,1,6,1.30,30.1,M,47.6,M,,*7C,995
$GPRMC,170954.000,A,5056.0126,N,00123.9713,W,0.30,116.67,241015,,,A*7A,995
$GPGGA,170955.000,5056.0126,N,00123.9709,W,1,6,1.30,30.1,M,47.6,M,,*76,964
$GPRMC,170955.000,A,5056.0126,N,00123.9709,W,0.39,116.67,241015,,,A*79,964
$GPGGA,170956.000,5056.0126,N,00123.9705,W,1,6,1.30,29.9,M,47.6,M,,*79,1020
$GPRMC,170956.000,A,5056.0126,N,00123.9705,W,0.42,116.67,241015,,,A*7A,1020
$GPGGA,170957.000,5056.0127,N,00123.9701,W,1,6,1.30,29.7,M,47.6,M,,*73,990
$GPRMC,170957.000,A,5056.0127,N,00123.9701,W,0.39,116.67,241015,,,A*72,990
$GPGGA,170958.000,5056.0128,N,00123.9700,W,1,6,1.30,29.6,M,47.6,M,,*73,999
$GPRMC,170958.000,A,5056.0128,N,00123.9700,W,0.25,116.67,241015,,,A*7E,999
$GPGGA,170959.000,5056.0130,N,00123.9701,W,1,6,1.30,29.5,M,47.6,M,,*79,983
$GPRMC,170959.000,A,5056.0130,N,00123.9701,W,0.05,116.67,241015,,,A*75,983
$GPGGA,171000.000,5056.0132,N,00123.9703,W,1,6,1.30,29.4,M,47.6,M,,*7C,997
$GPRMC,171000.000,A,5056.0132,N,00123.9703,W,0.10,116.67,241015,,,A*75,997
$GPGGA,171001.000,5056.0134,N,00123.9703,W,1,6,1.51,29.4,M,47.6,M,,*7C,1001
$GPRMC,171001.000,A,5056.0134,N,00123.9703,W,0.13,116.67,241015,,,A*71,1001
$GPGGA,171002.000,5056.0133,N,00123.9701,W,1,6,1.51,29.3,M,47.6,M,,*7D,1030
$GPRMC,171002.000,A,5056.0133,N,00123.9701,W,0.16,116.67,241015,,,A*72,1030
$GPGGA,171003.000,5056.0134,N,00123.9702,W,1,6,1.30,29.4,M,47.6,M,,*78,973
$GPRMC,171003.000,A,5056.0134,N,00123.9702,W,0.18,116.67,241015,,,A*79,973
$GPGGA,171004.000,5056.0133,N,00123.9703,W,1,6,1.30,29.5,M,47.6,M,,*78,999
$GPRMC,171004.000,A,5056.0133,N,00123.9703,W,0.21,116.67,241015,,,A*72,999
$GPGGA,171005.000,5056.0133,N,00123.9704,W,1,6,1.30,29.7,M,47.6,M,,*7C,1019
$GPRMC,171005.000,A,5056.0133,N,00123.9704,W,0.23,116.67,241015,,,A*76,1019
$GPGGA,171006.000,5056.0134,N,00123.9705,W,1,6,1.30,29.8,M,47.6,M,,*76,1052
$GPRMC,171006.000,A,5056.0134,N,00123.9705,W,0.24,116.67,241015,,,A*74,1052
$GPGGA,171007.000,5056.0134,N,00123.9704,W,1,6,1.30,29.8,M,47.6,M,,*76,949
$GPRMC,171007.000,A,5056.0134,N,00123.9704,W,0.20,116.67,241015,,,A*70,949
$GPGGA,171008.000,5056.0135,N,00123.9704,W,1,6,1.51,29.8,M,47.6,M,,*7F,1061
$GPRMC,171008.000,A,5056.0135,N,00123.9704,W,0.18,116.67,241015,,,A*75,1061
$GPGGA,171009.000,5056.0135,N,00123.9704,W,1,6,1.51,29.8,M,47.6,M,,*7E,922
$GPRMC,171009.000,A,5056.0135,N,00123.9704,W,0.14,116.67,241015,,,A*78,922
$GPGGA,171010.000,5056.0136,N,00123.9704,W,1,6,1.51,29.8,M,47.6,M,,*75,1071
$GPRMC,171010.000,A,5056.0136,N,00123.9704,W,0.17,116.67,241015,,,A*70,1071
$GPGGA,171011.000,5056.0136,N,00123.9703,W,1,6,1.30,29.8,M,47.6,M,,*74,938
$GPRMC,171011.000,A,5056.0136,N,00123.9703,W,0.19,116.67,241015,,,A*78,938
$GPGGA,171012.000,5056.0136,N,00123.9702,W,1,6,1.30,29.8,M,47.6,M,,*76,1050
$GPRMC,171012.000,A,5056.0136,N,00123.9702,W,0.11,116.67,241015,,,A*72,1050
$GPGGA,171013.000,5056.0136,N,00123.9702,W,1,6,1.30,29.8,M,47.6,M,,*77,945
$GPRMC,171013.000,A,5056.0136,N,00123.9702,W,0.08,116.67,241015,,,A*7B,945
$GPGGA,171014.000,5056.0136,N,00123.9702,W,1,6,1.30,29.8,M,47.6,M,,*70,1062
$GPRMC,171014.000,A,5056.0136,N,00123.9702,W,0.02,116.67,241015,,,A*76,1062
$GPGGA,171015.000,5056.0136,N,00123.9702,W,1,6,1.51,29.8,M,47.6,M,,*76,1005
$GPRMC,171015.000,A,5056.0136,N,00123.9702,W,0.08,116.67,241015,,,A*7D,1005
$GPGGA,171016.000,5056.0136,N,00123.9702,W,1,6,1.30,29.8,M,47.6,M,,*72,941
$GPRMC,171016.000,A,5056.0136,N,00123.9702,W,0.16,116.67,241015,,,A*71,941
$GPGGA,171017.000,5056.0136,N,00123.9701,W,1,6,1.30,29.8,M,47.6,M,,*70,1009
$GPRMC,171017.000,A,5056.0136,N,00123.9701,W,0.24,116.67,241015,,,A*72,1009
$GPGGA,171018.000,5056.0136,N,00123.9700,W,1,6,1.30,29.8,M,47.6,M,,*7E,1010
$GPRMC,171018.000,A,5056.0136,N,00123.9700,W,0.21,116.67,241015,,,A*79,1010
$GPGGA,171019.000,5056.0135,N,00123.9699,W,1,6,1.30,29.8,M,47.6,M,,*7D,992
$GPRMC,171019.000,A,5056.0135,N,00123.9699,W,0.25,116.67,241015,,,A*7E,992
$GPGGA,171020.000,5056.0135,N,00123.9699,W,1,6,1.30,29.8,M,47.6,M,,*77,993
$GPRMC,171020.000,A,5056.0135,N,00123.9699,W,0.28,116.67,241015,,,A*79,993
